instID,church_type,instName,language,instNote,placeName,region,county_orig,county_reg,city_orig,city_reg,state_orig,state_reg,latitude,longitude,attendingInstID,attendingChurch,attendingChurchFrequency,persID,persTitle,persName,persSuffix,persRole,persNote,memberType,member,affiliated,order,year,attendingPersID,attendingChurchNote,diocese,diocese_reg
﻿lou.ky.0001,﻿cathedral,﻿Cathedral of the Assumption,English,"﻿There are three regular Masses on Sundays and Holydays at half-past six, eight, and ten A.M. in summer, and at seven, half-past eight, and half-past ten A.M. in the winter; sermons at eight and ten A.M. Masses; Vespers at half-past three P.M. in summer, and three P.M. in winter",,,﻿Jefferson,,﻿Louisville,,﻿KY,,38.251906,-85.758804,,,,﻿pet_j_lavialle_001,﻿Right Rev.,﻿Peter Joseph Lavialle,﻿D.D.,,,,,,,1868,﻿,﻿,﻿Louisville,Louisville
﻿lou.ky.0001,﻿cathedral,﻿Cathedral of the Assumption,English,"﻿There are three regular Masses on Sundays and Holydays at half-past six, eight, and ten A.M. in summer, and at seven, half-past eight, and half-past ten A.M. in the winter; sermons at eight and ten A.M. Masses; Vespers at half-past three P.M. in summer, and three P.M. in winter",,,﻿Jefferson,,﻿Louisville,,﻿KY,,38.251906,-85.758804,,,,﻿j_l_spalding_001,﻿Rev.,﻿J. L. Spalding,,,,,,,,1868,﻿,﻿,﻿Louisville,Louisville
﻿lou.ky.0001,﻿cathedral,﻿Cathedral of the Assumption,English,"﻿There are three regular Masses on Sundays and Holydays at half-past six, eight, and ten A.M. in summer, and at seven, half-past eight, and half-past ten A.M. in the winter; sermons at eight and ten A.M. Masses; Vespers at half-past three P.M. in summer, and three P.M. in winter",,,﻿Jefferson,,﻿Louisville,,﻿KY,,38.251906,-85.758804,,,,﻿h_brady_001,﻿Rev.,﻿H. Brady,,,,,,,,1868,﻿,﻿,﻿Louisville,Louisville
﻿lou.ky.0001,﻿cathedral,﻿Cathedral of the Assumption,English,"﻿There are three regular Masses on Sundays and Holydays at half-past six, eight, and ten A.M. in summer, and at seven, half-past eight, and half-past ten A.M. in the winter; sermons at eight and ten A.M. Masses; Vespers at half-past three P.M. in summer, and three P.M. in winter",,,﻿Jefferson,,﻿Louisville,,﻿KY,,38.251906,-85.758804,,,,﻿m_bouchet_001,﻿Rev.,﻿M. Bouchet,,,,,,,,1868,﻿,﻿,﻿Louisville,Louisville
﻿lou.ky.0001,﻿cathedral,﻿Cathedral of the Assumption,English,"﻿There are three regular Masses on Sundays and Holydays at half-past six, eight, and ten A.M. in summer, and at seven, half-past eight, and half-past ten A.M. in the winter; sermons at eight and ten A.M. Masses; Vespers at half-past three P.M. in summer, and three P.M. in winter",,,﻿Jefferson,,﻿Louisville,,﻿KY,,38.251906,-85.758804,,,,﻿dav_russell_001,﻿Rev.,﻿D. Russell,,,,,,,,1868,﻿,﻿,﻿Louisville,Louisville
﻿lou.ky.0001,﻿cathedral,﻿Cathedral of the Assumption,English,"﻿There are three regular Masses on Sundays and Holydays at half-past six, eight, and ten A.M. in summer, and at seven, half-past eight, and half-past ten A.M. in the winter; sermons at eight and ten A.M. Masses; Vespers at half-past three P.M. in summer, and three P.M. in winter",,,﻿Jefferson,,﻿Louisville,,﻿KY,,38.251906,-85.758804,,,,﻿b_j_spalding_001,﻿Very Rev.,﻿B J. Spalding,﻿D.D.,,,,,,,1868,﻿,﻿,﻿Louisville,Louisville
﻿lou.ky.0002,﻿church,﻿St. Boniface,﻿German,"﻿residence adjoining. Three regular Masses on Sundays and Holydays, with sermon at the second and third; High Mass at ten A.M. and half-past ten A.M.; Vespers at two and half-past two P.M.",﻿Green street,,﻿Jefferson,,﻿Louisville,,﻿KY,,38.251174,-85.743961,,,,﻿ans_koch_001,﻿Rev.,﻿Anselm Koch,﻿O.S.F.,,,,,,,1868,﻿,﻿,﻿Louisville,Louisville
﻿lou.ky.0002,﻿church,﻿St. Boniface,﻿German,"﻿residence adjoining. Three regular Masses on Sundays and Holydays, with sermon at the second and third; High Mass at ten A.M. and half-past ten A.M.; Vespers at two and half-past two P.M.",﻿Green street,,﻿Jefferson,,﻿Louisville,,﻿KY,,38.251174,-85.743961,,,,﻿wil_gansepohl_001,﻿Rev.,﻿William Gansepohl,﻿O.S.F.,,,,,,,1868,﻿,﻿,﻿Louisville,Louisville
﻿lou.ky.0002,﻿church,﻿St. Boniface,﻿German,"﻿residence adjoining. Three regular Masses on Sundays and Holydays, with sermon at the second and third; High Mass at ten A.M. and half-past ten A.M.; Vespers at two and half-past two P.M.",﻿Green street,,﻿Jefferson,,﻿Louisville,,﻿KY,,38.251174,-85.743961,,,,﻿jos_m_roesl_001,﻿Rev.,﻿Joseph M. Roesl,﻿O.S.F.,,,,,,,1868,﻿,﻿,﻿Louisville,Louisville
﻿lou.ky.0003,﻿church,﻿Immaculate Conception,﻿German,﻿residence adjoining. High Mass at ten and half-past ten A.M.; Vespers at half-past two and three P.M.,﻿corner of Eighth and Grayson streets,,﻿Jefferson,,﻿Louisville,,﻿KY,,38.25315,-85.763902,,,,﻿f_x_van-deutekom_001,﻿Rev.,﻿F. X. Van Deutekom,,,,,,,,1868,﻿,﻿,﻿Louisville,Louisville
﻿lou.ky.0003,﻿church,﻿Immaculate Conception,﻿German,﻿residence adjoining. High Mass at ten and half-past ten A.M.; Vespers at half-past two and three P.M.,﻿corner of Eighth and Grayson streets,,﻿Jefferson,,﻿Louisville,,﻿KY,,38.25315,-85.763902,,,,﻿volk_001,﻿Rev.,﻿— —,,,,,,,,1868,﻿,﻿,﻿Louisville,Louisville
﻿lou.ky.0004,﻿church,﻿St. Martin's,﻿German,﻿residence adjoining. High Mass at ten and half-past ten A.M.; Vespers at three and half-past three P.M.,﻿Shelby street,,﻿Jefferson,,﻿Louisville,,﻿KY,,38.245535,-85.739249,,,,﻿lea_streber_001,﻿Rev.,﻿Leander Streber,﻿O.S.F.,,,,,,,1868,﻿,﻿,﻿Louisville,Louisville
﻿lou.ky.0004,﻿church,﻿St. Martin's,﻿German,﻿residence adjoining. High Mass at ten and half-past ten A.M.; Vespers at three and half-past three P.M.,﻿Shelby street,,﻿Jefferson,,﻿Louisville,,﻿KY,,38.245535,-85.739249,,,,﻿mar_beyhurst_001,﻿Rev.,﻿Martin Beyhurst,,,,,,,,1868,﻿,﻿,﻿Louisville,Louisville
﻿lou.ky.0005,﻿church,﻿St. Patrick's,English,﻿residence adjoining. High Mass at nine and half-past nine A.M.; Vespers at three P.M.,﻿Thirteenth street,,﻿Jefferson,,﻿Louisville,,﻿KY,,38.257197,-85.772036,,,,﻿tho_joyce_002,﻿Rev.,﻿Thomas Joyce,,,,,,,,1868,﻿,﻿,﻿Louisville,Louisville
﻿lou.ky.0005,﻿church,﻿St. Patrick's,English,﻿residence adjoining. High Mass at nine and half-past nine A.M.; Vespers at three P.M.,﻿Thirteenth street,,﻿Jefferson,,﻿Louisville,,﻿KY,,38.257197,-85.772036,,,,﻿j_byrne_001,﻿Rev.,﻿J. Byrne,﻿O.P.,,,,,,,1868,﻿,﻿,﻿Louisville,Louisville
﻿lou.ky.0006,﻿church,﻿St. Peter's Church,﻿German,﻿High Mass at nine and half-past nine A.M.; Vespers at three P.M.,"﻿Sixteenth street, beyond Kentucky",,﻿Jefferson,,﻿Louisville,,﻿KY,,38.243125,-85.78206,,,,﻿bon_keller_001,﻿Rev.,﻿Bonaventura Keller,﻿O.S.F.C.,,,,,,,1868,﻿,﻿,﻿Louisville,Louisville
﻿lou.ky.0006,﻿church,﻿St. Peter's Church,﻿German,﻿High Mass at nine and half-past nine A.M.; Vespers at three P.M.,"﻿Sixteenth street, beyond Kentucky",,﻿Jefferson,,﻿Louisville,,﻿KY,,38.243125,-85.78206,,,,﻿ant_muller_001,﻿Rev.,﻿Anthony Muller,﻿O.S.F.C.,,,,,,,1868,﻿,﻿,﻿Louisville,Louisville
﻿lou.ky.0007,﻿church,﻿St. John's Church,English,﻿High Mass at ten and half-past ten A.M.; Vespers at three and half-past three P.M.,﻿Walnut and Clay streets,,﻿Jefferson,,﻿Louisville,,﻿KY,,38.249179,-85.7406,,,,﻿l_bax_001,﻿Rev.,﻿L. Bax,,,,,,,,1868,﻿,﻿,﻿Louisville,Louisville
﻿lou.ky.0007,﻿church,﻿St. John's Church,English,﻿High Mass at ten and half-past ten A.M.; Vespers at three and half-past three P.M.,﻿Walnut and Clay streets,,﻿Jefferson,,﻿Louisville,,﻿KY,,38.249179,-85.7406,,,,﻿alp_coenen_001,﻿Rev.,﻿Alphonsus Coenen,,,,,,,,1868,﻿,﻿,﻿Louisville,Louisville
﻿lou.ky.0008,﻿church,﻿St. Joseph's,﻿German,"﻿Early Mass at half-past seven, and High Mass at ten and half-past ten; Vespers at half-past two.",,,﻿Jefferson,,﻿Louisville,,﻿KY,,38.257567,-85.726564,,,,﻿f_walterspiel_001,﻿Rev.,﻿F. Walterspiel,,,,,,,,1868,﻿,﻿,﻿Louisville,Louisville
﻿lou.ky.0011,﻿chapel,﻿Chapel of the Seven Sorrows,English,﻿attached to the Convent of the Good Shepherd,"﻿Eighth street, attached to the Convent of the Good Shepherd",,﻿Jefferson,,﻿Louisville,,﻿KY,,38.251696,-85.764356,,,,﻿h_brady_001,﻿Rev.,﻿H. Brady,,,,,,,,1868,﻿,﻿,﻿Louisville,Louisville
﻿lou.ky.0011,﻿chapel,﻿Chapel of the Seven Sorrows,English,﻿attached to the Convent of the Good Shepherd,"﻿Eighth street, attached to the Convent of the Good Shepherd",,﻿Jefferson,,﻿Louisville,,﻿KY,,38.251696,-85.764356,,,,﻿m_bouchet_001,﻿Rev.,﻿M. Bouchet,,,,,,,,1868,﻿,﻿,﻿Louisville,Louisville
﻿lou.ky.0012,﻿chapel,﻿Chapel of St. Aloysius,English,,﻿Fourth street,,﻿Jefferson,,﻿Louisville,,﻿KY,,38.251986,-85.75733,,,,﻿f_montariol_001,﻿Rev.,﻿F. Montariol,﻿A.B.,,,,,,,1868,﻿,﻿,﻿Louisville,Louisville
﻿lou.ky.0013,﻿chapel,﻿Chapel of the Immaculate Conception,English,,﻿St. Vincent's Orphan Asylum,,﻿Jefferson,,﻿Louisville,,﻿KY,,38.249317,-85.732337,,,,﻿wal_s_coomes_001,﻿Rev.,﻿W. S. Coomes,,,,,,,,1868,﻿,﻿,﻿Louisville,Louisville
﻿lou.ky.0014,﻿church,﻿Notre Dame du Port (Portland),English,"﻿Two Masses—early Mass at half-past seven, and High Mass at ten and half-past ten",﻿Portland,,﻿Jefferson,,﻿Louisville,,﻿KY,,38.276245,-85.805653,,,,﻿hug_peythieu_001,﻿Rev.,﻿Hugo Peythieu,,,﻿who resides at the church and is Chaplain of Cedar Grove Academy,,,,,1868,﻿,﻿,﻿Louisville,Louisville
﻿lou.ky.0015,﻿church,﻿St. Michael's,English,"﻿Two Masses—early Mass at half-past seven, and High Mass at ten and half-past ten; Vespers at three P.M.",﻿Brook street,,﻿Jefferson,,﻿Kentucky,,﻿KY,,38.256006,-85.749365,,,,﻿m_power_001,﻿Rev.,﻿M. Power,,,,,,,,1868,﻿,﻿,﻿Louisville,Louisville
﻿lou.ky.0016,﻿church,﻿St. Louis Bertrand,English,"﻿Three Masses—at seven, half-past eight, and High Mass at ten and half-past ten; Vespers and Rosary at three P.M","﻿Seventh street, near Churchill",,﻿Jefferson,,﻿Louisville,,﻿KY,,38.236966,-85.763567,,,,﻿d_j_meagher_001,﻿Very Rev.,﻿D. J. Meagher,﻿O.P.,,,,,,,1868,﻿,﻿,﻿Louisville,Louisville
﻿lou.ky.0016,﻿church,﻿St. Louis Bertrand,English,"﻿Three Masses—at seven, half-past eight, and High Mass at ten and half-past ten; Vespers and Rosary at three P.M","﻿Seventh street, near Churchill",,﻿Jefferson,,﻿Louisville,,﻿KY,,38.236966,-85.763567,,,,﻿j_v_daly_001,﻿Rev.,﻿J. V. Daly,﻿O.P.,,,,,,,1868,﻿,﻿,﻿Louisville,Louisville
﻿lou.ky.0016,﻿church,﻿St. Louis Bertrand,English,"﻿Three Masses—at seven, half-past eight, and High Mass at ten and half-past ten; Vespers and Rosary at three P.M","﻿Seventh street, near Churchill",,﻿Jefferson,,﻿Louisville,,﻿KY,,38.236966,-85.763567,,,,﻿j_byrne_001,﻿Rev.,﻿J. Byrne,﻿O.P.,,,,,,,1868,﻿,﻿,﻿Louisville,Louisville
﻿lou.ky.0016,﻿church,﻿St. Louis Bertrand,English,"﻿Three Masses—at seven, half-past eight, and High Mass at ten and half-past ten; Vespers and Rosary at three P.M","﻿Seventh street, near Churchill",,﻿Jefferson,,﻿Louisville,,﻿KY,,38.236966,-85.763567,,,,﻿j_meagher_001,﻿Rev.,﻿J. Meagher,﻿O.P.,,,,,,,1868,﻿,﻿,﻿Louisville,Louisville
﻿lou.ky.0017,﻿chapel,﻿Chapel at Mt. St. Benedict's Academy of Sisters of Loretto,English,,﻿Mt. St. Benedict's Academy of Sisters of Loretto,,﻿Jefferson,,﻿Louisville,,﻿KY,,38.275401,-85.805608,,,,﻿hug_peythieu_001,﻿Rev.,﻿H. Peythieu,,,,,,,,1868,﻿,﻿,﻿Louisville,Louisville
﻿lou.ky.0018,﻿chapel,﻿Chapel of St. Joseph's Infirmary of Sisters of Charity,English,,﻿St. Joseph's Infirmary of Sisters of Charity,,﻿Jefferson,,﻿Louisville,,﻿KY,,38.247595,-85.757884,,,,,,,,,,,,﻿Attended by the Dominican Fathers,,1868,﻿,﻿,﻿Louisville,Louisville
﻿lou.ky.0019,﻿chapel,﻿Chapel of St. Francis Xavier's Industrial School of Sisters of the Good Shepherd,English,,﻿St. Francis Xavier's Industrial School of Sisters of the Good Shepherd,,﻿Jefferson,,﻿Louisville,,﻿KY,,38.266498,-85.78589,﻿lou.ky.0001,﻿Attended from the Cathedral and St. Patrick's,,,,,,,,,,,,1868,﻿,﻿,﻿Louisville,Louisville
﻿lou.ky.0019,﻿chapel,﻿Chapel of St. Francis Xavier's Industrial School of Sisters of the Good Shepherd,English,,﻿St. Francis Xavier's Industrial School of Sisters of the Good Shepherd,,﻿Jefferson,,﻿Louisville,,﻿KY,,38.266498,-85.78589,﻿lou.ky.0005,,,,,,,,,,,,,1868,﻿,﻿,﻿Louisville,Louisville
﻿lou.ky.0020,﻿church,﻿St. Joseph's,English,,,,﻿Nelson,,﻿Bardstown,,﻿KY,,37.810492,-85.471424,,,,﻿jn_schultz_001,﻿Rev.,﻿John Schultz,﻿S.J.,,,,,,,1868,﻿,﻿,﻿Louisville,Louisville
﻿lou.ky.0020,﻿church,﻿St. Joseph's,English,,,,﻿Nelson,,﻿Bardstown,,﻿KY,,37.810492,-85.471424,,,,﻿cha_truyens_001,﻿Rev.,﻿Charles Truyens,﻿S.J.,,,,,,,1868,﻿,﻿,﻿Louisville,Louisville
﻿lou.ky.0020,﻿church,﻿St. Joseph's,English,,,,﻿Nelson,,﻿Bardstown,,﻿KY,,37.810492,-85.471424,,,,﻿the_de-leeuw_001,﻿Rev.,﻿Theodore De Leeuw,﻿S.J.,,,,,,,1868,﻿,﻿,﻿Louisville,Louisville
﻿lou.ky.0021,﻿chapel,not recorded,English,﻿new chapel building,,,,,﻿Bacon Creek,,﻿KY,,37.378667,-85.903023,﻿lou.ky.0027,﻿Attended from Bowling Green,,,,,,,,,,,,1868,﻿,﻿,﻿Louisville,Louisville
﻿lou.ky.0022,﻿church,﻿St. Augustine's,English,,,,﻿Grayson,,﻿Bear Creek,,﻿KY,,37.450363,-86.232462,,,,﻿j_b_vandemergel_001,﻿Rev.,﻿J. B. Vandemergel,,,,,,,,1868,﻿,﻿,﻿Louisville,Louisville
﻿lou.ky.0023,﻿church,not recorded,English,,,,﻿Trimble,,﻿Bedford,,﻿KY,,38.592563,-85.317734,﻿vinc.in.0081,"﻿attended from Madison, Indiana",,,,,,,,,,,,1868,﻿,﻿,﻿Louisville,Louisville
﻿lou.ky.0024,﻿church,not recorded,English,,,,﻿Crittenden,,﻿Bell's Coal Mines,,﻿KY,,37.509758,-88.022169,﻿lou.ky.0072,"﻿Attended from the Sacred Heart, Union Co.",,,,,,,,,,,,1868,﻿,﻿,﻿Louisville,Louisville
﻿lou.ky.0025,﻿church,not recorded,English,,,,﻿Bullitt,,﻿Belmont Furnace,,﻿KY,,37.892726,-85.698949,﻿lou.ky.0063,﻿Attended from New Haven,﻿occasionally,,,,,,,,,,,1868,﻿,﻿,﻿Louisville,Louisville
﻿lou.ky.0026,﻿church,﻿Immaculate Conception,English,,,,﻿Hardin,,﻿Bethlehem Convent,,﻿KY,,37.701415,-85.995477,,,,﻿aug_degauquier_001,﻿Rev.,﻿A. Degauquier,,﻿Chaplain and Director,,,,,,1868,﻿,﻿,﻿Louisville,Louisville
﻿lou.ky.0027,﻿church,﻿St. Joseph's,English,,,,﻿Warren,,﻿Bowling Green,,﻿KY,,37.001855,-86.44715,,,,﻿jos_de-vries_001,﻿Rev.,﻿Joseph De Vries,,,,,,,,1868,﻿,﻿,﻿Louisville,Louisville
﻿lou.ky.0028,﻿church,﻿St. Andrew's,English,,,,﻿Jefferson,,﻿Big Run,,﻿KY,,38.144526,-85.814399,,,,﻿eng_bachman_001,﻿Rev.,﻿Englebert Bachman,,,,,,,,1868,﻿,﻿,﻿Louisville,Louisville
﻿lou.ky.0029,﻿church,not recorded,English,,,,﻿Mead,,﻿Brandenburgh,,﻿KY,,38.001028,-86.172147,﻿lou.ky.0039,﻿Attended from Flint Island,,,,,,,,,,,,1868,﻿,﻿,﻿Louisville,Louisville
﻿lou.ky.0030,﻿church,﻿St. Francis Assisium,English,,,,﻿Marion,,﻿Chicago,,﻿KY,,37.62636,-85.430563,,,,﻿fra_wuyts_001,﻿Rev.,﻿F. Wuyts,,,,,,,,1868,﻿,﻿,﻿Louisville,Louisville
﻿lou.ky.0031,﻿church,﻿St. Clare's,English,,,,﻿Hardin,,﻿Clear Creek,,﻿KY,,37.784264,-85.774523,,,,﻿ter_j_disney_001,﻿Rev.,﻿Ter. J. Disney,,,,,,,,1868,﻿,﻿,﻿Louisville,Louisville
﻿lou.ky.0032,﻿church,﻿St. Paul's,English,,,,﻿Grayson,,﻿Clifty,,﻿KY,,37.565389,-86.217192,,,,﻿j_b_vandemergel_001,﻿Rev.,﻿J. B. Vandemergel,,,,,,,,1868,﻿,﻿,﻿Louisville,Louisville
﻿lou.ky.0033,﻿church,not recorded,English,﻿new brick church,,,﻿Breckenridge,,﻿Cloverport,,﻿KY,,37.835544,-86.636106,﻿lou.ky.0042,﻿Attended from Hardinsburgh by Rev. J. A. Barrett,﻿once a month,﻿joh_a_barrett_001,﻿Rev.,﻿J. A. Barrett,,,,,,,,1868,﻿,﻿,﻿Louisville,Louisville
﻿lou.ky.0035,﻿church,not recorded,English,,,,﻿Crittenden,,﻿Dycusburgh,,﻿KY,,37.159498,-88.184472,,"﻿Attended by Rev. E. J. Durbin from Sacred Heart (Uniontown, P.O.)",﻿occasionally,﻿eli_j_durbin_001,﻿Rev.,﻿E. J. Durbin,,,,,,,,1868,﻿,﻿,﻿Louisville,Louisville
﻿lou.ky.0036,﻿church,﻿St. James',English,,,,﻿Hardin,,﻿Elizabethtown,,﻿KY,,37.706119,-85.857805,,,,﻿aug_degauquier_001,﻿Rev.,﻿A. Degauquier,,,,,,,,1868,﻿,﻿,﻿Louisville,Louisville
﻿lou.ky.0037,﻿church,not recorded,English,,,,﻿Henry,,﻿Eminence,,﻿KY,,38.370068,-85.18051,﻿lou.ky.0097,﻿Attended from Shelbyville,,,,,,,,,,,,1868,﻿,﻿,﻿Louisville,Louisville
﻿lou.ky.0038,﻿church,﻿St. Michael's,English,,,,﻿Nelson,,﻿Fairfield,,﻿KY,,37.931864,-85.382884,,,,﻿jam_elliott_001,﻿Rev.,﻿James Elliott,,,,,,,,1868,﻿,﻿,﻿Louisville,Louisville
﻿lou.ky.0039,﻿church,﻿St. Teresa's,English,,,,﻿Mead,,﻿Flint Island,,﻿KY,,38.030304,-86.438842,,,,﻿pat_mcnicholas_001,﻿Rev.,﻿Patrick McNicholas,,,,,,,,1868,﻿,﻿,﻿Louisville,Louisville
﻿lou.ky.0040,﻿church,not recorded,English,,,,﻿Simpson,,﻿Franklin,,﻿KY,,36.718786,-86.578557,﻿lou.ky.0027,﻿Attended from Bowling Green,,,,,,,,,,,,1868,﻿,﻿,﻿Louisville,Louisville
﻿lou.ky.0041,﻿church,not recorded,English,﻿residence of the Trappists; Mass every Sunday,,,﻿Nelson,,﻿Gethesmane,,﻿KY,,37.645596,-85.545472,,,,,,,,,,,,,,1868,﻿,﻿,﻿Louisville,Louisville
﻿lou.ky.0042,﻿church,﻿St. Romuald's,English,,,,﻿Breckenridge,,﻿Hardinsburgh,,﻿KY,,37.786683,-86.461756,,,,﻿joh_a_barrett_001,﻿Rev.,﻿John A. Barrett,,,﻿who resides here,,,,,1868,﻿,﻿,﻿Louisville,Louisville
﻿lou.ky.0043,﻿church,﻿St. Peter's,English,﻿new church,,,,,﻿Harrodsburgh,,﻿KY,,37.762682,-84.845415,﻿lou.ky.0052,﻿Attended from Lebanon,﻿monthly,,,,,,,,,,,1868,﻿,﻿,﻿Louisville,Louisville
﻿lou.ky.0044,﻿church,not recorded,English,﻿new church of stone,,,﻿Hancock,,﻿Hawesville,,﻿KY,,37.900055,-86.754988,,,,﻿mar_flynn_001,﻿Rev.,﻿Martin Flynn,,,,,,,,1868,﻿,﻿,﻿Louisville,Louisville
﻿lou.ky.0045,﻿church,not recorded,English,﻿a new brick church,,,﻿Henderson,,﻿Henderson,,﻿KY,,37.825998,-87.568326,,,,﻿wil_j_dunn_001,﻿Rev.,﻿William J. Dunn,,﻿resident pastor,,,,,,1868,﻿,﻿,﻿Louisville,Louisville
﻿lou.ky.0046,﻿church,not recorded,English,,,,﻿Fulton,,﻿Hickman,,﻿KY,,36.571172,-89.186179,﻿lou.ky.0080,﻿Attended from Fancy Farm,,,,,,,,,,,,1868,﻿,﻿,﻿Louisville,Louisville
﻿lou.ky.0047,﻿church,﻿Our Lady of Mercy,English,,,,﻿La Rue,,﻿Hodgensville,,﻿KY,,37.572023,-85.741502,,,,﻿j_f_reed_001,﻿Rev.,﻿John F. Reed,,﻿resident pastor,,,,,,1868,﻿,﻿,﻿Louisville,Louisville
﻿lou.ky.0048,﻿church,﻿Holy Cross,English,,,,﻿Marion,,﻿Holy Cross,,﻿KY,,37.673951,-85.446906,,,,﻿fra_wuyts_001,﻿Rev.,﻿Francis Wuyts,,,,,,,,1868,﻿,﻿,﻿Louisville,Louisville
﻿lou.ky.0049,﻿church,﻿Holy Mary,English,,,,﻿Marion,﻿Marion,﻿Holy Mary's,﻿Calvary,﻿KY,,37.516709,-85.268191,,,,﻿a_a_aud_001,﻿Rev.,﻿A. A. Aud,,,,,,,,1868,﻿,﻿,﻿Louisville,Louisville
﻿lou.ky.0049,﻿church,﻿Holy Mary,English,,,,﻿Marion,﻿Marion,﻿Holy Mary's,﻿Calvary,﻿KY,,37.516709,-85.268191,,,,﻿rob_a_abell_001,﻿Rev.,﻿Robert A. Abell,,,"﻿retired from the active exercise of the holy ministry in consequence of age and infirmities, resides near the church, and preaches occasionally",,,,,1868,﻿,﻿,﻿Louisville,Louisville
﻿lou.ky.0050,﻿church,not recorded,English,,,,﻿Christian,,﻿Hopkinsville,,﻿KY,,36.865601,-87.488619,,﻿Attended by Rev. W.J. Dunn,,﻿wil_j_dunn_001,﻿Rev.,﻿W. J. Dunn,,,,,,,,1868,﻿,﻿,﻿Louisville,Louisville
﻿lou.ky.0051,﻿station,not recorded,English,,,,﻿Caldwell,,﻿Kelly's Furnace,,﻿KY,,37.051271,-88.169437,,﻿Attended by Rev. E.J. Durbin,,﻿eli_j_durbin_001,﻿Rev.,﻿E. J. Durbin,,,,,,,,1868,﻿,﻿,﻿Louisville,Louisville
﻿lou.ky.0052,﻿church,﻿St. Augustin's,English,,,,﻿Marion,,﻿Lebanon,,﻿KY,,37.568122,-85.251338,,,,﻿ivo_schacht_001,﻿Rev.,﻿Ivo Schacht,,,,,,,,1868,﻿,﻿,﻿Louisville,Louisville
﻿lou.ky.0052,﻿church,﻿St. Augustin's,English,,,,﻿Marion,,﻿Lebanon,,﻿KY,,37.568122,-85.251338,,,,﻿l_m_rince_001,﻿Rev.,﻿L. M. Rince,,,,,,,,1868,﻿,﻿,﻿Louisville,Louisville
﻿lou.ky.0053,﻿church,﻿St. Columba's,English,,,,﻿Hancock,,﻿Lewis' Bottom,,﻿KY,,37.934314,-86.90758,﻿lou.ky.0044,﻿Attended from Hawesville,﻿once a month,,,,,,,,,,,1868,﻿,﻿,﻿Louisville,Louisville
﻿lou.ky.0054,﻿church,﻿St. Anthony's,English,,,,﻿Breckenridge,,﻿Long Lick,,﻿KY,,37.634501,-86.462027,,﻿Rev. John A. Barrett,﻿once a month,﻿joh_a_barrett_001,﻿Rev.,﻿John A. Barrett,,,,,,,,1868,﻿,﻿,﻿Louisville,Louisville
﻿lou.ky.0055,﻿church,﻿Seven Sorrows,English,,,,﻿Marion,,﻿Loretto Convent,,﻿KY,,37.665702,-85.397317,,,,﻿fra_wuyts_001,﻿Rev.,﻿Francis Wuyts,,,,,,,,1868,﻿,﻿,﻿Louisville,Louisville
﻿lou.ky.0056,﻿station,not recorded,English,,,,﻿Hopkins,,﻿Madisonville,,﻿KY,,37.328101,-87.498888,,﻿Attended by Rev. W.J. Dunn from Henderson,,﻿wil_j_dunn_001,﻿Rev.,﻿W. J. Dunn,,,,,,,,1868,﻿,﻿,﻿Louisville,Louisville
﻿lou.ky.0057,﻿church,﻿Holy Rosary,English,,,,﻿Washington,,﻿Manton,,﻿KY,,37.71472,-85.38528,,,,﻿tho_faunt_001,﻿Rev.,﻿Thomas Faunt,,﻿resident pastor,,,,,,1868,﻿,﻿,﻿Louisville,Louisville
﻿lou.ky.0058,﻿station,not recorded,English,,,,﻿Trimble,,﻿Milton,,﻿KY,,38.723671,-85.369402,﻿lou.ky.0097,﻿Attended from Shelbyville,,,,,,,,,,,,1868,﻿,﻿,﻿Louisville,Louisville
﻿lou.ky.0059,﻿church,not recorded,English,,,,﻿Union,,﻿Morganfield,,﻿KY,,37.683378,-87.916691,﻿lou.ky.0072,﻿Attended from Sacred Heart,,,,,,,,,,,,1868,﻿,﻿,﻿Louisville,Louisville
﻿lou.ky.0060,﻿church,﻿Guardian Angels,English,,,,﻿Breckenridge,,﻿Mount Merino,,﻿KY,,37.896122,-86.284712,,,﻿once a month,﻿pat_mcnicholas_001,﻿Rev.,﻿P. McNicholas,,,,,,,,1868,﻿,﻿,﻿Louisville,Louisville
﻿lou.ky.0061,﻿church,﻿St. F. Xavier's,English,,,,﻿Bullitt,,﻿Mount Washington,,﻿KY,,38.048959,-85.539661,,,,﻿jam_elliott_001,﻿Rev.,﻿James Elliott,,,﻿from Fairfield,,,,,1868,﻿,﻿,﻿Louisville,Louisville
﻿lou.ky.0062,﻿church,﻿St. Vincent de Paul's,English,,,,﻿Nelson,,﻿Nazareth Convent,,﻿KY,,37.848117,-85.472735,,,,﻿pet_de-fraine_001,﻿Rev.,﻿Peter De Fraine,,,,,,,,1868,﻿,﻿,﻿Louisville,Louisville
﻿lou.ky.0063,﻿church,﻿St. Catharine's,English,,,,﻿Nelson,,﻿New-Haven,,﻿KY,,37.66031,-85.590976,,,,﻿fra_de-meulder_001,﻿Rev.,﻿Francis De Meulder,,,,,,,,1868,﻿,﻿,﻿Louisville,Louisville
﻿lou.ky.0064,﻿church,﻿St. Benedict's,English,,,,﻿Grayson,,﻿Nolin,,﻿KY,,37.340095,-86.159315,,,﻿once a month,﻿j_b_vandemergel_001,﻿Rev.,﻿J. B. Vandemergel,,,,,,,,1868,﻿,﻿,﻿Louisville,Louisville
﻿lou.ky.0065,﻿church,﻿St. Stephen's,English,﻿new brick church completed,,,﻿Daviess,,﻿Owensboro,,﻿KY,,37.769766,-87.115913,,,﻿every Sunday and holyday,﻿eug_ocallaghan_001,﻿Rev.,﻿Eugene O'Callaghan,,,﻿every sunday and holyday,,,,,1868,﻿,﻿,﻿Louisville,Louisville
﻿lou.ky.0066,﻿church,﻿St. F. de Sales,English,,,,﻿McCracken,,﻿Paducah,,﻿KY,,37.036691,-88.669571,,,,﻿e_odriscoll_001,﻿Rev.,﻿E. O'Driscoll,,,"﻿who also attends Smithland, and other adjoining missions",,,,,1868,﻿,﻿,﻿Louisville,Louisville
﻿lou.ky.0067,﻿church,﻿St. Alphonsus,English,,,,﻿Daviess,,﻿Panther Creek,,﻿KY,,37.730798,-87.102375,,,,﻿c_egermont_001,﻿Rev.,﻿Chas. Eggermont,,,,,,,,1868,﻿,﻿,﻿Louisville,Louisville
﻿lou.ky.0069,﻿church,﻿St. F. Xavier's,English,,,,﻿Marion,,﻿Raywick,,﻿KY,,37.561198,-85.430932,,,,﻿p_j_lacoste_001,﻿Rev.,﻿P. J. Lacoste,,,,,,,,1868,﻿,﻿,﻿Louisville,Louisville
﻿lou.ky.0069,﻿church,﻿St. F. Xavier's,English,,,,﻿Marion,,﻿Raywick,,﻿KY,,37.561198,-85.430932,,,,,,﻿Joseph H. Elder,,,,,,,,1868,﻿,﻿,﻿Louisville,Louisville
﻿lou.ky.0070,﻿church,not recorded,English,,,,﻿La Rue,,﻿Red Mills,,﻿KY,,37.5682,-85.870917,,,,﻿j_f_reed_001,﻿Rev.,﻿John F. Reed,,,,,,,,1868,﻿,﻿,﻿Louisville,Louisville
﻿lou.ky.0072,﻿church,﻿Sacred Heart of Jesus,English,,﻿Uniontown P. O.,,﻿Union,,,,﻿KY,,37.775321,-87.930583,,,,﻿eli_j_durbin_001,﻿Rev.,﻿E. J. Durbin,,,,,,,,1868,﻿,﻿,﻿Louisville,Louisville
﻿lou.ky.0072,﻿church,﻿Sacred Heart of Jesus,English,,﻿Uniontown P. O.,,﻿Union,,,,﻿KY,,37.775321,-87.930583,,,,﻿jam_martin_001,﻿Rev.,﻿James Martin,﻿D.D.,,,,,,,1868,﻿,﻿,﻿Louisville,Louisville
﻿lou.ky.0073,﻿church,﻿St. Ambrose,English,,,,﻿Union,,﻿St. Ambrose,,﻿KY,,37.608899,-88.031058,﻿lou.ky.0072,﻿Attended from the Sacred Heart,﻿monthly,,,,,,,,,,,1868,﻿,﻿,﻿Louisville,Louisville
﻿lou.ky.0074,﻿church,﻿St. Bernard,English,,﻿Casey Creek P. O.,,﻿Casey,,,﻿Liberty,﻿KY,,37.288427,-85.096767,,,,﻿pat_cassidy_001,﻿Rev.,﻿Patrick Cassidy,,,,,,,,1868,﻿,﻿,﻿Louisville,Louisville
﻿lou.ky.0075,﻿church,﻿St. John Chrysostom's,English,,,,,,,,﻿KY,,37.270496,-85.164746,﻿lou.ky.0052,﻿Attended from Lebanon,,,,,,,,,,,,1868,﻿,﻿,﻿Louisville,Louisville
﻿lou.ky.0076,﻿chapel,﻿St. Catharine of Sienna's Chapel,English,,,,﻿Washington,,,,﻿KY,,37.708673,-85.257737,﻿lou.ky.0089,﻿Attended from St. Rose,,,,,,,,,,,,1868,﻿,﻿,﻿Louisville,Louisville
﻿lou.ky.0077,﻿church,﻿St. Charles,English,,﻿St. Mary's Station P. O.,,﻿Marion,,,,﻿KY,,37.59431,-85.343889,,,,﻿joh_b_hutchins_001,﻿Rev.,﻿John B. Hutchins,,,,,,,,1868,﻿,﻿,﻿Louisville,Louisville
﻿lou.ky.0078,﻿church,﻿St. Francis of Sales,English,,,,﻿Taylor,,,,﻿KY,,37.410155,-85.273685,,,,﻿pat_cassidy_001,﻿Rev.,﻿Patrick Cassidy,,,,,,,,1868,﻿,﻿,﻿Louisville,Louisville
﻿lou.ky.0079,﻿church,﻿St. Gregory,English,,,,﻿Nelson,,﻿Deatsville,,﻿KY,,37.897006,-85.559123,,﻿Attended by Rev. P. De Fraine from Nazareth,﻿twice a month,﻿pet_de-fraine_001,﻿Rev.,﻿P. De Fraine,,,,,,,,1868,﻿,﻿,﻿Louisville,Louisville
﻿lou.ky.0080,﻿church,﻿St. Jerome's,English,,﻿P.O. Fancy Farm,,﻿Graves,,,,﻿KY,,36.799501,-88.791069,,,,﻿wil_bourke_001,﻿Rev.,﻿William Bourke,,,"﻿who also attends Hickman, Columbus, and other stations",,,,,1868,﻿,﻿,﻿Louisville,Louisville
﻿lou.ky.0081,﻿station,﻿St. Ignatius,English,,﻿P.O. Elizabethtown,,﻿Hardin,,,,﻿KY,,37.551415,-85.998868,,﻿Attended by Rev. A. Degauquier,﻿once a month,﻿aug_degauquier_001,﻿Rev.,﻿A. Degauquier,,,,,,,,1868,﻿,﻿,﻿Louisville,Louisville
﻿lou.ky.0082,﻿station,﻿St. John the Baptist's,English,,,,﻿Hardin,,,,﻿KY,,37.708624,-85.97343,,﻿Attended by Rev. A. Degauquier,﻿once a month,﻿aug_degauquier_001,﻿Rev.,﻿A. Degauquier,,,,,,,,1868,﻿,﻿,﻿Louisville,Louisville
﻿lou.ky.0083,﻿church,﻿St. John the Baptist's,English,,,,﻿Bullitt,,,,﻿KY,,38.06248,-85.739758,,﻿Attended by Rev. Peter De Fraine,,﻿pet_de-fraine_001,﻿Rev.,﻿Peter De Fraine,,,,,,,,1868,﻿,﻿,﻿Louisville,Louisville
﻿lou.ky.0084,﻿church,﻿St. John the Evangelist,English,,,,﻿McCracken,,,,﻿KY,,36.966098,-88.672732,﻿lou.kt.0066,﻿attended from Paducah,﻿once a month,,,,,﻿resident pastor,,,,,,1868,﻿,﻿,﻿Louisville,Louisville
﻿lou.ky.0085,﻿church,﻿St. Lawrence,English,﻿brick church,,,﻿Daviess,,,,﻿KY,,37.765684,-86.871476,,,,﻿m_m_coghlan_001,﻿Rev.,﻿M. M. Coghlan,,,,,,,,1868,﻿,﻿,﻿Louisville,Louisville
﻿lou.ky.0086,﻿church,﻿St. Martin's,English,﻿frame church,﻿P.O. Garnettsville,,﻿Mead,,,,﻿KY,,37.833338,-86.072669,,﻿Attended by Rev. C. J. Coomes,,﻿cha_i_coomes_001,﻿Rev.,﻿C. J. Coomes,,,,,,,,1868,﻿,﻿,﻿Louisville,Louisville
﻿lou.ky.0179_02,﻿chapel,﻿St. Mary's College and Chapel,English,,,,,﻿Marion County,,﻿Lebanon,﻿KY,,37.569651,-85.343308,,,,﻿a_viala_001,﻿Rev.,﻿A. Viala,,,,,,,,1868,﻿,﻿,﻿Louisville,Louisville
﻿lou.ky.0179_02,﻿chapel,﻿St. Mary's College and Chapel,English,,,,,﻿Marion County,,﻿Lebanon,﻿KY,,37.569651,-85.343308,,,,﻿d_crane_001,﻿Rev.,﻿Dom. F. Crane,,,,,,,,1868,﻿,﻿,﻿Louisville,Louisville
﻿lou.ky.0087,﻿church,﻿St. Mary of the Woods,English,,,,﻿Daviess,,,,﻿KY,,37.68121,-86.871529,,﻿Attended by Rev. M. M. Coghlan,,﻿m_m_coghlan_001,﻿Rev.,﻿M. M. Coghlan,,,,,,,,1868,﻿,﻿,﻿Louisville,Louisville
﻿lou.ky.0088,﻿church,﻿St. Patrick's,English,,,,﻿Mead,,,,﻿KY,,,,,﻿Attended by C. J. Coomes,,﻿cha_i_coomes_001,﻿Rev.,﻿C. J. Coomes,,,,,,,,1868,﻿,﻿,﻿Louisville,Louisville
﻿lou.ky.0089,﻿church,﻿St. Rose's,English,﻿a fine new church of stone,,,﻿Washington,,,,﻿KY,,37.693409,-85.262506,,﻿Attended by the Dominican Fathers whose residence is here,﻿Mass every Sunday and holyday,,,,,,,,,﻿Dominican Fathers,,1868,﻿,﻿,﻿Louisville,Louisville
﻿lou.ky.0090,﻿church,﻿St. Raphael's,English,"﻿The church, which had been burnt, has been rebuilt with schools for the children, both here and at St. Alphonso's, where the pastor resides",,,﻿Daviess,,﻿Panther Creek,,﻿KY,,37.700953,-87.244292,,,,﻿c_egermont_001,﻿Rev.,﻿C. Egermont,,,,,,,,1868,﻿,﻿,﻿Louisville,Louisville
﻿lou.ky.0091,﻿church,﻿St. Thomas,English,,,,﻿Nelson,,,,﻿KY,,37.766897,-85.483611,,,,﻿dav_russell_001,﻿Rev.,﻿David Russell,,,,,,,,1868,﻿,﻿,﻿Louisville,Louisville
﻿lou.ky.0092,﻿church,﻿St. Joachim,English,,,,﻿La Rue,,,,﻿KY,,37.582884,-85.646582,,﻿Attended by Rev. John F. Reed,,﻿j_f_reed_001,﻿Rev.,﻿John F. Reed,,,,,,,,1868,﻿,﻿,﻿Louisville,Louisville
﻿lou.ky.0093,﻿church,﻿St. Francis,English,,,,﻿Nelson,,,,﻿KY,,37.626451,-85.42774,,﻿Attended by Rev. F. De Meulder,,﻿fra_de-meulder_001,﻿Rev.,﻿F. De Meulder,,,,,,,,1868,﻿,﻿,﻿Louisville,Louisville
﻿lou.ky.0094,﻿church,﻿St. Vincent,English,﻿A neat brick church has been built,,,﻿Nelson,,,,﻿KY,,37.812324,-85.464124,﻿lou.ky.0041,﻿Attended from Gethsemane,,,,,,,,,,,,1868,﻿,﻿,﻿Louisville,Louisville
﻿lou.ky.0096,﻿station,not recorded,English,,,,﻿Bullitt,,﻿Shepherdsville,,﻿KY,,37.988399,-85.715792,,﻿Attended by Rev. P. Fermont,﻿occasionally,﻿pol_fermont_001,﻿Rev.,﻿P. Fermont,,,,,,,,1868,﻿,﻿,﻿Louisville,Louisville
﻿lou.ky.0097,﻿church,not recorded,English,﻿new church,,,﻿Shelby,,﻿Shelbyville,,﻿KY,,38.212014,-85.223567,,,,﻿d_crane_001,﻿Rev.,﻿Dominic Crane,,,,,,,,1868,﻿,﻿,﻿Louisville,Louisville
﻿lou.ky.0098,﻿chapel,not recorded,English,﻿new chapel purchased,,,,,﻿Smithland,,﻿KY,,37.138945,-88.403372,﻿lou.ky.0066,﻿Attended from Paducah,,,,,,,,,,,,1868,﻿,﻿,﻿Louisville,Louisville
﻿lou.ky.0099,﻿church,﻿St. Dominic's,English,"﻿A new church has been erected at Thompsonville, a few miles north of Springfield",,,﻿Washington,,﻿Springfield,,﻿KY,,37.685241,-85.221964,﻿lou.ky.0089,﻿Attended from St. Rose,,,,,,,,,,,,1868,﻿,﻿,﻿Louisville,Louisville
﻿lou.ky.0100,﻿station,not recorded,English,,,,﻿Green,,﻿Summerville,,﻿KY,,37.326121,-85.544358,﻿lou.ky.0052,﻿Attended from Lebanon,﻿occasionally,,,,,,,,,,,1868,﻿,﻿,﻿Louisville,Louisville
﻿lou.ky.0101,﻿church,﻿St. John the Evangelist,English,,,,﻿Edmundson,,﻿Sunfish Creek,,﻿KY,,37.274421,-86.369574,,,﻿once a month,﻿j_b_vandemergel_001,﻿Rev.,﻿J. B. Vandemergel,,,,,,,,1868,﻿,﻿,﻿Louisville,Louisville
﻿lou.ky.0102,﻿church,﻿All Saints',English,,,,﻿Spencer,,﻿Taylorsville,,﻿KY,,38.033146,-85.344757,,,,﻿m_d_lawler_001,﻿Rev.,﻿M. D. Lawler,,,,,,,,1868,﻿,﻿,﻿Louisville,Louisville
﻿lou.ky.0103,﻿church,﻿Church of the Assumption,English,,,,,,﻿Thompsonville,,﻿KY,,,,﻿lou.ky.0089,﻿Attended from St. Rose,﻿twice a month,,,,,,,,,,,1868,﻿,﻿,﻿Louisville,Louisville
﻿lou.ky.0104,﻿church,not recorded,English,﻿a spacious new church has been nearly completed,,,﻿Union,,﻿Uniontown,,﻿KY,,37.775321,-87.930583,,,,﻿eli_j_durbin_001,﻿Rev.,﻿E. J. Durbin,,,,,,,,1868,﻿,﻿,﻿Louisville,Louisville
﻿lou.ky.0091_02,﻿seminary,﻿St. Thomas' Preparatory Seminary,English,,"﻿near Bardstown, P.O. Bardstown",,,,﻿Bardstown,,﻿KY,,37.766897,-85.483611,,,,﻿fra_chambige_001,﻿Very Rev.,﻿Francis Chambige,﻿V.G.,﻿Superior,,﻿student,"﻿Number of pupils, about 50",,,1868,﻿,﻿,﻿Louisville,Louisville
﻿lou.ky.0091_02,﻿seminary,﻿St. Thomas' Preparatory Seminary,English,,"﻿near Bardstown, P.O. Bardstown",,,,﻿Bardstown,,﻿KY,,37.766897,-85.483611,,,,﻿dav_russell_001,﻿Rev.,﻿D. Russell,,,,﻿student,"﻿Number of pupils, about 50",,,1868,﻿,﻿,﻿Louisville,Louisville
﻿lou.ky.0091_02,﻿seminary,﻿St. Thomas' Preparatory Seminary,English,,"﻿near Bardstown, P.O. Bardstown",,,,﻿Bardstown,,﻿KY,,37.766897,-85.483611,,,,﻿eug_crane_001,﻿Rev.,﻿Eugene Crane,,,,﻿student,"﻿Number of pupils, about 50",,,1868,﻿,﻿,﻿Louisville,Louisville
﻿lou.ky.0177,﻿abbey,﻿Abbey of Our Lady of La Trappe,English,,,,﻿Nelson,,﻿New-Haven,,﻿KY,,37.664181,-85.529404,,,,﻿mar_benedict_001,﻿Rt. Rev.,﻿Maria Benedict,,﻿Abbot,,,,,,1868,﻿,﻿,﻿Louisville,Louisville
﻿lou.ky.0177,﻿abbey,﻿Abbey of Our Lady of La Trappe,English,,,,﻿Nelson,,﻿New-Haven,,﻿KY,,37.664181,-85.529404,,,,﻿emanuel_001,﻿Rev.,﻿Emanuel,,﻿Prior,,,,,,1868,﻿,﻿,﻿Louisville,Louisville
﻿lou.ky.0177,﻿abbey,﻿Abbey of Our Lady of La Trappe,English,,,,﻿Nelson,,﻿New-Haven,,﻿KY,,37.664181,-85.529404,,,,,,﻿Maria,,,,,,,,1868,﻿,﻿,﻿Louisville,Louisville
﻿lou.ky.0177,﻿abbey,﻿Abbey of Our Lady of La Trappe,English,,,,﻿Nelson,,﻿New-Haven,,﻿KY,,37.664181,-85.529404,,,,,,﻿Jerome,,,,,,,,1868,﻿,﻿,﻿Louisville,Louisville
﻿lou.ky.0177,﻿abbey,﻿Abbey of Our Lady of La Trappe,English,,,,﻿Nelson,,﻿New-Haven,,﻿KY,,37.664181,-85.529404,,,,,,﻿Euthymius,,,,,,,,1868,﻿,﻿,﻿Louisville,Louisville
﻿lou.ky.0177,﻿abbey,﻿Abbey of Our Lady of La Trappe,English,,,,﻿Nelson,,﻿New-Haven,,﻿KY,,37.664181,-85.529404,,,,,,﻿Paulinus,,,,,,,,1868,﻿,﻿,﻿Louisville,Louisville
﻿lou.ky.0177,﻿abbey,﻿Abbey of Our Lady of La Trappe,English,,,,﻿Nelson,,﻿New-Haven,,﻿KY,,37.664181,-85.529404,,,,,,﻿Joseph,,,,,,,,1868,﻿,﻿,﻿Louisville,Louisville
﻿lou.ky.0177,﻿abbey,﻿Abbey of Our Lady of La Trappe,English,,,,﻿Nelson,,﻿New-Haven,,﻿KY,,37.664181,-85.529404,,,,,,﻿Simon,,,,,,,,1868,﻿,﻿,﻿Louisville,Louisville
﻿lou.ky.0177,﻿abbey,﻿Abbey of Our Lady of La Trappe,English,,,,﻿Nelson,,﻿New-Haven,,﻿KY,,37.664181,-85.529404,,,,,,﻿Jerome,,,,,,,,1868,﻿,﻿,﻿Louisville,Louisville
﻿lou.ky.0177,﻿abbey,﻿Abbey of Our Lady of La Trappe,English,,,,﻿Nelson,,﻿New-Haven,,﻿KY,,37.664181,-85.529404,,,,,,﻿Nicholas,,,,,,,,1868,﻿,﻿,﻿Louisville,Louisville
﻿lou.ky.0107,﻿convent,﻿Dominican Convent of St. Rose,English,,﻿near Springfield,,,,,,﻿KY,,37.693366,-85.262737,,,,﻿c_l_eagan_001,﻿V. Rev.,﻿C. L. Egan,﻿O.P.,﻿Prior,,﻿religious,﻿25 novices,,,1868,﻿,﻿,﻿Louisville,Louisville
﻿lou.ky.0107,﻿convent,﻿Dominican Convent of St. Rose,English,,﻿near Springfield,,,,,,﻿KY,,37.693366,-85.262737,,,,﻿wm_d_ocarroll_001,﻿V. Rev.,﻿D. W. O'Carroll,﻿O.P.,﻿Provincial,,﻿religious,﻿15 lay brothers,,,1868,﻿,﻿,﻿Louisville,Louisville
﻿lou.ky.0107,﻿convent,﻿Dominican Convent of St. Rose,English,,﻿near Springfield,,,,,,﻿KY,,37.693366,-85.262737,,,,﻿j_h_sheridan_001,﻿Rev.,﻿J. A. Sheridan,﻿O.P.,﻿Sub-Prior,,﻿religious,﻿15 lay brothers,,,1868,﻿,﻿,﻿Louisville,Louisville
﻿lou.ky.0107,﻿convent,﻿Dominican Convent of St. Rose,English,,﻿near Springfield,,,,,,﻿KY,,37.693366,-85.262737,,,,﻿j_p_heany_001,﻿Rev.,﻿J. M. S. Heaney,﻿O.P.,,,﻿religious,﻿15 lay brothers,,,1868,﻿,﻿,﻿Louisville,Louisville
﻿lou.ky.0107,﻿convent,﻿Dominican Convent of St. Rose,English,,﻿near Springfield,,,,,,﻿KY,,37.693366,-85.262737,,,,﻿b_chocarne_001,﻿Rev.,﻿B. Chocarne,﻿O.P.,,,﻿religious,﻿15 lay brothers,,,1868,﻿,﻿,﻿Louisville,Louisville
﻿lou.ky.0107,﻿convent,﻿Dominican Convent of St. Rose,English,,﻿near Springfield,,,,,,﻿KY,,37.693366,-85.262737,,,,﻿m_d_obrien_001,﻿Rev.,﻿M. A. O'Brien,﻿O.P.,﻿Procurator,,﻿religious,﻿15 lay brothers,,,1868,﻿,﻿,﻿Louisville,Louisville
﻿lou.ky.0107,﻿convent,﻿Dominican Convent of St. Rose,English,,﻿near Springfield,,,,,,﻿KY,,37.693366,-85.262737,,,,﻿a_o_walker_002,﻿Rev.,﻿A. O. Walker,﻿O.P.,,,﻿religious,﻿15 lay brothers,,,1868,﻿,﻿,﻿Louisville,Louisville
﻿lou.ky.0016_03,﻿convent,﻿Dominican Convent of St. Louis Bertrand,English,﻿Twelve theological students and three lay brothers in this institution.,"﻿Seventh street, near Churchill",,﻿Jefferson,,﻿Louisville,,﻿KY,,38.236966,-85.763567,,,,﻿d_j_meagher_001,﻿Very Rev.,﻿D. J. Meagher,﻿O.P.,﻿Vicar,,﻿student,﻿12 theological students,,,1868,﻿,﻿,﻿Louisville,Louisville
﻿lou.ky.0016_03,﻿convent,﻿Dominican Convent of St. Louis Bertrand,English,﻿Twelve theological students and three lay brothers in this institution.,"﻿Seventh street, near Churchill",,﻿Jefferson,,﻿Louisville,,﻿KY,,38.236966,-85.763567,,,,﻿j_v_daly_001,﻿Rev.,﻿J. V. Daly,﻿O.P.,,,﻿student,﻿12 theological students,,,1868,﻿,﻿,﻿Louisville,Louisville
﻿lou.ky.0016_03,﻿convent,﻿Dominican Convent of St. Louis Bertrand,English,﻿Twelve theological students and three lay brothers in this institution.,"﻿Seventh street, near Churchill",,﻿Jefferson,,﻿Louisville,,﻿KY,,38.236966,-85.763567,,,,﻿j_byrne_001,﻿Rev.,﻿J. Byrne,﻿O.P.,,,﻿student,﻿12 theological students,,,1868,﻿,﻿,﻿Louisville,Louisville
﻿lou.ky.0016_03,﻿convent,﻿Dominican Convent of St. Louis Bertrand,English,﻿Twelve theological students and three lay brothers in this institution.,"﻿Seventh street, near Churchill",,﻿Jefferson,,﻿Louisville,,﻿KY,,38.236966,-85.763567,,,,﻿j_meagher_001,﻿Rev.,﻿J. Meagher,﻿O.P.,,,﻿student,﻿12 theological students,,,1868,﻿,﻿,﻿Louisville,Louisville
﻿lou.ky.0178,﻿college,﻿St. Joseph's College,English,"﻿In consequence of the war, the college has been temporarily suspended, having been used for more than a year as a military hospital.",,,,,﻿Bardstown,,﻿KY,,37.81117279,-85.47387269,,,,﻿jn_schultz_001,﻿Rev.,﻿Jn. Schultz,﻿S.J.,,,,,,,1868,﻿,﻿,﻿Louisville,Louisville
﻿lou.ky.0178,﻿college,﻿St. Joseph's College,English,"﻿In consequence of the war, the college has been temporarily suspended, having been used for more than a year as a military hospital.",,,,,﻿Bardstown,,﻿KY,,37.81117279,-85.47387269,,,,﻿cha_truyens_001,﻿Rev.,﻿Charles Truyens,﻿S.J.,,,,,,,1868,﻿,﻿,﻿Louisville,Louisville
﻿lou.ky.0178,﻿college,﻿St. Joseph's College,English,"﻿In consequence of the war, the college has been temporarily suspended, having been used for more than a year as a military hospital.",,,,,﻿Bardstown,,﻿KY,,37.81117279,-85.47387269,,,,﻿the_de-leeuw_001,﻿Rev.,﻿Theodore De Leeuw,﻿S.J.,,,,,,,1868,﻿,﻿,﻿Louisville,Louisville
﻿lou.ky.0179,﻿college,﻿St. Mary's College,English,,﻿St. Mary's P. O.,,﻿Marion,,,﻿Lebanon,﻿KY,,37.569651,-85.343308,,,,﻿a_viala_001,﻿Rev.,﻿A. Viala,﻿A.B.,﻿President,,﻿boarder,﻿125 boarders,,,1868,﻿,﻿,﻿Louisville,Louisville
﻿lou.ky.0179,﻿college,﻿St. Mary's College,English,,﻿St. Mary's P. O.,,﻿Marion,,,﻿Lebanon,﻿KY,,37.569651,-85.343308,,,,﻿ter_j_disney_001,﻿Rev.,﻿Terence J. Disney,,﻿Vice-President,,﻿boarder,﻿125 boarders,,,1868,﻿,﻿,﻿Louisville,Louisville
﻿lou.ky.0108,﻿institute,﻿Institute of the Xavieran Brothers,English,"﻿They [the Xaverian brothers?] direct all the male parochial schools of the city proper--those attached to 1. St. Xavier's Institute, Cathedral; 2. St. Patrick's; 3. St. John's; 4. St. Boniface's, German; 5. Immaculate Conception; 6. St. Martin's",﻿Fourth street,,,,﻿Louisville,,﻿KY,,38.247648,-85.757873,,,,,﻿Brother,﻿Peter,,﻿Superior,,﻿religious,"﻿Professed brothers, 18",﻿under the charge of the Xavierian Brothers,,1868,﻿,﻿,﻿Louisville,Louisville
﻿lou.ky.0108,﻿institute,﻿Institute of the Xavieran Brothers,English,"﻿They [the Xaverian brothers?] direct all the male parochial schools of the city proper--those attached to 1. St. Xavier's Institute, Cathedral; 2. St. Patrick's; 3. St. John's; 4. St. Boniface's, German; 5. Immaculate Conception; 6. St. Martin's",﻿Fourth street,,,,﻿Louisville,,﻿KY,,38.247648,-85.757873,,,,,,,,,,﻿novices and postulant,"﻿novices and postulants, 10",﻿under the charge of the Xavierian Brothers,,1868,﻿,﻿,﻿Louisville,Louisville
﻿lou.ky.0185,﻿school,﻿St. Aloysius' High School,English,,,,,,,,,,,,,,,,,,,,,﻿student,﻿100 pupils,﻿Directed by the Xavierian Brothers,,1868,﻿,﻿,﻿Louisville,Louisville
﻿lou.ky.0001_02,﻿school,﻿Cathedral Parochial School,English,,,,,,﻿Louisville,,﻿KY,,38.251906,-85.758804,,,,,,,,,,,,﻿Directed by the Xavierian Brothers,,1868,﻿,﻿,﻿Louisville,Louisville
﻿lou.ky.0002_02,﻿school,not recorded,﻿German,,﻿St. Boniface's,,,,﻿Louisville,,﻿KY,,38.251174,-85.743961,,,,,,,,,,,,﻿Directed by the Xavierian Brothers,,1868,﻿,﻿,﻿Louisville,Louisville
﻿lou.ky.0004_02,﻿school,not recorded,English,,﻿St. Martin's,,,,﻿Louisville,,﻿KY,,38.245535,-85.739249,,,,,,,,,,,,﻿Directed by the Xavierian Brothers,,1868,﻿,﻿,﻿Louisville,Louisville
﻿lou.ky.0007_02,﻿school,not recorded,English,,﻿St. John's,,,,﻿Louisville,,﻿KY,,38.249179,-85.7406,,,,,,,,,,,,﻿Directed by the Xavierian Brothers,,1868,﻿,﻿,﻿Louisville,Louisville
﻿lou.ky.0005_02,﻿school,not recorded,English,,﻿St. Patrick's,,,,﻿Louisville,,﻿KY,,38.257197,-85.772036,,,,,,,,,,,,﻿Directed by the Xavierian Brothers,,1868,﻿,﻿,﻿Louisville,Louisville
﻿lou.ky.0003_02,﻿school,not recorded,English,,﻿Immaculate Conception,,,,﻿Louisville,,﻿KY,,38.25315,-85.763902,,,,,,,,,,,,﻿Directed by the Xavierian Brothers,,1868,﻿,﻿,﻿Louisville,Louisville
﻿lou.ky.0118,"﻿house, academy",﻿Mother House and Academy of the Sisters of Charity of Nazareth,English,,﻿near Bardstown,,,,,,﻿KY,,37.850808,-85.473083,,,,,﻿Sister,﻿Frances,,﻿Mistress of Novices,,﻿member,﻿About 200 members in the Society,﻿Sisters of Charity of Nazareth,,1868,﻿,﻿,﻿Louisville,Louisville
﻿lou.ky.0118,"﻿house, academy",﻿Mother House and Academy of the Sisters of Charity of Nazareth,English,,﻿near Bardstown,,,,,,﻿KY,,37.850808,-85.473083,,,,,﻿Mother,﻿Columba,,﻿Mother-Superior,,﻿religious,﻿with about 25 novices,﻿Sisters of Charity of Nazareth,,1868,﻿,﻿,﻿Louisville,Louisville
﻿lou.ky.0118,"﻿house, academy",﻿Mother House and Academy of the Sisters of Charity of Nazareth,English,,﻿near Bardstown,,,,,,﻿KY,,37.850808,-85.473083,,,,,,,,,,﻿boarder,"﻿boarders, 300",﻿Sisters of Charity of Nazareth,,1868,﻿,﻿,﻿Louisville,Louisville
﻿lou.ky.0118_02,﻿academy,﻿Nazareth Academy,English,,﻿at the Mother-House,,,,,,﻿KY,,37.850808,-85.473083,,,,,,,,,,﻿boarder,"﻿boarders, 300",﻿Sisters of Charity of Nazareth,,1868,﻿,﻿,﻿Louisville,Louisville
﻿lou.ky.0119,﻿academy,﻿Presentation Academy,English,,,,,,﻿Louisville,,﻿KY,,38.2420451,-85.7588027,,,,,﻿Sister,﻿Eulalia,,﻿Sister-Servant,,,,﻿Conducted by the Sisters of Charity of Nazareth,,1868,﻿,﻿,﻿Louisville,Louisville
﻿lou.ky.0120,﻿academy,﻿St. Frances' Academy,English,,,,,,﻿Owensboro,,﻿KY,,37.7719074,-87.1111676,,,,,﻿Sister,﻿Helena,,﻿Sister-Servant,,,,﻿Conducted by the Sisters of Charity of Nazareth,,1868,﻿,﻿,﻿Louisville,Louisville
﻿lou.ky.0121,﻿academy,﻿St. Vincent's Academy,English,,﻿Morganfield P.O.,,﻿Union,,,,﻿KY,,37.6846318,-87.9179147,,,,,﻿Sister,﻿Scholastica,,﻿Sister-Servant,,,,﻿Conducted by the Sisters of Charity of Nazareth,,1868,﻿,﻿,﻿Louisville,Louisville
﻿lou.ky.0122,﻿academy,﻿St. Columba's Academy,English,,,,,,﻿Bowling Green,,﻿KY,,36.9578596,-86.4722539,,,,,﻿Sister,﻿Constantia,,﻿Sister-Servant,,,,﻿Conducted by the Sisters of Charity of Nazareth,,1868,﻿,﻿,﻿Louisville,Louisville
﻿lou.ky.0123,﻿academy,﻿St. Mary's Academy,English,,,,,,﻿Paducah,,﻿KY,,37.808095,-85.470555,,,,,﻿Sister,﻿Martha,,﻿Sister-Servant,,,,﻿Conducted by the Sisters of Charity of Nazareth,,1868,﻿,﻿,﻿Louisville,Louisville
﻿lou.ky.0124,﻿school,﻿Bethlehem School,English,,,,,,﻿Bardstown,,﻿KY,,38.251906,-85.758804,,,,,﻿Sister,﻿Alice,,﻿Sister-Servant,,,,﻿Conducted by the Sisters of Charity of Nazareth,,1868,﻿,﻿,﻿Louisville,Louisville
﻿lou.ky.0001_02,﻿school,﻿Cathedral Parochial School,English,,,,,,﻿Louisville,,﻿KY,,38.251906,-85.758804,,,,,,,,,,﻿student,﻿over 200 pupils,﻿Conducted by the Sisters of Charity of Nazareth,,1868,﻿,﻿,﻿Louisville,Louisville
﻿lou.ky.0007_03,﻿school,﻿St. John's Parochial School,English,,,,,,﻿Louisville,,﻿KY,,38.249179,-85.7406,,,,,,,,,,,,﻿Conducted by the Sisters of Charity of Nazareth,,1868,﻿,﻿,﻿Louisville,Louisville
﻿lou.ky.0005_03,﻿school,﻿St. Patrick's Parochial School,English,,,,,,﻿Louisville,,﻿KY,,38.257197,-85.772036,,,,,,,,,,,,﻿Conducted by the Sisters of Charity of Nazareth,,1868,﻿,﻿,﻿Louisville,Louisville
﻿lou.ky.0015_03,﻿school,﻿St. Michael's Parochial School,English,,,,,,﻿Louisville,,﻿KY,,38.256006,-85.749365,,,,,,,,,,,,﻿Conducted by the Sisters of Charity of Nazareth,,1868,﻿,﻿,﻿Louisville,Louisville
﻿lou.ky.0013_02,﻿asylum,﻿St. Vincent's Orphan Asylum,English,,,,,,﻿Louisville,,﻿KY,,38.249317,-85.732337,,,,,﻿Sister,﻿Julia,,﻿Sister-Servant,,﻿child,﻿200 orphans,﻿Conducted by the Sisters of Charity of Nazareth,,1868,﻿,﻿,﻿Louisville,Louisville
﻿lou.ky.0018_02,﻿infirmary,﻿St. Joseph's Infirmary,English,,,,,,﻿Louisville,,﻿KY,,38.247595,-85.757884,,,,,﻿Sister,﻿Ann Matilda,,﻿Sister-Servant,,,,﻿Conducted by the Sisters of Charity of Nazareth,,1868,﻿,﻿,﻿Louisville,Louisville
﻿lou.ky.0134,﻿mother house,not recorded,English,,﻿Loretto P.O. On the Louisville and Knoxville Railroad,,﻿Marion,,﻿Loretto,,﻿KY,,37.662148,-85.399491,,,,,﻿Mother,﻿Bertha,,﻿Mother Superior,,﻿member,﻿about 250 members in the Society,﻿SISTERS OF LORETTO--Daughters of Our Lady of Sorrows.,,1868,﻿,﻿,﻿Louisville,Louisville
﻿lou.ky.0134,﻿mother house,not recorded,English,,﻿Loretto P.O. On the Louisville and Knoxville Railroad,,﻿Marion,,﻿Loretto,,﻿KY,,37.662148,-85.399491,,,,,﻿Sister,﻿Berlindes,,﻿Mistress of Novices,,﻿religious,﻿30 novices,﻿SISTERS OF LORETTO--Daughters of Our Lady of Sorrows.,,1868,﻿,﻿,﻿Louisville,Louisville
﻿lou.ky.0134_02,﻿academy,﻿Loretto Academy,English,,﻿Loretto P.O. On the Louisville and Knoxville Railroad,,﻿Marion,,﻿Loretto,,﻿KY,,37.662148,-85.399491,,,,,,,,,,﻿student,﻿120 pupils,﻿SISTERS OF LORETTO--Daughters of Our Lady of Sorrows.,,1868,﻿,﻿,﻿Louisville,Louisville
﻿lou.ky.0135,﻿academy,﻿Calvary Academy,English,,﻿Lebanon P.O.,,﻿Marion,,,,﻿KY,,37.520514,-85.268098,,,,,﻿Mother,﻿Rose Anne,,﻿Superioress,,,,﻿Conducted by the Sisters of Loretto,,1868,﻿,﻿,﻿Louisville,Louisville
﻿lou.ky.0136,﻿academy,﻿Bethlehem Academy,English,,﻿Elizabethtown P.O.,,﻿Hardin,,,,﻿KY,,37.701425,-85.99549,,,,,﻿Mother,﻿Liberata,,﻿Superioress,,,,﻿Conducted by the Sisters of Loretto,,1868,﻿,﻿,﻿Louisville,Louisville
﻿lou.ky.0017_01,﻿academy,﻿Mt. St. Benedict's Academy,English,,"﻿Portland P.O., near Louisville",,,,﻿Cedar Grove,,﻿KY,,38.275401,-85.805608,,,,,﻿Mother,﻿Bridget,,﻿Superior,,,,﻿Conducted by the Sisters of Loretto,,1868,﻿,﻿,﻿Louisville,Louisville
﻿lou.ky.0138,﻿academy,﻿St. Joseph's Academy,English,,﻿Curdsville P.O.,,﻿Daviess,,,,﻿KY,,37.692591,-87.32398,,,,,﻿Mother,﻿Matilda,,﻿Superior,,,,﻿Conducted by the Sisters of Loretto,,1868,﻿,﻿,﻿Louisville,Louisville
﻿lou.ky.0014_03,﻿school,﻿Notre Dame Du Port Parochial School,English,,,,,,﻿Portland,,﻿KY,,38.276245,-85.805653,,,,,,,,,,,,﻿Conducted by the Sisters of Loretto,,1868,﻿,﻿,﻿Louisville,Louisville
﻿lou.ky.0140,"﻿academy, school",﻿St. Augustine's Academy and Parochial School,English,,,,,,﻿Lebanon,,﻿KY,,37.567779,-85.251807,,,,,﻿Sister,﻿Felicitas,,﻿Directress,,,,﻿Conducted by the Sisters of Loretto,,1868,﻿,﻿,﻿Louisville,Louisville
﻿lou.ky.0151,﻿house,not recorded,English,﻿SISTERS OF ST. DOMINIC.--Central House,"﻿St. Catharine of Sienna, Springfield P.O.",,﻿Washington,,,,﻿KY,,37.709261,-85.258557,,,,,﻿Mother,﻿Columba,,﻿Mother-Superior,,﻿religious,﻿About 40 Sisters at this house,﻿SISTERS OF ST. DOMINIC.,,1868,﻿,﻿,﻿Louisville,Louisville
﻿lou.ky.0151,﻿house,not recorded,English,﻿SISTERS OF ST. DOMINIC.--Central House,"﻿St. Catharine of Sienna, Springfield P.O.",,﻿Washington,,,,﻿KY,,37.709261,-85.258557,,,,,﻿Sister,﻿—,,﻿Mistress of Novices,,﻿religious,﻿About 40 Sisters at this house,﻿SISTERS OF ST. DOMINIC.,,1868,﻿,﻿,﻿Louisville,Louisville
﻿lou.ky.0151_02,﻿academy,﻿St. Catharine's Academy,English,,"﻿Springfield P.O., on the Bardstown and Springfield pike",,,,,,﻿KY,,37.709261,-85.258557,,,,,,,,,,,,﻿conducted by the Sisters of St. Dominic,,1868,﻿,﻿,﻿Louisville,Louisville
﻿lou.ky.0186,﻿school,﻿St. Dominic's Parochial School,English,,,,,,﻿Springfield,,﻿KY,,37.68599845,-85.23313188,,,,,,,,,,,,﻿conducted by the Sisters of St. Dominic,,1868,﻿,﻿,﻿Louisville,Louisville
﻿lou.ky.0153,﻿academy,﻿Academy of the Holy Rosary,English,,,,,,﻿Louisville,,﻿KY,,38.22795,-85.761284,,,,,﻿Sister,﻿Angela,,﻿Directress,,,,﻿conducted by the Sisters of St. Dominic,,1868,﻿,﻿,﻿Louisville,Louisville
﻿lou.ky.0016_02,﻿school,﻿Parochial School of St. Louis Bertrand,English,,,,,,,,﻿KY,,38.236966,-85.763567,,,,,,,,,,,,﻿conducted by the Sisters of St. Dominic,,1868,﻿,﻿,﻿Louisville,Louisville
﻿lou.ky.0157,﻿house,﻿Sisters of Our Lady of the Good Shepherd,English,﻿Central House,﻿Eighth street,,,,﻿Louisville,,﻿KY,,38.251696,-85.764356,,,,,﻿Mother,﻿Ignatia Ward,,﻿Mother-Superior,﻿and Provincial Superior for several institutions of the Order in other dioceses,,,,,1868,﻿,﻿,﻿Louisville,Louisville
﻿lou.ky.0157_02,﻿convent,﻿Convent of Magdalen Sisters,English,,﻿at the Central House,,,,﻿Louisville,,﻿KY,,38.251696,-85.764356,,,,,,,,,,,,﻿conducted by the Sisters of Our Lady of the Good Shepherd,,1868,﻿,﻿,﻿Louisville,Louisville
﻿lou.ky.0157_03,﻿asylum,﻿Penitent Asylum,English,,﻿at the Central House,,,,﻿Louisville,,﻿KY,,38.251696,-85.764356,,,,,,,,,,﻿layperson,﻿50 penitents,﻿conducted by the Sisters of Our Lady of the Good Shepherd,,1868,﻿,﻿,﻿Louisville,Louisville
﻿lou.ky.0157_04,﻿school,﻿Parochial School,English,,﻿at the Central House,,,,﻿Louisville,,﻿KY,,38.251696,-85.764356,,,,,,,,,,,,﻿conducted by the Sisters of Our Lady of the Good Shepherd,,1868,﻿,﻿,﻿Louisville,Louisville
﻿lou.ky.0161_01,﻿school,not recorded,English,﻿A girls' industrial school,"﻿at a new St. Francis Xavier's House, Bank and Twenty-second streets",,,,﻿Louisville,,﻿KY,,38.251696,-85.764356,,,,,,,,,,,,﻿conducted by the Sisters of Our Lady of the Good Shepherd,,1868,﻿,﻿,﻿Louisville,Louisville
﻿lou.ky.0161_02,﻿school,not recorded,English,﻿a parochial school,"﻿at a new St. Francis Xavier's House, Bank and Twenty-second streets",,,,﻿Louisville,,﻿KY,,38.251696,-85.764356,,,,,,,,,,,,﻿conducted by the Sisters of Our Lady of the Good Shepherd,,1868,﻿,﻿,﻿Louisville,Louisville
﻿lou.ky.0162_01,﻿convent,﻿Ursuline convent,English,,﻿corner of Chestnut and Shelby,,,,﻿Louisville,,﻿KY,,38.246655,-85.738559,,,,,﻿Mother,﻿Martina,,﻿Mother-Superior,,﻿religious,﻿about 30 sisters,﻿URSULINE SISTERS,,1868,﻿,﻿,﻿Louisville,Louisville
﻿lou.ky.0162_02,﻿academy,﻿The Ursuline Academy at the convent,English,,﻿corner of Chestnut and Shelby,,,,﻿Louisville,,﻿KY,,38.246655,-85.738559,,,,,,,,,,﻿student,﻿about 75 pupils,﻿Attended by the Ursuline Sisters,,1868,﻿,﻿,﻿Louisville,Louisville
﻿lou.ky.0004_03,﻿school,﻿Parochial School of St. Martin's Church,English,,"﻿Shelby street, between Kellar and Broadway",,,,﻿Louisville,,﻿KY,,38.245535,-85.739249,,,,,,,,,,﻿student,﻿about 270 pupils,﻿Attended by the Ursuline Sisters,,1868,﻿,﻿,﻿Louisville,Louisville
﻿lou.ky.0166,﻿house,not recorded,English,,﻿Green Street,,,,﻿Louisville,,﻿KY,,38.251326,-85.744334,,,,,,,,,,﻿religious,﻿6 professed Sisters,﻿SISTERS OF NOTRE DAME,,1868,﻿,﻿,﻿Louisville,Louisville
﻿lou.ky.0002_03,﻿school,﻿St. Boniface's Select Girls' School,English,,,,,,,,﻿KY,,38.251174,-85.743961,,,,,,,,,,,,﻿conducted by the Sisters of Notre Dame,,1868,﻿,﻿,﻿Louisville,Louisville
﻿lou.ky.0002_04,﻿school,﻿St. Boniface's Common School,English,,,,,,,,﻿KY,,38.251174,-85.743961,,,,,,,,,,﻿child,"﻿Having, in all, about 420 girls under their charge",﻿conducted by the Sisters of Notre Dame,,1868,﻿,﻿,﻿Louisville,Louisville
﻿lou.ky.0169,﻿asylum,﻿St. Joseph's Orphan Asylum,﻿German,,﻿near St. Boniface's Church,,,,,,﻿KY,,38.25075,-85.744259,,,,,,,,,,,,﻿conducted by the Sisters of Notre Dame,,1868,﻿,﻿,﻿Louisville,Louisville
﻿lou.ky.0091_03,﻿asylum,﻿St. Thomas' Male Orphan Asylum,English,,,,,,﻿Bardstown,,﻿KY,,37.766897,-85.483611,,,,,﻿Brother,﻿Florimont,,﻿Superior,,﻿child,﻿150 orphan boys,﻿conducted by the Brothers of the Sacred Heart.,,1868,﻿,﻿,﻿Louisville,Louisville
﻿lou.ky.0181,﻿asylum,﻿St. Vincent's Female Orphan Asylum,English,,,,,,﻿Louisville,,﻿KY,,38.21560273,-85.73626788,,,,,﻿Sister,﻿Julia,,﻿Sister-Servant,,﻿child,﻿200 orphan girls,﻿under care of the Sisters of Charity,,1868,﻿,﻿,﻿Louisville,Louisville
﻿lou.ky.0182,﻿asylum,﻿Good Shepherd's Pentinent Asylum,English,,,,,,﻿Louisville,,﻿KY,,38.22603234,-85.72961602,,,,,,,,,,,,﻿conducted by the Sisters of the Good Shepherd,,1868,﻿,﻿,﻿Louisville,Louisville
﻿lou.ky.0183,﻿asylum,﻿Good Shepherd's House of Prrotection,English,﻿for young girls,,,,,﻿Louisville,,﻿KY,,38.23221518,-85.76612089,,,,,,,,,,,,﻿conducted by the Sisters of the Good Shepherd,,1868,﻿,﻿,﻿Louisville,Louisville
﻿lou.ky.0184,﻿infirmary,﻿St. Joseph's Infirmary,English,,"﻿Fourth street, between Chestnut and Broadway",,,,﻿Louisville,,﻿KY,,38.24755869,-85.75856331,,,,,,,,,,,,﻿under care of the Sisters of Charity,,1868,﻿,﻿,﻿Louisville,Louisville
