instID,church_type,instName,language,instNote,placeName,region,county_orig,county_reg,city_orig,city_reg,state_orig,state_reg,latitude,longitude,attendingInstID,attendingChurch,attendingChurchFrequency,persID,persTitle,persName,persSuffix,persRole,persNote,memberType,member,affiliated,order,year,attendingPersID,attendingChurchNote,diocese,diocese_reg
﻿mil.wi.0001,﻿cathedral,﻿St. John's Cathedral,English,,﻿Corner of Jackson and Oneida streets,,,﻿Milwaukee County,﻿Milwaukee,﻿Milwaukee,﻿WI,,43.041805,-87.904118,,,,﻿joh_m_henni_001,﻿Rt. Rev.,﻿J. M. Henni,﻿D.D.,,,,,,,1867,﻿,﻿,﻿Milwaukee,Milwaukee
﻿mil.wi.0001,﻿cathedral,﻿St. John's Cathedral,English,,﻿Corner of Jackson and Oneida streets,,,﻿Milwaukee County,﻿Milwaukee,﻿Milwaukee,﻿WI,,43.041805,-87.904118,,,,﻿mar_kundig_001,﻿Very Rev.,﻿M. Kundig,,,,,,,,1867,﻿,﻿,﻿Milwaukee,Milwaukee
﻿mil.wi.0001,﻿cathedral,﻿St. John's Cathedral,English,,﻿Corner of Jackson and Oneida streets,,,﻿Milwaukee County,﻿Milwaukee,﻿Milwaukee,﻿WI,,43.041805,-87.904118,,,,﻿p_j_donaghoe_001,﻿Rev.,﻿P. Donaghoe,,,,,,,,1867,﻿,﻿,﻿Milwaukee,Milwaukee
﻿mil.wi.0002,﻿church,﻿St. Mary's,English,,﻿Corner of Main and Biddle streets,,,﻿Milwaukee County,﻿Milwaukee,﻿Milwaukee,﻿WI,43.042173,43.042173,-87.907964,,,,﻿l_batz_001,﻿Rev.,﻿L. Batz,,,,,,,,1867,﻿,﻿,﻿Milwaukee,Milwaukee
﻿mil.wi.0003,﻿church,﻿St. Gall's,English,,﻿Corner of Second and Sycamore streets,,,﻿Milwaukee County,﻿Milwaukee,﻿Milwaukee,﻿WI,,43.066124,-87.913974,,,,﻿sta_p_lalumiere_001,﻿Rev.,﻿Stanislaus P. Lalumiere,﻿S.J.,﻿Superior,,,,,,1867,﻿,﻿,﻿Milwaukee,Milwaukee
﻿mil.wi.0003,﻿church,﻿St. Gall's,English,,﻿Corner of Second and Sycamore streets,,,﻿Milwaukee County,﻿Milwaukee,﻿Milwaukee,﻿WI,,43.066124,-87.913974,,,,﻿ign_maes_001,﻿Rev.,﻿Ignatius Maes,﻿S.J.,,,,,,,1867,﻿,﻿,﻿Milwaukee,Milwaukee
﻿mil.wi.0003,﻿church,﻿St. Gall's,English,,﻿Corner of Second and Sycamore streets,,,﻿Milwaukee County,﻿Milwaukee,﻿Milwaukee,﻿WI,,43.066124,-87.913974,,,,﻿j_t_kuhlmann_001,﻿Rev.,﻿J. T. Kuhlmann,﻿S.J.,,,,,,,1867,﻿,﻿,﻿Milwaukee,Milwaukee
﻿mil.wi.0003,﻿church,﻿St. Gall's,English,,﻿Corner of Second and Sycamore streets,,,﻿Milwaukee County,﻿Milwaukee,﻿Milwaukee,﻿WI,,43.066124,-87.913974,,,,﻿p_a_nogues_001,﻿Rev.,﻿P. A. Nogues,﻿S.J.,,,,,,,1867,﻿,﻿,﻿Milwaukee,Milwaukee
﻿mil.wi.0004,﻿church,﻿Holy Trinity,English,,﻿Corner of Park and Greenbush streets,,,﻿Milwaukee County,﻿Milwaukee,﻿Milwaukee,﻿WI,,43.025057,-87.91582,,,,﻿l_conrad_001,﻿Rev.,﻿J. Conrad,,,,,,,,1867,﻿,﻿,﻿Milwaukee,Milwaukee
﻿mil.wi.0005,﻿church,﻿St. Joseph's,English,,﻿Corner of Eleventh and Lisbon streets,,,﻿Milwaukee County,﻿Milwaukee,﻿Milwaukee,﻿WI,,43.04987,-87.926109,,,,﻿jos_holzhauer_001,﻿Rev.,﻿J. Holzhauer,,,,,,,,1867,﻿,﻿,﻿Milwaukee,Milwaukee
﻿mil.wi.0006,﻿church,﻿St. Peter's,﻿Bohemian,,﻿Martin and Jackson streets,,,﻿Milwaukee County,﻿Milwaukee,﻿Milwaukee,﻿WI,,43.044007,-87.905226,,,,﻿j_maly_001,﻿Rev.,﻿J. Maly,,,,,,,,1867,﻿,﻿,﻿Milwaukee,Milwaukee
﻿mil.wi.0007,﻿church,﻿St. Stanislaus,﻿Polish,,﻿Corner of Green and Grove streets,,,﻿Milwaukee County,﻿Milwaukee,﻿Milwaukee,﻿WI,,43.012529,-87.916966,,,,﻿th_weglikowski_001,﻿Rev.,﻿Theodore Weglikowski,,,,,,,,1867,﻿,﻿,﻿Milwaukee,Milwaukee
﻿mil.wi.0010,﻿church,﻿St. Mary's of the Holy Angels,English,,﻿Corner of Milwaukee and Knapp streets,,,﻿Milwaukee County,﻿Milwaukee,﻿Milwaukee,﻿WI,,43.047156,-87.907544,,,,﻿f_x_krautbauer_001,﻿Rev.,﻿F. X. Krautbauer,,﻿Chaplain,,,,,,1867,﻿,﻿,﻿Milwaukee,Milwaukee
﻿mil.wi.0011,﻿church,﻿St. Patrick's,English,,,,﻿Sheboygan County,﻿Sheboygan County,﻿Abbottown,,﻿WI,,43.689523,-87.618638,,﻿Attended from Cascade,,,,,,,,,,,,1867,﻿,﻿,﻿Milwaukee,Milwaukee
﻿mil.wi.0013,﻿church,﻿St. Anthony's,English,,,,﻿Washington County,﻿Washington County,﻿Addison,﻿Addison,﻿WI,,43.442793,-88.340515,,,,﻿m_wenker_001,﻿Rev.,﻿M. Wenker,,,,,,,,1867,﻿,﻿,﻿Milwaukee,Milwaukee
﻿mil.wi.0014,﻿church,﻿SS. Peter and Paul's,English,,,,﻿Washington County,﻿Washington County,﻿Addison,﻿Addison,﻿WI,,43.446284,-88.393623,,,,﻿m_wenker_001,﻿Rev.,﻿M. Wenker,,,,,,,,1867,﻿,﻿,﻿Milwaukee,Milwaukee
﻿mil.wi.0015,﻿church,﻿St. Francis of Sales,English,,,,﻿Green County,﻿Green County,﻿Albany,﻿Albany,﻿WI,,42.735501,-89.426929,,﻿Attended by Rev. W. O'Connell,,﻿wil_oconnell_001,﻿Rev.,﻿W. O'Connell,,,,,,,,1867,﻿,﻿,﻿Milwaukee,Milwaukee
﻿gre.wi.0005,﻿church,﻿St. Mary's,English,,,,﻿Outagamie County,﻿Outagamie County,﻿Appleton,﻿Appleton,﻿WI,,44.259257,-88.413329,,,,﻿l_dael_001,﻿Rev.,﻿L. Dael,,,,,,,,1867,﻿,﻿,﻿Milwaukee,Milwaukee
﻿mil.wi.0016,﻿church,﻿St. Martin's,English,,,,﻿Fond du Lac County,﻿Fond du Lac County,﻿Ashford,﻿Ashford,﻿WI,,43.586939,-88.370656,,,,﻿h_j_muckerheide_001,﻿Rev.,﻿H. J. Muckerheide,,,,,,,,1867,﻿,﻿,﻿Milwaukee,Milwaukee
﻿mil.wi.0325,﻿church,﻿St. Raphael's,English,,,,﻿Kewaunee County,,﻿Ahnepee,,﻿WI,,44.633333,-87.466667,,﻿Visited from Kewaunee,,,,,,,,,,,,1867,﻿,﻿,﻿Milwaukee,Milwaukee
﻿mil.wi.0017,﻿church,﻿St. Mathias',English,,,,﻿Fond du Lac County,﻿Fond du Lac County,﻿Auburn,﻿Auburn,﻿WI,,43.585118,-88.20716,,﻿Attended from Barton,,,,,,,,,,,,1867,﻿,﻿,﻿Milwaukee,Milwaukee
﻿lac.wi.0089,﻿church,﻿St. Henry's,English,,,,﻿Pepin County,,﻿Aux Galets,,﻿WI,,44.697409,-92.021261,,﻿Attended by Rev. J. B. Smeddink,,﻿j_b_smeddink_001,﻿Rev.,﻿J. B. Smeddink,,,,,,,,1867,﻿,﻿,﻿Milwaukee,Milwaukee
﻿lac.wi.0090,﻿church,﻿St. Vincent de Paul's,English,,,,﻿Bad Axe County,,﻿Bad Axe,,﻿WI,,,,,﻿Attended from La Crosse,,,,,,,,,,,,1867,﻿,﻿,﻿Milwaukee,Milwaukee
﻿mil.wi.0018,﻿church,﻿Immaculate Conception,English,,,,﻿Washington County,﻿Washington County,﻿Barton,﻿Barton,﻿WI,,43.460556,-88.236382,,,,﻿j_reindl_001,﻿Rev.,﻿J. Reindl,,,,,,,,1867,﻿,﻿,﻿Milwaukee,Milwaukee
﻿lac.wi.0004,﻿church,﻿Christ's Church,English,,,,﻿La Point County,﻿La Point County,﻿Bayfield,﻿Bayfield,﻿WI,,46.810767,-90.81824,,,,﻿joh_chebul_002,﻿Rev.,﻿J. Chebul,,,,,,,,1867,﻿,﻿,﻿Milwaukee,Milwaukee
﻿mil.wi.0019,﻿church,﻿St. Mathias',English,,,,﻿Milwaukee County,﻿Milwaukee County,﻿Beloit Road,﻿West Milwaukee,﻿WI,,42.985763,-88.029982,,,,﻿j_h_korphage_001,﻿Rev.,﻿J. H. Karfhage,,,,,,,,1867,﻿,﻿,﻿Milwaukee,Milwaukee
﻿mil.wi.0020,﻿church,﻿St. Thomas',English,,,,﻿Rock County,﻿Rock County,﻿Beloit,﻿Beloit,﻿WI,,42.499446,-89.027951,,,,﻿r_sullivan_001,﻿Rev.,﻿R. Sullivan,,,,,,,,1867,﻿,﻿,﻿Milwaukee,Milwaukee
﻿mil.wi.0021,﻿church,﻿St. Peter's,English,,,,﻿Dodge County,﻿Dodge County,﻿Beaver Dam,﻿Beaver Dam,﻿WI,,43.451203,-88.836304,,,,﻿f_fusseder_001,﻿Rev.,﻿F. Fusseder,,,,,,,,1867,﻿,﻿,﻿Milwaukee,Milwaukee
﻿mil.wi.0023,﻿church,﻿St. Patrick's,English,,,,﻿Dodge County,﻿Dodge County,﻿Beaver Dam,﻿Beaver Dam,﻿WI,,43.439298,-88.842518,,,,﻿f_fusseder_001,﻿Rev.,﻿F. Fusseder,,,,,,,,1867,﻿,﻿,﻿Milwaukee,Milwaukee
﻿mil.wi.0024,﻿church,﻿Holy Cross,English,,,,﻿Ozaukee County,﻿Ozaukee County,﻿Belgium,﻿Belgium,﻿WI,,43.47028,-87.89556,,,,﻿j_welter_001,﻿Rev.,﻿J. Welter,,,,,,,,1867,﻿,﻿,﻿Milwaukee,Milwaukee
﻿mil.wi.0025,﻿church,﻿St. Mary's,English,,,,﻿Ozaukee County,﻿Ozaukee County,﻿Belgium,﻿Belgium,﻿WI,,43.499721,-87.850367,,,,﻿mic_deisenrieder_001,﻿Rev.,﻿M. Deipensieder,,,,,,,,1867,﻿,﻿,﻿Milwaukee,Milwaukee
﻿mil.wi.0026,﻿church,﻿St. Patrick's,English,,,,﻿La Fayette County,﻿La Fayette County,﻿Benton,﻿Benton,﻿WI,,42.567763,-90.378652,,,,﻿l_fortune_001,﻿Rev.,﻿L. Fortune,﻿C. P.,,,,,,,1867,﻿,﻿,﻿Milwaukee,Milwaukee
﻿mil.wi.0027,﻿church,﻿St. Joseph's,English,,,,﻿Green Lake County,﻿Green Lake County,﻿Berlin,﻿Berlin,﻿WI,,43.977705,-88.941571,,﻿Attended by Rev. E. Gray,,﻿e_gray_001,﻿Rev.,﻿E. Gray,,,,,,,,1867,﻿,﻿,﻿Milwaukee,Milwaukee
﻿lac.wi.0003,﻿church,﻿St. Michael's,English,,,,﻿Sauk County,﻿Sauk County,﻿Baraboo,﻿Baraboo,﻿WI,,43.471094,-89.744291,,,,﻿l_schreiner_001,﻿Rev.,﻿L. Schreiner,,,,,,,,1867,﻿,﻿,﻿Milwaukee,Milwaukee
﻿mil.wi.0326,﻿church,﻿St. Pius',English,,,,﻿Columbia County,,﻿Briggsville,,﻿WI,,43.655,-89.585278,,﻿Visited by Rev. A. Fagan,,﻿a_fagan_001,﻿Rev.,﻿A. Fagan,,,,,,,,1867,﻿,﻿,﻿Milwaukee,Milwaukee
﻿mil.wi.0030,﻿church,﻿Immaculate Conception,English,,,,﻿Racine County,﻿Racine County,﻿Burlington,﻿Burlington,﻿WI,,42.675796,-88.281435,,,,﻿m_wissbauer_001,﻿Rev.,﻿M. Wisbauer,,,,,,,,1867,﻿,﻿,﻿Milwaukee,Milwaukee
﻿mil.wi.0031,﻿church,﻿St. Patrick's,English,,,,﻿Kenosha County,﻿Kenosha County,﻿Brighton,﻿Brighton,﻿WI,,42.627816,-88.100668,,,,﻿mic_heiss_001,﻿Rev.,﻿M. Heiss,,,,,,,,1867,﻿,﻿,﻿Milwaukee,Milwaukee
﻿mil.wi.0032,﻿church,﻿St. Michael's,English,,,,﻿Kenosha County,﻿Kenosha County,﻿Bristol,﻿Bristol,﻿WI,,42.558751,-88.050448,,﻿Attended from Brighton,,,,,,,,,,,,1867,﻿,﻿,﻿Milwaukee,Milwaukee
﻿mil.wi.0033,﻿church,﻿St. Dominic's,English,,,,﻿Waukesha County,﻿Waukesha County,﻿Brookfield,﻿Brookfield,﻿WI,,43.060935,-88.126055,,﻿Attended by Rev. D. P. Kirwin,,﻿d_t_kirwan_001,﻿Rev.,﻿D. P. Kirwin,,,,,,,,1867,﻿,﻿,﻿Milwaukee,Milwaukee
﻿mil.wi.0328,﻿church,﻿Holy Angel Guardians,English,,,,﻿Outagamie County,,﻿Buchanan,,﻿WI,,44.243613,-88.329741,,﻿Attended by Rev. A.J. Verberk,,﻿a_j_verberk_001,﻿Rev.,﻿A. J. Verberk,,,,,,,,1867,﻿,﻿,﻿Milwaukee,Milwaukee
﻿lac.wi.0005,﻿church,﻿St. Joseph's,English,,,,﻿La Crosse County,﻿La Crosse County,﻿Buchanan,﻿Washington,﻿WI,,43.813775,-91.251902,,﻿Attended by Rev. F. L. Junker,,﻿f_l_junker_001,﻿Rev.,﻿F. L. Junker,,,,,,,,1867,﻿,﻿,﻿Milwaukee,Milwaukee
﻿mil.wi.0034,﻿church,﻿St. Andrews's,English,,,,﻿Marquette County,﻿Marquette County,﻿Buffalo,﻿Buffalo,﻿WI,,43.693191,-89.341667,,﻿Attended by Rev. A. Fagan,,﻿a_fagan_001,﻿Rev.,﻿A. Fagan,,,,,,,,1867,﻿,﻿,﻿Milwaukee,Milwaukee
﻿mil.wi.0035,﻿church,﻿St. John's,English,,,,﻿Fond du Lac County,﻿Fond du Lac County,﻿Byron,﻿Byron,﻿WI,,43.674434,-88.450704,,,,﻿tho_smyth_001,﻿Rev.,﻿Thomas Smyth,,,,,,,,1867,﻿,﻿,﻿Milwaukee,Milwaukee
﻿mil.wi.0036,﻿church,﻿St. Louis',English,,,,﻿Racine County,﻿Racine County,﻿Caledonia,﻿Caledonia,﻿WI,,42.807796,-87.924248,,,,﻿j_s_munich_001,﻿Rev.,﻿J. S. Munich,,,,,,,,1867,﻿,﻿,﻿Milwaukee,Milwaukee
﻿mil.wi.0037,﻿church,﻿Holy Family,English,,,,﻿Racine County,﻿Racine County,﻿Caledonia,﻿Caledonia,﻿WI,,42.800861,-87.836661,,,,﻿j_s_munich_001,﻿Rev.,﻿J. S. Munich,,,,,,,,1867,﻿,﻿,﻿Milwaukee,Milwaukee
﻿mil.wi.0329,﻿church,﻿St. Methodius',English,,,,﻿Kewaunee County,,﻿Carrollton,,﻿WI,,44.378333,-87.577778,,﻿Attended by Rev. E. Van Steenwyck,,﻿e_van-steenwyck_001,﻿Rev.,﻿E. Van Steenwyck,,,,,,,,1867,﻿,﻿,﻿Milwaukee,Milwaukee
﻿mil.wi.0039,﻿church,﻿St. Mary's,English,,,,﻿Sheboygan County,﻿Sheboygan County,﻿Cascade,﻿Cascade,﻿WI,,43.658329,-88.007038,,,,﻿hug_mcmahon_001,﻿Rev.,﻿H. McMahon,,,,,,,,1867,﻿,﻿,﻿Milwaukee,Milwaukee
﻿mil.wi.0330,﻿church,﻿St. Amand's,English,,,,﻿Kewaunee County,,﻿Casco,,﻿WI,,44.54587,-87.75471,,﻿Attended by Rev. Philip Crud,,﻿phi_crud_002,﻿Rev.,﻿Philip Crud,,,,,,,,1867,﻿,﻿,﻿Milwaukee,Milwaukee
﻿mil.wi.0331,﻿church,﻿St. Edward's,English,,,,﻿Kewaunee County,,﻿Casco,,﻿WI,,44.537778,-87.593056,,﻿Visited by Rev. Philip Crud,,﻿phi_crud_002,﻿Rev.,﻿Philip Crud,,,,,,,,1867,﻿,﻿,﻿Milwaukee,Milwaukee
﻿mil.wi.0040,﻿church,﻿St. Charles',English,,,,﻿Grant County,﻿Grant County,﻿Cassville,﻿Cassville,﻿WI,,42.715431,-90.974686,,,,﻿hen_l_thiele_001,﻿Rev.,﻿H. L. Thiele,,,,,,,,1867,﻿,﻿,﻿Milwaukee,Milwaukee
﻿mil.wi.0332,﻿church,﻿St. Mary's,English,,,,﻿Manitowoc County,,﻿Cato,,﻿WI,,44.094,-87.862854,,﻿Attended by Rev. J. Fessler,,﻿j_fessler_001,﻿Rev.,﻿J. Fessler,,,,,,,,1867,﻿,﻿,﻿Milwaukee,Milwaukee
﻿lac.wi.0006,﻿church,﻿St. Anthony of Padua,English,,,,﻿Richland County,﻿Richland County,﻿Cazenovia,﻿Cazenovia,﻿WI,,43.524284,-90.222851,,,,﻿w_stehle_001,﻿Rev.,﻿W. Stehle,,,,,,,,1867,﻿,﻿,﻿Milwaukee,Milwaukee
﻿mil.wi.0041,﻿church,﻿St. Francis Borgia's,English,,,,﻿Ozaukee County,﻿Ozaukee County,﻿Cedarburgh,﻿Cedarburg,﻿WI,,43.325764,-88.006679,,,,﻿j_r_herman_001,﻿Rev.,﻿J. R. Herman,,,,,,,,1867,﻿,﻿,﻿Milwaukee,Milwaukee
﻿mil.wi.0333,﻿church,﻿St. Edward's,English,,,,﻿Outagamie County,,﻿Center,,﻿WI,,44.376111,-88.440278,,﻿Visited by Rev. L. Dael,,﻿l_dael_001,﻿Rev.,﻿L. Dael,,,,,,,,1867,﻿,﻿,﻿Milwaukee,Milwaukee
﻿mil.wi.0042,﻿church,﻿St. George's,English,,,,﻿Manitowoc County,﻿Manitowoc County,﻿Centerville,﻿Centerville,﻿WI,,43.950138,-87.746807,,,,﻿f_zuber_001,﻿Rev.,﻿F. Zuber,,,,,,,,1867,﻿,﻿,﻿Milwaukee,Milwaukee
﻿mil.wi.0043,﻿church,﻿St. Wendelin's,English,,,,﻿Manitowoc County,﻿Manitowoc County,﻿Centerville,﻿Centerville,﻿WI,,43.950138,-87.746807,,,,﻿f_zuber_001,﻿Rev.,﻿F. Zuber,,,,,,,,1867,﻿,﻿,﻿Milwaukee,Milwaukee
﻿mil.wi.0044,﻿church,﻿St. Martin's,English,,,,﻿Calumet County,﻿Calumet County,﻿Charleston,﻿Charlestown,﻿WI,,44.023369,-88.109612,,﻿Attended from Chilton,,,,,,,,,,,,1867,﻿,﻿,﻿Milwaukee,Milwaukee
﻿lac.wi.0007,﻿church,﻿St. Mary's,English,,,,﻿Chippewa County,﻿Chippewa County,﻿Chippewa Falls,﻿Chippewa Falls,﻿WI,,44.936905,-91.392935,,,,﻿j_b_smeddink_001,﻿Rev.,﻿J. B. Smeddink,,,,,,,,1867,﻿,﻿,﻿Milwaukee,Milwaukee
﻿gre.wi.0008,﻿church,﻿St. Augustine's,English,,,,﻿Calumet County,﻿Calumet County,﻿Chilton,﻿Chilton,﻿WI,,44.028936,-88.166224,,,,﻿cha_shraudenback_001,﻿Rev.,﻿Charles Shraudenback,,,,,,,,1867,﻿,﻿,﻿Milwaukee,Milwaukee
﻿lac.wi.0093,﻿church,﻿St. Phillip's,English,,,,﻿Crawford County,,﻿Claytontown,,﻿WI,,43.328387,-90.719634,,﻿Attended by Rev. P. Murphy,,﻿p_murphy_004,﻿Rev.,﻿P. Murphy,,,,,,,,1867,﻿,﻿,﻿Milwaukee,Milwaukee
﻿mil.wi.0045,﻿church,﻿St. Malachi's,English,,,,﻿Iowa County,﻿Iowa County,﻿Clydetown,﻿Clyde,﻿WI,,43.103282,-90.24941,,﻿Attended from Highland,,,,,,,,,,,,1867,﻿,﻿,﻿Milwaukee,Milwaukee
﻿mil.wi.0046,﻿church,﻿Holy Assumption,English,,,,﻿Dodge County,﻿Dodge County,﻿Clyman,﻿Clyman,﻿WI,,43.304494,-88.704125,,﻿Attended by Rev. H. Roche,,﻿h_roche_001,﻿Rev.,﻿H. Roche,,,,,,,,1867,﻿,﻿,﻿Milwaukee,Milwaukee
﻿mil.wi.0047,﻿church,﻿St. Isidore's,﻿German,,,,﻿Dodge County,﻿Dodge County,﻿Clyman,﻿Clyman,﻿WI,,43.308947,-88.718006,,﻿Attended by Rev. W. Bernard,,﻿w_bernard_001,﻿Rev.,﻿W. Bernard,,,,,,,,1867,﻿,﻿,﻿Milwaukee,Milwaukee
﻿mil.wi.0048,﻿church,﻿St. Jerom's,English,,,,﻿Columbia County,﻿Columbia County,﻿Columbus,﻿Columbus,﻿WI,,43.323503,-89.020849,,﻿Attended by Rev. E. McGuirk,,﻿e_mcguirk_001,﻿Rev.,﻿E. McGuirk,,,,,,,,1867,﻿,﻿,﻿Milwaukee,Milwaukee
﻿mil.wi.0049,﻿church,﻿St. Mary's of Help,English,,,,﻿Jefferson County,﻿Jefferson County,﻿Concord,﻿Concord,﻿WI,,43.06945,-88.598712,,﻿Attended from Ottawa,,,,,,,,,,,,1867,﻿,﻿,﻿Milwaukee,Milwaukee
﻿mil.wi.0334,﻿church,﻿Holy Family,English,,,,﻿Manitowoc County,,﻿Cooperstown,,﻿WI,,44.312778,-87.774444,,,,﻿f_lang_001,﻿Rev.,﻿F. Lang,,,,,,,,1867,﻿,﻿,﻿Milwaukee,Milwaukee
﻿mil.wi.0335,﻿church,﻿St. Wenceslaus',English,,,,﻿Manitowoc County,,﻿Cooperstown,,﻿WI,,44.312778,-87.774444,,﻿Attended by Rev. F. Lang,,﻿f_lang_001,﻿Rev.,﻿F. Lang,,,,,,,,1867,﻿,﻿,﻿Milwaukee,Milwaukee
﻿mil.wi.0336,﻿church,﻿St. John Nepom,English,,,,﻿Kewaunee County,,﻿Coryville,,﻿WI,,44.498701,-87.588136,,﻿Attended by Rev. A. Lang,,﻿a_lang_001,﻿Rev.,﻿A. Lang,,,,,,,,1867,﻿,﻿,﻿Milwaukee,Milwaukee
﻿mil.wi.0050,﻿church,﻿St. Francis Xavier's,English,,,,﻿Dane County,﻿Dane County,﻿Cross Plains,﻿Cross Plains,﻿WI,,43.119824,-89.634631,,,,﻿p_j_voissem_001,﻿Rev.,﻿P. J. Voissem,,,,,,,,1867,﻿,﻿,﻿Milwaukee,Milwaukee
﻿mil.wi.0051,﻿church,﻿St. Mary's,English,,,,﻿Dane County,﻿Dane County,﻿Cross Plains,﻿Cross Plains,﻿WI,,43.495559,-89.310633,,,,﻿p_j_voissem_001,﻿Rev.,﻿P. J. Voissem,,,,,,,,1867,﻿,﻿,﻿Milwaukee,Milwaukee
﻿mil.wi.0053,﻿church,﻿St. Leo's,English,,,,﻿La Fayette County,﻿La Fayette County,﻿Darlington,﻿Darlington,﻿WI,,42.683031,-90.117512,,,,﻿e_m_mcginnity_001,﻿Rev.,﻿E. McGinnity,,,,,,,,1867,﻿,﻿,﻿Milwaukee,Milwaukee
﻿mil.wi.0055,﻿church,﻿St. Anne's,English,,,,﻿Dane County,﻿Dane County,﻿Deerfield,﻿Deerfield,﻿WI,,43.08213,-89.083051,,﻿Attended by Rev. P. Lavin,,﻿pet_lavin_002,﻿Rev.,﻿P. Lavin,,,,,,,,1867,﻿,﻿,﻿Milwaukee,Milwaukee
﻿mil.wi.0056,﻿church,﻿St. Andrew's,English,,,,﻿Walworth County,﻿Walworth County,﻿Delavan,﻿Delavan,﻿WI,,42.637216,-88.639119,,,,﻿m_morris_001,﻿Rev.,﻿M. Morris,,,,,,,,1867,﻿,﻿,﻿Milwaukee,Milwaukee
﻿lac.wi.0094,﻿church,﻿All Saints',English,,,,﻿Sauk County,,﻿Delona,,﻿WI,,43.595825,-89.934587,,﻿Visited by Rev. P. Montague,,﻿p_montague_002,﻿Rev.,﻿P. Montague,,,,,,,,1867,﻿,﻿,﻿Milwaukee,Milwaukee
﻿mil.wi.0057,﻿church,﻿St. Kiernan's,English,,,,﻿Columbia County,﻿Columbia County,﻿Dekora,﻿Dekkora,﻿WI,,43.457484,-89.46762,,﻿Attended by Rev. P. F. Pettit,,﻿p_f_petit_001,﻿Rev.,﻿P. F. Pettit,,,,,,,,1867,﻿,﻿,﻿Milwaukee,Milwaukee
﻿mil.wi.0337,﻿church,﻿St. Francis Xavier's,English,,,,﻿Brown County,,﻿Depére,,﻿WI,,44.447494,-88.05865,,,,﻿w_a_verboort_002,﻿Rev.,﻿W. A. Verboort,,,,,,,,1867,﻿,﻿,﻿Milwaukee,Milwaukee
﻿mil.wi.0058,﻿church,﻿St. Peter's,English,,,,﻿Iowa County,﻿Iowa County,﻿Dodgeville,﻿Dodgeville,﻿WI,,42.960274,-90.130124,,﻿Attended from Highland,,,,,,,,,,,,1867,﻿,﻿,﻿Milwaukee,Milwaukee
﻿mil.wi.0338,﻿church,﻿St. John Baptist's,English,,,,﻿Outagamie County,,﻿Duck Creek,,﻿WI,,,,,﻿Attended from Green Bay,,,,,,,,,,,,1867,﻿,﻿,﻿Milwaukee,Milwaukee
﻿mil.wi.0060,﻿church,﻿St. Thaddeus',English,﻿vacant,,,﻿Walworth County,﻿Walworth County,﻿East-Troy,﻿East Troy,﻿WI,,42.785292,-88.405096,,,,,,,,,,,,,,1867,﻿,﻿,﻿Milwaukee,Milwaukee
﻿mil.wi.0061,﻿church,﻿St. Gregory Naz,English,,,,﻿Manitowoc County,﻿Manitowoc County,﻿Eaton,﻿Eaton,﻿WI,,44.021373,-87.992268,,,,﻿a_oschwald_001,﻿Rev.,﻿A. Oschwald,,,,,,,,1867,﻿,﻿,﻿Milwaukee,Milwaukee
﻿mil.wi.0061,﻿church,﻿St. Gregory Naz,English,,,,﻿Manitowoc County,﻿Manitowoc County,﻿Eaton,﻿Eaton,﻿WI,,44.021373,-87.992268,,,,﻿j_fessler_001,﻿Rev.,﻿J. Fessler,,﻿Assistant,,,,,,1867,﻿,﻿,﻿Milwaukee,Milwaukee
﻿mil.wi.0062,﻿church,﻿St. Theresa's,English,,,,﻿Waukesha County,﻿Waukesha County,﻿Eagle Centre,﻿Eagle,﻿WI,,43.00726,-88.323931,,﻿Attended by Rev. F. Spath,,﻿f_spath_001,﻿Rev.,﻿F. Spath,,,,,,,,1867,﻿,﻿,﻿Milwaukee,Milwaukee
﻿lac.wi.0008,﻿church,﻿St. Peter's,English,,,,﻿Chippewa County,﻿Chippewa County,﻿Eagle Point,﻿Eagle Point,﻿WI,,45.031628,-91.39599,,﻿Visited by Rev. J. B. Smeddink,,﻿j_b_smeddink_001,﻿Rev.,﻿J. B. Smeddink,,,,,,,,1867,﻿,﻿,﻿Milwaukee,Milwaukee
﻿mil.wi.0064,﻿church,﻿St. Peter's,English,,,,﻿La Fayette County,﻿La Fayette County,﻿Elk Grove,﻿Elk Grove,﻿WI,,42.653341,-90.331538,,﻿Attended by Rev. M. J. Joerger,,﻿m_j_joerger_001,﻿Rev.,﻿M. J. Joerger,,,,,,,,1867,﻿,﻿,﻿Milwaukee,Milwaukee
﻿mil.wi.0065,﻿church,﻿St. Rosa's,English,,,,﻿La Fayette County,﻿La Fayette County,﻿Elk Grove,﻿Elk Grove,﻿WI,,42.671664,-90.390961,,﻿Attended by Rev. G. Prendergast,,﻿g_prendergast_001,﻿Rev.,﻿G. Prendergast,,,,,,,,1867,﻿,﻿,﻿Milwaukee,Milwaukee
﻿mil.wi.0067,﻿church,﻿St. Lawrence's,English,,,,﻿Walworth County,﻿Walworth County,﻿Elkhorn,﻿Elkhorn,﻿WI,,42.672793,-88.544545,,﻿Visited by Rev. M. Morris,,﻿m_morris_001,﻿Rev.,﻿M. Morris,,,,,,,,1867,﻿,﻿,﻿Milwaukee,Milwaukee
﻿mil.wi.0066,﻿church,﻿Visitation B.V.M.,English,,,,﻿Waukesha County,﻿Waukesha County,﻿Elm Grove,﻿Elm Grove,﻿WI,,43.044445,-88.074792,,,,﻿a_hattenberg_001,﻿Very Rev.,﻿H. Hattenberg,,,,,,,,1867,﻿,﻿,﻿Milwaukee,Milwaukee
﻿lac.wi.0009,﻿church,﻿St. Patrick's,English,,,,﻿Eau Claire County,﻿Eau Claire County,﻿Eau Claire,﻿Eau Claire,﻿WI,,44.811349,-91.498494,,,,﻿h_reinhardt_001,﻿Rev.,﻿H. Reinhardt,,,,,,,,1867,﻿,﻿,﻿Milwaukee,Milwaukee
﻿mil.wi.0068,﻿church,﻿St. Joseph's,English,,,,﻿Rock County,﻿Rock County,﻿Edgerton,﻿Edgerton,﻿WI,,42.844951,-89.064887,,﻿Attended by Rev. J. J. Murphy,,﻿j_j_murphy_001,﻿Rev.,﻿J. J. Murphy,,,,,,,,1867,﻿,﻿,﻿Milwaukee,Milwaukee
﻿mil.wi.0069,﻿church,﻿Holy Ascension,English,,,,﻿Fond du Lac County,﻿Fond du Lac County,﻿Eden,﻿Eden,﻿WI,,43.693603,-88.360936,,﻿Attended by Rev. Th. Smyth,,﻿tho_smyth_001,﻿Rev.,﻿Th. Smyth,,,,,,,,1867,﻿,﻿,﻿Milwaukee,Milwaukee
﻿mil.wi.0070,﻿church,﻿St. Columbkille's,English,,,,﻿Dodge County,﻿Dodge County,﻿Ella,﻿Elba,﻿WI,,43.307257,-88.928573,,,,﻿e_mcguirk_001,﻿Rev.,﻿E. McGuirk,,,,,,,,1867,﻿,﻿,﻿Milwaukee,Milwaukee
﻿lac.wi.0011,﻿church,﻿St. Patrick's,English,,,,﻿St. Croix County,﻿St. Croix County,﻿Erin,﻿Erin Prairie,﻿WI,,45.067181,-92.448595,,,,﻿joh_conroy_001,﻿Rev.,﻿J. Conroy,,,,,,,,1867,﻿,﻿,﻿Milwaukee,Milwaukee
﻿mil.wi.0071,﻿church,﻿St. Patrick's,English,,,,﻿Washington County,﻿Washington County,﻿Erin,﻿Erin,﻿WI,,43.22085,-88.343362,,﻿Attended by Rev. F. Tiernan,,﻿f_tiernan_001,﻿Rev.,﻿F. Tiernan,,,,,,,,1867,﻿,﻿,﻿Milwaukee,Milwaukee
﻿lac.wi.0095,﻿church,﻿St. Bridget's,English,,,,﻿Trempeleau County,,﻿Etrich,,﻿WI,,44.161056,-91.267742,,﻿Attended by Rev. M. M. Marco,,﻿m_m_marco_001,﻿Rev.,﻿M. M. Marco,,,,,,,,1867,﻿,﻿,﻿Milwaukee,Milwaukee
﻿mil.wi.0072,﻿church,﻿St. John of God,English,,,,﻿Washington County,﻿Washington County,﻿Farmington,﻿Farmington,﻿WI,,43.513052,-88.110006,,﻿Visited by Rev. C. Rehrl,,﻿c_rehrl_001,﻿Rev.,﻿C. Rehrl,,,,,,,,1867,﻿,﻿,﻿Milwaukee,Milwaukee
﻿mil.wi.0073,﻿church,﻿St. Peter's,English,,,,﻿Washington County,﻿Washington County,﻿Farmington,﻿Farmington,﻿WI,,43.487414,-88.109612,,﻿Visited by Rev. C. Rehrl,,﻿c_rehrl_001,﻿Rev.,﻿C. Rehrl,,,,,,,,1867,﻿,﻿,﻿Milwaukee,Milwaukee
﻿mil.wi.0074,﻿church,﻿St. Holy Mother of Consolation,English,,,,﻿Dane County,﻿Dane County,﻿Fitzburgh,﻿Fitchburg,﻿WI,,42.951169,-89.402893,,,,﻿m_hobbs_001,﻿Rev.,﻿M. Hobbs,,,,,,,,1867,﻿,﻿,﻿Milwaukee,Milwaukee
﻿mil.wi.0075,﻿church,﻿St. Lewis',English,,,,﻿Fond du Lac County,﻿Fond du Lac County,﻿Fond du Lac,﻿Fond du Lac,﻿WI,,43.771582,-88.449415,,,,﻿j_c_perrodin_001,﻿Rev.,﻿J. C. Perrodin,,,,,,,,1867,﻿,﻿,﻿Milwaukee,Milwaukee
﻿mil.wi.0076,﻿church,﻿St. Patrick's,English,,,,﻿Fond du Lac County,﻿Fond du Lac County,﻿Fond du Lac,﻿Fond du Lac,﻿WI,,43.784721,-88.446755,,,,﻿j_colton_001,﻿Rev.,﻿J. Colton,,,,,,,,1867,﻿,﻿,﻿Milwaukee,Milwaukee
﻿mil.wi.0077,﻿church,﻿St. Mary's,English,,,,﻿Fond du Lac County,﻿Fond du Lac County,﻿Fond du Lac,﻿Fond du Lac,﻿WI,,43.781355,-88.444253,,,,﻿f_x_sailer_001,﻿Rev.,﻿F. X. Sailer,,,,,,,,1867,﻿,﻿,﻿Milwaukee,Milwaukee
﻿mil.wi.0078,﻿church,﻿St. Augustine's,English,,,,﻿Rock County,﻿Rock County,﻿Footville,﻿Footville,﻿WI,,42.675329,-89.20531,,﻿Attended from Janesville,,,,,,,,,,,,1867,﻿,﻿,﻿Milwaukee,Milwaukee
﻿mil.wi.0079,﻿church,﻿Immaculate Conception,English,,,,﻿Dodge County,﻿Dodge County,﻿Fox Lake,﻿Fox Lake,﻿WI,,43.565543,-88.906498,,,,﻿w_dougherty_001,﻿Rev.,﻿W. Dougherty,,,,,,,,1867,﻿,﻿,﻿Milwaukee,Milwaukee
﻿mil.wi.0080,﻿church,﻿St. John Baptist's,English,,,,﻿Fond du Lac County,﻿Fond du Lac County,﻿Foresttown,﻿Forest,﻿WI,,43.757996,-88.226643,,﻿Attended from Calvary Convent,,,,,,,,,,,,1867,﻿,﻿,﻿Milwaukee,Milwaukee
﻿lac.wi.0012,﻿church,﻿Immaculate Conception,English,,,,﻿Buffalo County,﻿Buffalo County,﻿Fountain City,﻿Fountain City,﻿WI,,44.130112,-91.716359,,,,﻿a_rasch_001,﻿Rev.,﻿A. Rasch,,,,,,,,1867,﻿,﻿,﻿Milwaukee,Milwaukee
﻿mil.wi.0081,﻿church,﻿St. Martin's,English,,,,﻿Milwaukee County,﻿Milwaukee County,﻿Franklin,﻿Franklin,﻿WI,,42.888627,-88.038419,,,,﻿ed_oconnor_001,﻿Rev.,﻿Edw. O'Connor,,,,,,,,1867,﻿,﻿,﻿Milwaukee,Milwaukee
﻿mil.wi.0082,﻿church,﻿Sacred Heart of Jesus and Mary,English,,,,﻿Milwaukee County,﻿Milwaukee County,﻿Franklin,﻿Franklin,﻿WI,,43.072467,-87.618638,,,,﻿w_bonenkamp_001,﻿Rev.,﻿W. Bonnenkamp,,,,,,,,1867,﻿,﻿,﻿Milwaukee,Milwaukee
﻿lac.wi.0096,﻿church,﻿St. Luke's,English,,,,﻿Sauk County,,﻿Franklin,,﻿WI,,43.27647,-90.049045,,﻿Attended from Ithaca,,,,,,,,,,,,1867,﻿,﻿,﻿Milwaukee,Milwaukee
﻿mil.wi.0340,﻿church,﻿St. Lawrence's,English,,,,﻿Kewaunee County,,﻿Franklin,,﻿WI,,44.399901,-87.684521,,﻿Attended from Kewaunee,,,,,,,,,,,,1867,﻿,﻿,﻿Milwaukee,Milwaukee
﻿mil.wi.0083,﻿church,﻿St. Nicholas',English,﻿vacant,,,﻿Ozaukee County,﻿Ozaukee County,﻿Freedonia,﻿Fredonia,﻿WI,,43.470555,-87.950646,,,,,,,,,,,,,,1867,﻿,﻿,﻿Milwaukee,Milwaukee
﻿mil.wi.0084,﻿church,﻿Mother of Dolors,English,,,,﻿Ozaukee County,﻿Ozaukee County,﻿Freedonia,﻿Fredonia,﻿WI,,42.670842,-89.209004,,﻿Attended by Rev. John Welter,,﻿j_welter_001,﻿Rev.,﻿John Welter,,,,,,,,1867,﻿,﻿,﻿Milwaukee,Milwaukee
﻿gre.wi.0010,﻿church,﻿St. Nicholas',English,﻿vacant,,,﻿Outagamie County,﻿Outagamie County,﻿Freedom,﻿Freedom,﻿WI,,44.386111,-88.288056,,,,,,,,,,,,,,1867,﻿,﻿,﻿Milwaukee,Milwaukee
﻿mil.wi.0086,﻿church,﻿St. Paul's,English,,,,﻿Waukesha County,﻿Waukesha County,﻿Genesee,﻿Genesee,﻿WI,,42.974661,-88.377606,,﻿Attended by Rev. D. McGinnity,,﻿d_mcginnity_001,﻿Rev.,﻿D. McGinnity,,,,,,,,1867,﻿,﻿,﻿Milwaukee,Milwaukee
﻿mil.wi.0087,﻿church,﻿St. Francis of Sales,English,,,,﻿Walworth County,﻿Walworth County,﻿Geneva,﻿Geneva,﻿WI,,42.638605,-88.459767,,,,﻿a_david_001,﻿Rev.,﻿A. David,,,,,,,,1867,﻿,﻿,﻿Milwaukee,Milwaukee
﻿mil.wi.0088,﻿church,﻿St. Boniface's,English,,,,﻿Washington County,﻿Washington County,﻿Germantown,﻿Germantown,﻿WI,,43.234715,-88.161571,,,,﻿a_faeckler_001,﻿Rev.,﻿A. Faekler,,,,,,,,1867,﻿,﻿,﻿Milwaukee,Milwaukee
﻿mil.wi.0089,﻿church,﻿St. Michael's,English,,,,﻿Milwaukee County,﻿Milwaukee County,﻿Granville,﻿Granville,﻿WI,,43.177508,-88.043978,,﻿Attended by Rev. R. Hermon,,﻿r_hermon_001,﻿Rev.,﻿R. Hermon,,,,,,,,1867,﻿,﻿,﻿Milwaukee,Milwaukee
﻿mil.wi.0090,﻿church,﻿St. Catharine's,English,,,,﻿Milwaukee County,﻿Milwaukee County,﻿Granville,﻿Granville,﻿WI,,43.177508,-88.043978,,﻿Attended by Rev. L. M.  Mueller,,﻿l_m_mueller_001,﻿Rev.,﻿L. M. Mueller,,,,,,,,1867,﻿,﻿,﻿Milwaukee,Milwaukee
﻿mil.wi.0091,﻿church,﻿St. Martin's,English,,,,﻿Milwaukee County,﻿Milwaukee County,﻿Granville,﻿Granville,﻿WI,,43.177508,-88.043978,,﻿Attended by Rev. L. M.  Mueller,,﻿l_m_mueller_001,﻿Rev.,﻿L. M. Mueller,,,,,,,,1867,﻿,﻿,﻿Milwaukee,Milwaukee
﻿mil.wi.0092,﻿church,﻿St. Fridolin's,English,,,,﻿Sheboygan County,﻿Sheboygan County,﻿Glenbulah,﻿Glenbeulah,﻿WI,,43.79895,-88.046291,,﻿Attended by Rev. M. Haider,,﻿m_haider_001,﻿Rev.,﻿M. Haider,,,,,,,,1867,﻿,﻿,﻿Milwaukee,Milwaukee
﻿lac.wi.0097,﻿church,﻿St. Joseph's,English,,,,﻿Buffalo County,,﻿Glencoe,,﻿WI,,44.249027,-91.563557,,﻿Attended by Rev. A. Rasch,,﻿a_rasch_001,﻿Rev.,﻿A. Rasch,,,,,,,,1867,﻿,﻿,﻿Milwaukee,Milwaukee
﻿mil.wi.0093,﻿church,﻿St. Sebastian's,English,,,,﻿Grant County,﻿Grant County,﻿Glenhaven,﻿Glen Haven,﻿WI,,42.827199,-91.071848,,﻿Attended from Cassville,,,,,,,,,,,,1867,﻿,﻿,﻿Milwaukee,Milwaukee
﻿mil.wi.0094,﻿church,﻿St. Joseph's,English,,,,﻿Ozaukee County,﻿Ozaukee County,﻿Grafton,﻿Grafton,﻿WI,,43.319503,-87.946456,,﻿Attended by Rev. J. Strickner,,﻿geo_strickner_001,﻿Rev.,﻿J. Strickner,,,,,,,,1867,﻿,﻿,﻿Milwaukee,Milwaukee
﻿mil.wi.0095,﻿church,﻿St. Francis Xavier's,English,,,,﻿Ozaukee County,﻿Ozaukee County,﻿Grafton,﻿Grafton,﻿WI,,43.352328,-87.969748,,﻿Attended by Rev. J. Strickner,,﻿geo_strickner_001,﻿Rev.,﻿J. Strickner,,,,,,,,1867,﻿,﻿,﻿Milwaukee,Milwaukee
﻿gre.wi.0011,﻿church,﻿Holy Cross,English,,,,﻿Wood County,﻿Wood County,﻿Grand Rapids,﻿Grand Rapids,﻿WI,,44.380134,-89.756769,,,,﻿l_gervin_001,﻿Rev.,﻿L. Gervin,,,,,,,,1867,﻿,﻿,﻿Milwaukee,Milwaukee
﻿mil.wi.0096,﻿church,﻿St. Mary's,English,,,,﻿Milwaukee County,﻿Milwaukee County,﻿Greenfield,﻿Greenfield,﻿WI,,42.961404,-88.012586,,﻿Attended by Rev. E. O'Connor,,﻿ed_oconnor_001,﻿Rev.,﻿E. O'Connor,,,,,,,,1867,﻿,﻿,﻿Milwaukee,Milwaukee
﻿mil.wi.0097,﻿church,﻿Holy Sacrament,﻿German,,,,﻿Milwaukee County,﻿Milwaukee County,﻿Greenfield,﻿Greenfield,﻿WI,,42.970611,-88.05414,,﻿Attended by Rev. J. H. Karfhage,,﻿j_h_korphage_001,﻿Rev.,﻿J. H. Karfhage,,,,,,,,1867,﻿,﻿,﻿Milwaukee,Milwaukee
﻿mil.wi.0341,﻿church,﻿St. John's,﻿French,,,,﻿Brown County,,﻿Greenbay,,﻿WI,,44.508686,-88.015212,,,,﻿th_hoffen_001,﻿Rev.,﻿Th. Hoffen,﻿O.M.C.,,,,,,,1867,﻿,﻿,﻿Milwaukee,Milwaukee
﻿mil.wi.0342,﻿church,﻿St. Mary's,﻿German,,,,﻿Brown County,,﻿Greenbay,,﻿WI,,44.511672,-88.01211,,,,﻿f_x_pfaller_002,﻿Rev.,﻿F. X. Pfaller,,,,,,,,1867,﻿,﻿,﻿Milwaukee,Milwaukee
﻿mil.wi.0343,﻿church,﻿St. Willibrod's,﻿Dutch,,,,﻿Brown County,,﻿Greenbay,,﻿WI,,44.512206,-88.015222,,"﻿Attended by Th. Hoffen, O.M.C.",,﻿th_hoffen_001,﻿Rev.,﻿Th. Hoffen,,,,,,,,1867,﻿,﻿,﻿Milwaukee,Milwaukee
﻿mil.wi.0344,﻿church,﻿St. Patrick's,English,,,,﻿Brown County,,﻿Greenbay,,﻿WI,,44.522186,-88.020831,,,,﻿f_mcdonnell_001,﻿Rev.,﻿F. McDonnell,,,,,,,,1867,﻿,﻿,﻿Milwaukee,Milwaukee
﻿mil.wi.0098,﻿church,﻿St. Lawrence's,English,,,,﻿Washington County,﻿Washington County,﻿Hartford,﻿Hartford,﻿WI,,43.354195,-88.348337,,,,﻿m_weiss_001,﻿Rev.,﻿M. Weiss,,,,,,,,1867,﻿,﻿,﻿Milwaukee,Milwaukee
﻿mil.wi.0099,﻿church,﻿St. Kilian's,English,,,,﻿Washington County,﻿Washington County,﻿Hartford,﻿Hartford,﻿WI,,43.322406,-88.382373,,,,﻿p_schwaiger_001,﻿Rev.,﻿P. Schwaiger,,,,,,,,1867,﻿,﻿,﻿Milwaukee,Milwaukee
﻿mil.wi.0100,﻿church,﻿St. Francis',English,,,,﻿Grant County,﻿Grant County,﻿Hazel Green,﻿Hazel Green,﻿WI,,42.536699,-90.435959,,,,﻿g_prendergast_001,﻿Rev.,﻿G. Prendergast,,,,,,,,1867,﻿,﻿,﻿Milwaukee,Milwaukee
﻿mil.wi.0101,﻿church,﻿St. John's,English,,,,﻿Dodge County,﻿Dodge County,﻿Herman,﻿Herman,﻿WI,,43.375995,-88.480937,,﻿Attended by Rev. P. Schwaiger,,﻿p_schwaiger_001,﻿Rev.,﻿P. Schwaiger,,,,,,,,1867,﻿,﻿,﻿Milwaukee,Milwaukee
﻿mil.wi.0102,﻿church,﻿St. Joseph's,English,,,,﻿Sheboygan County,﻿Sheboygan County,﻿Herman,﻿Herman,﻿WI,,43.600762,-87.992268,,,,﻿w_engeln_001,﻿Rev.,﻿W. Engeln,,,,,,,,1867,﻿,﻿,﻿Milwaukee,Milwaukee
﻿mil.wi.0103,﻿church,﻿St. Fidelis',English,,,,﻿Sheboygan County,﻿Sheboygan County,﻿Herman,﻿Herman,﻿WI,,43.866723,-87.874615,,﻿Attended by Rev. A. Zuber,,﻿a_zuber_001,﻿Rev.,﻿A. Zuber,,,,,,,,1867,﻿,﻿,﻿Milwaukee,Milwaukee
﻿mil.wi.0104,﻿church,﻿St. Philip's,English,,,,﻿Iowa County,﻿Iowa County,﻿Highland,﻿Highland,﻿WI,,43.046303,-90.382599,,,,﻿m_dolan_001,﻿Rev.,﻿M. Dolan,,,,,,,,1867,﻿,﻿,﻿Milwaukee,Milwaukee
﻿mil.wi.0105,﻿church,﻿St. John Nepomucene's,English,,,,﻿Iowa County,﻿Iowa County,﻿Highland,﻿Highland,﻿WI,,43.056902,-90.498795,,,,﻿f_x_weinhart_001,﻿Rev.,﻿F. X. Weinhart,,,,,,,,1867,﻿,﻿,﻿Milwaukee,Milwaukee
﻿mil.wi.0346,﻿church,﻿St. Francis Xavier's,English,,,,﻿Brown County,,﻿Holland,,﻿WI,,44.13421,-88.29064,,,,﻿bon_de-goy_001,﻿Rev.,﻿Bonavent. De Goy,﻿O.M.C.,,,,,,,1867,﻿,﻿,﻿Milwaukee,Milwaukee
﻿mil.wi.0347,﻿church,﻿St. Patrick's,English,,,,﻿Brown County,,﻿Holland,,﻿WI,,44.270133,-88.090786,,,,﻿bon_de-goy_001,﻿Rev.,﻿Bonavent. De Goy,﻿O.M.C.,,,,,,,1867,﻿,﻿,﻿Milwaukee,Milwaukee
﻿mil.wi.0106,﻿church,﻿St. Malachy's,English,,,,﻿Dodge County,﻿Dodge County,﻿Horicon,﻿Horicon,﻿WI,,43.444012,-88.633196,,﻿Attended from Beaver Dam,,,,,,,,,,,,1867,﻿,﻿,﻿Milwaukee,Milwaukee
﻿mil.wi.0107,﻿church,﻿St. Anne's,English,,,,﻿Calumet County,﻿Calumet County,﻿Holstein,﻿New Holstein,﻿WI,,43.896117,-88.123037,,﻿Attended from Calvary,,,,,,,,,,,,1867,﻿,﻿,﻿Milwaukee,Milwaukee
﻿lac.wi.0098,﻿church,﻿St. Mary's of Loretto,English,,,,﻿Sauk County,,﻿Honey Creek,,﻿WI,,43.350551,-89.90521,,﻿Attended from Sauk City,,,,,,,,,,,,1867,﻿,﻿,﻿Milwaukee,Milwaukee
﻿mil.wi.0348,﻿church,﻿St. James',English,,,,﻿Outagamie County,,﻿Hortonville,,﻿WI,,44.335278,-88.638889,,﻿Attended by Rev. Chr. Verweyst,,﻿chr_verweyst_002,﻿Rev.,﻿Chr. Verweyst,,,,,,,,1867,﻿,﻿,﻿Milwaukee,Milwaukee
﻿mil.wi.0349,﻿church,﻿St. Hubert's,English,,,,﻿Brown County,,﻿Humboldt,,﻿WI,,44.500039,-87.822095,,﻿Attended by Rev. E. Daems,,﻿edw_daems_001,﻿Rev.,﻿E. Daems,,,,,,,,1867,﻿,﻿,﻿Milwaukee,Milwaukee
﻿lac.wi.0013,﻿church,﻿St. James',English,,,,﻿St. Croix County,﻿St. Croix County,﻿Hudson,﻿Hudson,﻿WI,,44.97469,-92.75687,,,,﻿s_seif_001,﻿Rev.,﻿S. Seif,,,,,,,,1867,﻿,﻿,﻿Milwaukee,Milwaukee
﻿mil.wi.0108,﻿church,﻿St. Kilian's,English,,,,﻿Walworth County,,﻿Hudson,,﻿WI,,42.588688,-88.359873,,﻿Attended by Rev. W. Bonnenkamp,,﻿w_bonenkamp_001,﻿Rev.,﻿W. Bonnenkamp,,,,,,,,1867,﻿,﻿,﻿Milwaukee,Milwaukee
﻿mil.wi.0109,﻿church,﻿St. Augustine's,English,,,,﻿Ozaukee County,﻿Washington County,﻿Jackson,﻿Jackson,﻿WI,,43.384316,-88.041167,,﻿Attended by Rev. C. Rehrl,,﻿c_rehrl_001,﻿Rev.,﻿C. Rehrl,,,,,,,,1867,﻿,﻿,﻿Milwaukee,Milwaukee
﻿mil.wi.0110,﻿church,"﻿St. Mary's, Immaculate Conception",English,,,,﻿Ozaukee County,﻿Washington County,﻿Jackson,﻿Jackson,﻿WI,,43.38195,-87.618638,,﻿Attended by Rev. J. R. Herman,,﻿j_r_herman_001,﻿Rev.,﻿J. R. Herman,,,,,,,,1867,﻿,﻿,﻿Milwaukee,Milwaukee
﻿mil.wi.0111,﻿church,﻿St. Patrick's,English,,,,﻿Rock County,﻿Rock County,﻿Janesville,﻿Janesville,﻿WI,,42.676364,-89.025287,,,,﻿jam_doyle_001,﻿Rev.,﻿James Doyle,,,,,,,,1867,﻿,﻿,﻿Milwaukee,Milwaukee
﻿mil.wi.0112,﻿church,﻿St. John Baptist's,English,,,,﻿Jefferson County,﻿Jefferson County,﻿Jefferson,﻿Jefferson,﻿WI,,43.006946,-88.80221,,,,﻿j_jansen_001,﻿Rev.,﻿J. Jansen,,,,,,,,1867,﻿,﻿,﻿Milwaukee,Milwaukee
﻿mil.wi.0113,﻿church,﻿St. Lawrence's,English,,,,﻿Jefferson County,﻿Jefferson County,﻿Jefferson,﻿Jefferson,﻿WI,,43.004965,-88.779191,,,,﻿f_x_obermueller_001,﻿Rev.,﻿F. X. Obermueller,,,,,,,,1867,﻿,﻿,﻿Milwaukee,Milwaukee
﻿lac.wi.0014,﻿church,﻿Nativity B.V.M.,English,,,,﻿Monroe County,﻿Monroe County,﻿Jefferson,﻿Jefferson,﻿WI,,43.798096,-90.686868,,,,﻿f_l_junker_001,﻿Rev.,﻿F. L. Junker,,,,,,,,1867,﻿,﻿,﻿Milwaukee,Milwaukee
﻿lac.wi.0099,﻿church,﻿St. Fridolin's,English,,,,﻿Sauk County,,﻿Ironton,,﻿WI,,43.521389,-90.146944,,﻿Attended by Rev. N. Stehle,,﻿n_stehle_001,﻿N.,﻿Stehle,,,,,,,,1867,﻿,﻿,﻿Milwaukee,Milwaukee
﻿lac.wi.0015,﻿church,﻿Nativity B.V.M.,English,,,,﻿Richland County,﻿Richland County,﻿Ithaca,﻿Ithaca,﻿WI,,43.340818,-90.281792,,,,﻿j_beau_001,﻿Rev.,﻿J. Beau,,,,,,,,1867,﻿,﻿,﻿Milwaukee,Milwaukee
﻿mil.wi.0114,﻿church,﻿St. Mark's,English,,,,﻿Kenosha County,﻿Kenosha County,﻿Kenosha,﻿Kenosha,﻿WI,,42.568136,-87.824919,,,,﻿g_riordan_001,﻿Rev.,﻿G. Riordan,,,,,,,,1867,﻿,﻿,﻿Milwaukee,Milwaukee
﻿mil.wi.0115,﻿church,﻿St. George's,﻿German,,,,﻿Kenosha County,﻿Kenosha County,﻿Kenosha,﻿Kenosha,﻿WI,,42.581123,-87.872016,,,,﻿w_reiter_001,﻿Rev.,﻿W. Reiter,,,,,,,,1867,﻿,﻿,﻿Milwaukee,Milwaukee
﻿mil.wi.0116,﻿church,﻿St. Pius',English,,,,﻿La Fayette County,﻿Lafayette County,﻿Kendaltown,﻿Kendall,﻿WI,,42.765975,-90.243231,,﻿Attended by Rev. E. McGinnity,,﻿e_m_mcginnity_001,﻿Rev.,﻿E. McGinnity,,,,,,,,1867,﻿,﻿,﻿Milwaukee,Milwaukee
﻿gre.wi.0014,﻿mission,﻿St. Michael's,English,﻿Mission of the Menomonee Tribe,,,﻿Shawano County,﻿Menominee County,﻿Keshena,﻿Keshena,﻿WI,,45.030475,-88.74777,,,,﻿caj_krauthahn_002,﻿Rev.,﻿Cajetan Krauthahn,﻿O.M.C.,,,,,,,1867,﻿,﻿,﻿Milwaukee,Milwaukee
﻿mil.wi.0117,﻿church,﻿St. Bridget's,English,,,,﻿Washington County,﻿Washington County,﻿Kewaskee,﻿Kewaskum,﻿WI,,43.78444,-88.787868,,,,﻿m_wenker_001,﻿Rev.,﻿M. Wenker,,,,,,,,1867,﻿,﻿,﻿Milwaukee,Milwaukee
﻿mil.wi.0118,﻿church,﻿St. Michael's,English,,,,﻿Washington County,﻿Washington County,﻿Kewaskum,﻿Kewaskum,﻿WI,,43.52083,-88.228985,,﻿Attended by Rev. C. Rehrl,,﻿c_rehrl_001,﻿Rev.,﻿C. Rehrl,,,,,,,,1867,﻿,﻿,﻿Milwaukee,Milwaukee
﻿mil.wi.0119,﻿church,﻿Holy Trinity,English,,,,﻿Washington County,﻿Washington County,﻿Kewaskum,﻿Kewaskum,﻿WI,,43.52083,-88.228985,,﻿Attended by Rev. J. Reindl,,﻿j_reindl_001,﻿Rev.,﻿J. Reindl,,,,,,,,1867,﻿,﻿,﻿Milwaukee,Milwaukee
﻿gre.wi.0015,﻿church,﻿Holy Rosary,English,,,,﻿Kewaunee County,﻿Kewaunee County,﻿Kewaunee,﻿Kewaunee,﻿WI,,44.457712,-87.50662,,,,﻿e_van-steenwyck_001,﻿Rev.,﻿E. Van Steenwyck,,,,,,,,1867,﻿,﻿,﻿Milwaukee,Milwaukee
﻿mil.wi.0350,﻿church,﻿St. Cecilia's,English,,,,﻿Columbia County,,﻿Kilburn City,,﻿WI,,43.625294,-89.773783,,﻿Attended by Rev. P. Montague,,﻿p_montague_002,﻿Rev.,﻿P. Montague,,,,,,,,1867,﻿,﻿,﻿Milwaukee,Milwaukee
﻿lac.wi.0100,﻿church,﻿St. Bridget's,English,,,,﻿Juneau County,,﻿Kildare,,﻿WI,,43.735833,-89.888056,,,,﻿p_montague_002,﻿Rev.,﻿P. Montague,,,,,,,,1867,﻿,﻿,﻿Milwaukee,Milwaukee
﻿gre.wi.0016,﻿church,﻿St. Anne's,English,,,,﻿Manitowoc County,﻿Manitowoc County,﻿Kossuth,﻿Kossuth,﻿WI,,44.206988,-87.756651,,,,﻿l_schaffer_001,﻿Rev.,﻿L. Schaffer,,,,,,,,1867,﻿,﻿,﻿Milwaukee,Milwaukee
﻿mil.wi.0120,﻿church,﻿St. James',English,,,,﻿Milwaukee County,﻿Milwaukee County,﻿Lake Town,﻿Lake,﻿WI,,43.04848,-88.000907,,﻿Attended from New-Koeln,,,,,,,,,,,,1867,﻿,﻿,﻿Milwaukee,Milwaukee
﻿mil.wi.0121,﻿church,﻿St. Mary's ad Fontem,English,,,,﻿Marquette County,,﻿La Cote St. Marie,,﻿WI,,43.876085,-89.110883,,﻿Attended by Rev. E. Gray,,﻿e_gray_001,﻿Rev.,﻿E. Gray,,,,,,,,1867,﻿,﻿,﻿Milwaukee,Milwaukee
﻿lac.wi.0001,﻿church,﻿St. Mary's,English,,,,﻿La Crosse County,,﻿La Crosse,﻿La Crosse,﻿WI,,43.813775,-91.251902,,,,﻿m_m_marco_001,﻿Rev.,﻿M. M. Marco,,,,,,,,1867,﻿,﻿,﻿Milwaukee,Milwaukee
﻿mil.wi.0122,﻿church,﻿St. Columban's,English,,,,﻿Waukesha County,﻿Waukesha County,﻿Lake Five,﻿Lake Five,﻿WI,,43.192506,-88.270927,,﻿Attended by Rev. F. Tiernan,,﻿f_tiernan_001,﻿Rev.,﻿F. Tiernan,,,,,,,,1867,﻿,﻿,﻿Milwaukee,Milwaukee
﻿mil.wi.0123,﻿church,﻿St. Clement's,English,,,,﻿Grant County,﻿Grant County,﻿Lancaster,﻿Lancaster,﻿WI,,42.847491,-90.710682,,﻿Attended by Rev. H. J. Albers,,﻿h_j_albers_001,﻿Rev.,﻿H. J. Albers,,,,,,,,1867,﻿,﻿,﻿Milwaukee,Milwaukee
﻿lac.wi.0101,﻿church,﻿St. Joseph's,English,,,,﻿La Pointe County,,﻿La Pointe,,﻿WI,,46.782288,-90.787505,,﻿Attended from Bayfield,,,,,,,,,,,,1867,﻿,﻿,﻿Milwaukee,Milwaukee
﻿mil.wi.0351,﻿church,﻿St. Finbar's,English,,,,﻿Waupana County,﻿Waupaca County,﻿Lebanon,,﻿WI,,43.255278,-88.626667,,﻿Attended by Rev. Christ. Verweyst,,﻿chr_verweyst_002,﻿Rev.,﻿Christ. Verweyst,,,,,,,,1867,﻿,﻿,﻿Milwaukee,Milwaukee
﻿lac.wi.0102,﻿church,﻿St. James',English,,,,﻿Bad Axe County,,﻿Liberty Pole,,﻿WI,,43.49,-90.908511,,﻿Attended by Rev. P. Murphy,,﻿p_murphy_004,﻿Rev.,﻿P. Murphy,,,,,,,,1867,﻿,﻿,﻿Milwaukee,Milwaukee
﻿mil.wi.0124,﻿church,﻿St. Rosa's,English,,,,﻿Sheboygan County,﻿Sheboygan County,﻿Lima,﻿Lima,﻿WI,,43.675386,-87.874615,,﻿Visited from Sheboygan,,,,,,,,,,,,1867,﻿,﻿,﻿Milwaukee,Milwaukee
﻿mil.wi.0125,﻿church,﻿St. John Baptist's,English,,,,﻿Fond du Lac County,﻿Fond du Lac County,﻿Lamartine,﻿Lamartine,﻿WI,,43.733321,-88.568719,,﻿Attended from Fond du Lac City,,,,,,,,,,,,1867,﻿,﻿,﻿Milwaukee,Milwaukee
﻿mil.wi.0352,﻿church,﻿St. Peter's,English,,,,﻿Door County,,﻿Lincoln Town,,﻿WI,,44.618056,-87.641944,,﻿Attended by Rev. Ph. Crud,,﻿phi_crud_002,﻿Rev.,﻿Ph. Crud,,,,,,,,1867,﻿,﻿,﻿Milwaukee,Milwaukee
﻿lac.wi.0103,﻿church,﻿St. Michael's,English,,,,﻿Juneau County,,﻿Lindina,,﻿WI,,43.784444,-90.134722,,﻿Attended from Lisbon,,,,,,,,,,,,1867,﻿,﻿,﻿Milwaukee,Milwaukee
﻿lac.wi.0016,﻿church,﻿St. Mary's,English,,,,﻿Juneau County,﻿Juneau County,﻿Lindon,﻿Lyndon,﻿WI,,43.66625,-89.878576,,﻿Visited by Rev. P. Montague,,﻿p_montague_002,﻿Rev.,﻿P. Montague,,,,,,,,1867,﻿,﻿,﻿Milwaukee,Milwaukee
﻿lac.wi.0104,﻿church,﻿St. Paul's,English,,,,﻿Juneau County,﻿Juneau County,﻿Lisbon,﻿New Lisbon,﻿WI,,43.888857,-90.152863,,,,﻿joh_casey_001,﻿Rev.,﻿John Casey,,,,,,,,1867,﻿,﻿,﻿Milwaukee,Milwaukee
﻿gre.wi.0017,﻿church,﻿St. John Nepomucene's,English,,,,﻿Outagamie County,﻿Outagamie County,﻿Little Chute,﻿Little Chute,﻿WI,,44.278276,-88.314417,,,,﻿a_j_verberk_001,﻿Rev.,﻿A. J. Verberk,,,,,,,,1867,﻿,﻿,﻿Milwaukee,Milwaukee
﻿mil.wi.0126,﻿church,﻿St. Andrew's,English,,,,﻿Dodge County,﻿Dodge County,﻿Loomara,﻿Lomira,﻿WI,,43.573118,-88.550108,,﻿Attended by Rev. E. Henzler,,﻿e_henzler_001,﻿Rev.,﻿E. Henzler,,,,,,,,1867,﻿,﻿,﻿Milwaukee,Milwaukee
﻿mil.wi.0128,﻿church,﻿St. Raphael's,English,,,,﻿Dane County,﻿Dane County,﻿Madison,﻿Madison,﻿WI,,43.072394,-89.386004,,,,﻿jos_smith_001,﻿Rev.,﻿Jos. Smith,,,,,,,,1867,﻿,﻿,﻿Milwaukee,Milwaukee
﻿mil.wi.0129,﻿church,﻿Holy Redeemer's Church,﻿German,,,,﻿Dane County,﻿Dane County,﻿Madison,﻿Madison,﻿WI,,43.075608,-89.389217,,,,﻿m_obermueller_001,﻿Rev.,﻿M. Obermueller,,,,,,,,1867,﻿,﻿,﻿Milwaukee,Milwaukee
﻿mil.wi.0353,﻿church,﻿St. Charles Borromeo's,English,,,,﻿Winnebago County,,﻿Manasha,,﻿WI,,44.216667,-88.433333,,,,﻿w_wilkins_001,﻿Rev.,﻿W. Wilkins,,,,,,,,1867,﻿,﻿,﻿Milwaukee,Milwaukee
﻿mil.wi.0130,﻿church,﻿St. Boniface's,English,,,,﻿Manitowoc County,﻿Manitowoc County,﻿Manitowoc,﻿Manitowoc,﻿WI,,44.088606,-87.657584,,,,﻿j_stehle_001,﻿Rev.,﻿James Stehle,,,,,,,,1867,﻿,﻿,﻿Milwaukee,Milwaukee
﻿mil.wi.0354,﻿church,﻿Holy Maternity,English,,,,﻿Manitowoc County,,﻿Manitowoc Rapids,,﻿WI,,44.099167,-87.700833,,﻿Attended by Rev. James Stehle,,﻿j_stehle_001,﻿Rev.,﻿James Stehle,,,,,,,,1867,﻿,﻿,﻿Milwaukee,Milwaukee
﻿gre.wi.0020,﻿church,﻿St. Patrick's,English,﻿vacant,,,﻿Manitowoc County,﻿Manitowoc County,﻿Maple Grove,﻿Maple Grove,﻿WI,,44.188884,-87.923628,,,,,,,,,,,,,,1867,﻿,﻿,﻿Milwaukee,Milwaukee
﻿mil.wi.0131,﻿church,﻿St. Catharine's,English,,,,﻿Waukesha County,﻿Waukesha County,﻿Mapleton,﻿Oconomowoc,﻿WI,,43.17481,-88.458349,,,,﻿w_vahey_001,﻿Rev.,﻿W. Vahey,,,,,,,,1867,﻿,﻿,﻿Milwaukee,Milwaukee
﻿lac.wi.0017,﻿church,﻿St. Mary's Nativity,English,﻿vacant,,,﻿Marathon County,﻿Marathon County,﻿Marathon,﻿Marathon,﻿WI,,44.930472,-89.84021,,,,,,,,,,,,,,1867,﻿,﻿,﻿Milwaukee,Milwaukee
﻿mil.wi.0132,﻿church,﻿Holy Cross,English,﻿Convent of the Capuchin Fathers of Calvary,,,﻿Fond du Lac County,﻿Fond du Lac County,﻿Marshfield,﻿Marshfield,﻿WI,,43.8721,-88.187668,,,,,,,,,,,,,,1867,﻿,﻿,﻿Milwaukee,Milwaukee
﻿mil.wi.0133,﻿church,﻿St. Joseph's,English,,,,﻿Fond du Lac County,﻿Fond du Lac County,﻿Marshfield,﻿Marshfield,﻿WI,,43.855266,-88.190077,,﻿Attended from Calvary,,,,,,,,,,,,1867,﻿,﻿,﻿Milwaukee,Milwaukee
﻿mil.wi.0134,﻿church,﻿Visitation B.V.M.,English,,,,﻿Calumet County,﻿Fond du Lac County,﻿Marytown,﻿Marytown,﻿WI,,43.910993,-88.203431,,,,﻿daniel_001,﻿Rev. Father,﻿Daniel,﻿O.M.C.,,,,,,,1867,﻿,﻿,﻿Milwaukee,Milwaukee
﻿mil.wi.0135,﻿church,﻿St. Mary's,English,,,,﻿Dodge County,﻿Dodge County,﻿Mayville,﻿Mayville,﻿WI,,43.492936,-88.540727,,,,﻿e_henzler_001,﻿Rev.,﻿E. Henzler,,,,,,,,1867,﻿,﻿,﻿Milwaukee,Milwaukee
﻿mil.wi.0136,﻿church,﻿St. Isidore's,English,,,,﻿Manitowoc County,﻿Manitowoc County,﻿Meeme,﻿Meeme,﻿WI,,43.920549,-87.831478,,,,﻿tho_mcdonnell_001,﻿Rev.,﻿Th. McDonnell,,,,,,,,1867,﻿,﻿,﻿Milwaukee,Milwaukee
﻿lac.wi.0105,﻿church,﻿St. Francis Assisium,English,,,,﻿Dunn County,,﻿Menomonee,,﻿WI,,44.879167,-91.917056,,﻿Attended by Rev. J. B. Smeddink,,﻿j_b_smeddink_001,﻿Rev.,﻿J. B. Smeddink,,,,,,,,1867,﻿,﻿,﻿Milwaukee,Milwaukee
﻿mil.wi.0137,﻿church,﻿St. Mary's Immaculate Conception,English,,,,﻿Grant County,﻿Grant County,﻿Menomonee,﻿Hazel Green,﻿WI,,42.511189,-90.63192,,﻿Attended by Rev. Charles Exel,,﻿cha_exel_001,﻿Rev.,﻿Charles Exel,,,,,,,,1867,﻿,﻿,﻿Milwaukee,Milwaukee
﻿mil.wi.0138,﻿church,﻿St. James',English,,﻿P. O. Pussville,,﻿Waukesha County,﻿Waukesha County,﻿Menomonee,﻿Menomonee Falls,﻿WI,,43.136322,-88.18306,,,,﻿d_t_kirwan_001,﻿Rev.,﻿D. P. Kirwin,,,,,,,,1867,﻿,﻿,﻿Milwaukee,Milwaukee
﻿mil.wi.0443,﻿church,﻿St. Anthony's,English,,,,﻿Waukesha County,﻿Waukesha County,﻿Menomonee,﻿Menomonee Falls,﻿WI,,43.152473,-88.079399,,,,﻿l_m_mueller_001,﻿Rev.,﻿L. M. Mueller,,,,,,,,1867,﻿,﻿,﻿Milwaukee,Milwaukee
﻿mil.wi.0139,﻿church,﻿St. James',English,,,,﻿Ozaukee County,﻿Washington County,﻿Mequon,﻿Mequon,﻿WI,,43.38195,-87.618638,,﻿Attended by Rev. L. M. Mueller,,﻿l_m_mueller_001,﻿Rev.,﻿L. M. Mueller,,,,,,,,1867,﻿,﻿,﻿Milwaukee,Milwaukee
﻿mil.wi.0140,﻿church,﻿St. John Baptist's,English,,,,﻿Grant County,﻿Iowa County,﻿Mifflin,﻿Miffin,﻿WI,,42.871105,-90.354015,,﻿Attended by Rev. L. Kenny,,﻿l_kenny_001,﻿Rev.,﻿L. Kenny,,,,,,,,1867,﻿,﻿,﻿Milwaukee,Milwaukee
﻿mil.wi.0141,﻿church,﻿St. Malachy's,English,,,,﻿Jefferson County,﻿Jefferson County,﻿Milford,﻿Milford,﻿WI,,43.188369,-88.733814,,﻿Attended by Rev. H. Roche,,﻿h_roche_001,﻿Rev.,﻿H. Roche,,,,,,,,1867,﻿,﻿,﻿Milwaukee,Milwaukee
﻿mil.wi.0142,﻿church,﻿St. Paul's,English,,,,﻿Iowa County,﻿Iowa County,﻿Mineral Point,﻿Mineral Point,﻿WI,,42.857093,-90.188688,,,,﻿f_mcgann_001,﻿Rev.,﻿F. McGann,,,,,,,,1867,﻿,﻿,﻿Milwaukee,Milwaukee
﻿mil.wi.0355,﻿church,﻿Invention of the Holy Cross,English,,,,﻿Manitowoc County,,﻿Mishicot,,﻿WI,,44.233215,-87.6395,,"﻿Attended by Rev. M Hens, O.M.C.",,﻿m_h_omc_001,﻿Rev.,"﻿M. Hens, O.M.C.",,,,,,,,1867,﻿,﻿,﻿Milwaukee,Milwaukee
﻿mil.wi.0356,﻿church,﻿St. Mary's,﻿Bohemian,,,,﻿Manitowoc County,,﻿Mishicot,,﻿WI,,44.238056,-87.641111,,﻿Attended by Rev. J. Lang,,﻿j_lang_001,﻿Rev.,﻿J. Lang,,,,,,,,1867,﻿,﻿,﻿Milwaukee,Milwaukee
﻿mil.wi.0444,﻿church,﻿St. Francis Regis,English,,,,﻿Sheboygan County,﻿Sheboygan County,﻿Mitchell,﻿Mitchell,﻿WI,,43.670556,-88.105,,﻿Attended from Cascade,,,,,,,,,,,,1867,﻿,﻿,﻿Milwaukee,Milwaukee
﻿mil.wi.0144,﻿church,﻿St. John's,English,,,,﻿Waukesha County,﻿Waukesha County,﻿Monches,﻿Merton,﻿WI,,43.140603,-88.308192,,,,﻿f_tiernan_001,﻿Rev.,﻿F. Tiernan,,,,,,,,1867,﻿,﻿,﻿Milwaukee,Milwaukee
﻿mil.wi.0145,﻿church,﻿St. Victor's,English,,,,﻿Green County,﻿Green County,﻿Monroe,﻿Monroe,﻿WI,,42.598221,-89.635254,,,,﻿wil_oconnell_001,﻿Rev.,﻿W. O'Connell,,,,,,,,1867,﻿,﻿,﻿Milwaukee,Milwaukee
﻿mil.wi.0357,﻿church,﻿Gethsemane Church,English,,,,﻿Marquette County,,﻿Montello,,﻿WI,,43.794961,-89.318268,,,,﻿a_fagan_001,﻿Rev.,﻿A. Fagan,,,,,,,,1867,﻿,﻿,﻿Milwaukee,Milwaukee
﻿mil.wi.0358,﻿church,﻿St. Bridget's,English,,,,﻿Brown County,,﻿Morristown,,﻿WI,,44.299167,-87.988889,,﻿Attended by Rev. W. A. Verboort,,﻿w_a_verboort_002,﻿Rev.,﻿W. A. Verboort,,,,,,,,1867,﻿,﻿,﻿Milwaukee,Milwaukee
﻿mil.wi.0147,﻿church,﻿St. Lawrence O'Toole's,English,,,,﻿Grant County,﻿Grant County,﻿Mount Hope,﻿Mount Hope,﻿WI,,43.006918,-90.816792,,﻿Attended by Rev. L. Kenny,,﻿l_kenny_001,﻿Rev.,﻿L. Kenny,,,,,,,,1867,﻿,﻿,﻿Milwaukee,Milwaukee
﻿mil.wi.0359,﻿church,﻿St. Patrick's,English,,,,﻿Juneau County,,﻿Mouston,,﻿WI,,43.796549,-90.072629,,,,﻿joh_casey_001,﻿Rev.,﻿John Casey,,,,,,,,1867,﻿,﻿,﻿Milwaukee,Milwaukee
﻿mil.wi.0148,﻿church,﻿St. Barnabas',English,,,,﻿Dane County,﻿Dane County,﻿Mozzomanie,﻿Mazomanie,﻿WI,,43.172687,-89.791703,,,,﻿l_kenny_001,﻿Rev.,﻿L. Kenny,,,,,,,,1867,﻿,﻿,﻿Milwaukee,Milwaukee
﻿mil.wi.0149,﻿church,﻿St. Bartholomew's,English,,,,﻿Grant County,﻿Grant County,﻿Muscoda,﻿Muscoda,﻿WI,,43.184987,-90.443181,,﻿Attended by Rev. F. Weinhart,,﻿f_x_weinhart_001,﻿Rev.,﻿F. Weinhart,,,,,,,,1867,﻿,﻿,﻿Milwaukee,Milwaukee
﻿mil.wi.0150,﻿church,﻿St. Matthew's,English,,,,﻿Dodge County,﻿Dodge County,﻿Neosha,﻿Neosho,﻿WI,,43.313008,-88.51959,,﻿Attended by Rev. P. Schwaiger,,﻿p_schwaiger_001,﻿Rev.,﻿P. Schwaiger,,,,,,,,1867,﻿,﻿,﻿Milwaukee,Milwaukee
﻿mil.wi.0151,﻿church,﻿St. Valerius',English,,,,﻿Waukesha County,﻿Waukesha County,﻿New-Berlin,﻿New Berlin,﻿WI,,42.976455,-88.10839,,﻿Attended from Franklin,,,,,,,,,,,,1867,﻿,﻿,﻿Milwaukee,Milwaukee
﻿mil.wi.0360,﻿church,﻿St. Mary's ad Nives,English,,,,﻿Door County,,﻿New-Brussels,,﻿WI,,44.736111,-87.620833,,﻿Attended by Rev. Ph. Crud,,﻿phi_crud_002,﻿Rev.,﻿Ph. Crud,,,,,,,,1867,﻿,﻿,﻿Milwaukee,Milwaukee
﻿mil.wi.0152,﻿church,﻿Holy Trinity,English,,,,﻿Washington County,﻿Washington County,﻿Newburgh,﻿Newburg,﻿WI,,43.431667,-88.046481,,,,﻿c_rehrl_001,﻿Rev.,﻿C. Rehrl,,,,,,,,1867,﻿,﻿,﻿Milwaukee,Milwaukee
﻿mil.wi.0153,﻿church,﻿St. Matthew's,English,,,,﻿Fond du Lac County,﻿Fond du Lac County,﻿New-Castle,﻿Campbellsport,﻿WI,,43.598841,-88.275532,,﻿Attended from Ashford,,,,,,,,,,,,1867,﻿,﻿,﻿Milwaukee,Milwaukee
﻿mil.wi.0154,﻿church,﻿St. Augustine's,English,,,,﻿Lafayette County,﻿Lafayette County,﻿New-Diggings,﻿New Diggings,﻿WI,,42.534075,-90.334564,,"﻿Attended by Rev. L. Fortune, O.P.",,﻿l_f_op_001,﻿Rev.,"﻿L. Fortune, O.P.",,,,,,,,1867,﻿,﻿,﻿Milwaukee,Milwaukee
﻿gre.wi.0022,﻿church,﻿St. Kilian's,English,﻿vacant,,,﻿Brown County,﻿Brown County,﻿New-Franken,﻿New Franken,﻿WI,,44.53103,-87.825846,,,,,,,,,,,,,,1867,﻿,﻿,﻿Milwaukee,Milwaukee
﻿mil.wi.0155,﻿church,﻿St. Stephens's,English,,,,﻿Milwaukee County,﻿Milwaukee County,﻿New-Koeln,﻿Milwaukee,﻿WI,,43.019554,-87.916512,,,,﻿m_minderer_001,﻿Rev.,﻿M. Minderer,,,,,,,,1867,﻿,﻿,﻿Milwaukee,Milwaukee
﻿mil.wi.0361,﻿church,﻿St. Francis',English,,,,﻿Waupaca County,,﻿New-London,,﻿WI,,44.387222,-88.740278,,,,﻿chr_verweyst_002,﻿Rev.,﻿Christ. Verweyst,,,,,,,,1867,﻿,﻿,﻿Milwaukee,Milwaukee
﻿mil.wi.0157,﻿church,﻿St. Peter's,English,,,,﻿Manitowoc County,﻿Manitowoc County,﻿Newtown,﻿Newtown,﻿WI,,43.993743,-87.726333,,﻿Attended from Manitowoc,,,,,,,,,,,,1867,﻿,﻿,﻿Milwaukee,Milwaukee
﻿mil.wi.0362,﻿church,﻿St. Francis of Sales,English,,,,﻿Milwaukee County,,﻿Nojoshing,,﻿WI,,42.969722,-87.876667,,,,﻿mic_heiss_001,﻿Very Rev.,﻿M. Heiss,,﻿Rector of the Salesianum,,,,,,1867,﻿,﻿,﻿Milwaukee,Milwaukee
﻿mil.wi.0158,﻿church,﻿St. Matthew's,English,,,,﻿Milwaukee County,﻿Milwaukee County,﻿Oak Creek,﻿Oak Creek,﻿WI,,42.874655,-87.86136,,﻿Attended by Rev. J. S. Munich,,﻿j_s_munich_001,﻿Rev.,﻿J. S. Munich,,,,,,,,1867,﻿,﻿,﻿Milwaukee,Milwaukee
﻿lac.wi.0106,﻿church,﻿Nativity B.V.M.,English,,,,﻿Pierce County,,﻿Oak Grove,,﻿WI,,43.400864,-88.68665,,﻿Attended by Rev. S. Seif,,﻿s_seif_001,﻿Rev.,﻿S. Seif,,,,,,,,1867,﻿,﻿,﻿Milwaukee,Milwaukee
﻿mil.wi.0159,﻿church,﻿St. Jerome's,English,,,,﻿Waukesha County,﻿Waukesha County,﻿Ocenomowoc,﻿Oconomowoc,﻿WI,,43.097305,-88.493677,,﻿Visited by Rev. W. Vahey,,﻿w_vahey_001,﻿Rev.,﻿W. Vahey,,,,,,,,1867,﻿,﻿,﻿Milwaukee,Milwaukee
﻿gre.wi.0024,﻿church,﻿St. Peter's,English,,,,﻿Oconto County,﻿Oconto County,﻿Oconto,﻿Oconto,﻿WI,,44.887571,-87.883319,,,,﻿e_spierings_001,﻿Rev.,﻿E. Spierings,,,,,,,,1867,﻿,﻿,﻿Milwaukee,Milwaukee
﻿mil.wi.0160,﻿church,﻿St. Matthew's,English,,,,﻿Fond du Lac County,﻿Fond du Lac County,﻿Osceola,﻿Osceola,﻿WI,,43.681371,-88.226643,,﻿Attended by Rev. Thomas Smyth,,﻿tho_smyth_001,﻿Rev.,﻿Thomas Smyth,,,,,,,,1867,﻿,﻿,﻿Milwaukee,Milwaukee
﻿gre.wi.0025,﻿church,﻿St. Peter's,English,,,,﻿Winnebago County,﻿Winnebago County,﻿Oshkosh,﻿Oshkosh,﻿WI,,44.019711,-88.544474,,,,﻿tho_keenan_001,﻿Rev.,﻿Thos. Keenan,,,,,,,,1867,﻿,﻿,﻿Milwaukee,Milwaukee
﻿gre.wi.0026,﻿church,﻿St. Mary's,﻿German,,,,﻿Winnebago County,﻿Winnebago County,﻿Oshkosh,﻿Oshkosh,﻿WI,,44.012364,-88.619724,,,,﻿a_leitner_001,,﻿A. Leitner,,,,,,,,1867,﻿,﻿,﻿Milwaukee,Milwaukee
﻿mil.wi.0163,﻿church,﻿St. Patrick's,English,,,,﻿Columbia County,﻿Columbia County,﻿Otsego,﻿Otsego,﻿WI,,43.40221,-89.166225,,﻿Attended by Rev. E. McQuirk,,﻿e_mcquirk_001,﻿Rev.,﻿E. McQuirk,,,,,,,,1867,﻿,﻿,﻿Milwaukee,Milwaukee
﻿mil.wi.0164,﻿church,﻿St. Bruno's,English,,,,﻿Waukesha County,﻿Waukesha County,﻿Ottawa,﻿Ottawa,﻿WI,,42.993896,-88.512589,,,,﻿f_spath_001,﻿Rev.,﻿S. Spath,,,,,,,,1867,﻿,﻿,﻿Milwaukee,Milwaukee
﻿mil.wi.0165,﻿church,﻿St. John Baptist's,English,,,,﻿Kenosha County,﻿Kenosha County,﻿Paris,﻿Paris,﻿WI,,42.63363,-88.051473,,﻿Attended by Rev. Mich. Heiss,,﻿mic_heiss_001,﻿Rev.,﻿Mich. Heiss,,,,,,,,1867,﻿,﻿,﻿Milwaukee,Milwaukee
﻿mil.wi.0166,﻿church,﻿St. John's,English,,,,﻿Grant County,﻿Grant County,﻿Patchgrove,﻿Patch Grove,﻿WI,,42.940289,-90.974463,,﻿Visited by Rev. H. L. Thiele,,﻿hen_l_thiele_001,﻿Rev.,﻿H. L. Thiele,,,,,,,,1867,﻿,﻿,﻿Milwaukee,Milwaukee
﻿mil.wi.0167,﻿church,﻿St. Salvador's,English,,,,﻿Dane County,﻿Dane County,﻿Perry,﻿Perry,﻿WI,,42.916955,-89.385547,,﻿Visited by Rev. P. J. Voissen,,﻿p_j_voissem_001,﻿Rev.,﻿P. J. Voissen,,,,,,,,1867,﻿,﻿,﻿Milwaukee,Milwaukee
﻿gre.wi.0067,﻿church,﻿Assumption B.V.M.,English,,,,﻿Oconto County,,﻿Peshtigo,,﻿WI,,45.052841,-87.758643,,,,﻿l_mazeaud_001,﻿Rev.,﻿L. Mazeaud,,,,,,,,1867,﻿,﻿,﻿Milwaukee,Milwaukee
﻿mil.wi.0168,﻿church,﻿SS. Peter and Paul's,English,,,,﻿Waukesha County,﻿Waukesha County,﻿Pewaukee,﻿Pewaukee,﻿WI,,43.065463,-88.205804,,﻿Attended by Rev. L. Mueller,,﻿l_m_mueller_001,﻿Rev.,﻿L. Mueller,,,,,,,,1867,﻿,﻿,﻿Milwaukee,Milwaukee
﻿mil.wi.0169,﻿church,﻿St. Bernard's,English,,,,﻿Dane County,﻿Dane County,﻿Piola,﻿Paoli,﻿WI,,42.929444,-89.523732,,﻿Attended by Rev. M. Obermueller,,﻿m_obermueller_001,﻿Rev.,﻿M. Obermueller,,,,,,,,1867,﻿,﻿,﻿Milwaukee,Milwaukee
﻿lac.wi.0107,﻿church,﻿St. Columba's,English,,,,﻿Jackson County,,﻿Pine Hill,,﻿WI,,,,,﻿Attended by Rev. J. Casey,,﻿joh_casey_001,﻿Rev.,﻿J. Casey,,,,,,,,1867,﻿,﻿,﻿Milwaukee,Milwaukee
﻿mil.wi.0170,﻿church,﻿St. Mary's,English,,,,﻿Grant County,﻿Grant County,﻿Platteville,﻿Platteville,﻿WI,,42.737178,-90.47859,,,,﻿m_j_joerger_001,﻿Rev.,﻿M. J. Joerger,,,,,,,,1867,﻿,﻿,﻿Milwaukee,Milwaukee
﻿mil.wi.0171,﻿church,﻿St. John's,English,,,,﻿Sheboygan County,﻿Sheboygan County,﻿Plymouth,﻿Plymouth,﻿WI,,43.749426,-87.977756,,﻿Visited by Rev. M. Haider,,﻿m_haider_001,﻿Rev.,﻿M. Haider,,,,,,,,1867,﻿,﻿,﻿Milwaukee,Milwaukee
﻿gre.wi.0027,﻿church,﻿St. Mary's Immaculate Conception,English,,,,﻿Columbia County,﻿Columbia County,﻿Portage City,﻿Portage,﻿WI,,43.538915,-89.464551,,,,﻿p_f_petit_001,﻿Rev.,﻿P. F. Pettit,,,,,,,,1867,﻿,﻿,﻿Milwaukee,Milwaukee
﻿mil.wi.0172,﻿church,﻿St. Mary's,English,,,,﻿Ozaukee County,﻿Ozaukee County,﻿Port Washington,﻿Port Washington,﻿WI,,43.391873,-87.868991,,,,﻿f_deberge_001,﻿Rev.,﻿F. Deberge,,,,,,,,1867,﻿,﻿,﻿Milwaukee,Milwaukee
﻿mil.wi.0173,﻿church,﻿St. Thomas',English,,,,﻿Grant County,﻿Grant County,﻿Potosi,﻿Potosi,﻿WI,,42.686562,-90.714447,,,,﻿h_j_albers_001,﻿Rev.,﻿H. J. Albers,,,,,,,,1867,﻿,﻿,﻿Milwaukee,Milwaukee
﻿mil.wi.0174,﻿church,﻿St. Andrew's,﻿German,﻿vacant,,,﻿Grant County,﻿Grant County,﻿Potosi,﻿Potosi,﻿WI,,42.689439,-90.712071,,,,,,,,,,,,,,1867,﻿,﻿,﻿Milwaukee,Milwaukee
﻿mil.wi.0175,﻿church,﻿St. Michael's,English,,,,﻿Rock County,,﻿Pottertown,,﻿WI,,42.817871,-89.180321,,,,﻿j_j_murphy_001,﻿Rev.,﻿J. J. Murphy,,,,,,,,1867,﻿,﻿,﻿Milwaukee,Milwaukee
﻿mil.wi.0364,﻿church,﻿St. Thomas',English,,,,﻿Winnebago County,,﻿Poygan,,﻿WI,,44.10084,-88.79507,,﻿Visited by Rev. Th. Keenan,,﻿tho_keenan_001,﻿Rev.,﻿Th. Keenan,,,,,,,,1867,﻿,﻿,﻿Milwaukee,Milwaukee
﻿mil.wi.0365,﻿church,﻿St. Joseph's,﻿Polish,,,,﻿Portage County,,﻿Prairie,,﻿WI,,,,,,,﻿bon_buezynski_001,﻿Rev.,﻿Bonavent. Buenzynski,,,,,,,,1867,﻿,﻿,﻿Milwaukee,Milwaukee
﻿mil.wi.0366,﻿church,﻿St. Martin's,English,,,,﻿Portage County,,﻿Prairie,,﻿WI,,,,,﻿Attended by Rev. M. Schwebach,,﻿m_schwebach_001,﻿Rev.,﻿M. Schwebach,,,,,,,,1867,﻿,﻿,﻿Milwaukee,Milwaukee
﻿lac.wi.0019,﻿church,﻿St. Gabriel's,English,,,,﻿Crawford County,﻿Crawford County,﻿Prairie du Chien,﻿Prairie du Chien,﻿WI,,43.058349,-91.146135,,,,﻿l_lux_001,﻿Rev.,﻿L. Lux,,,,,,,,1867,﻿,﻿,﻿Milwaukee,Milwaukee
﻿mil.wi.0367,﻿church,﻿Holy Martyrs of Gorcum,English,,,,﻿Brown County,,﻿Preble Town,,﻿WI,,44.48669,-87.90752,,"﻿Attended by Rev. E. Daems, O.S.C.",,﻿edw_daems_001,﻿Rev.,﻿E. Daems,﻿O.S.C.,,,,,,,1867,﻿,﻿,﻿Milwaukee,Milwaukee
﻿mil.wi.0176,﻿church,﻿St. Patrick's,English,,,,﻿Racine County,﻿Racine County,﻿Racine,﻿Racine,﻿WI,,42.734386,-87.787466,,,,﻿g_w_matthews_001,﻿Rev.,﻿G. W. Matthews,,,,,,,,1867,﻿,﻿,﻿Milwaukee,Milwaukee
﻿mil.wi.0177,﻿church,﻿St. Mary's,﻿German,,,,﻿Racine County,﻿Racine County,﻿Racine,﻿Racine,﻿WI,,42.724484,-87.78494,,,,﻿f_uhlemeyer_001,﻿Rev.,﻿F. Uhlemeier,,,,,,,,1867,﻿,﻿,﻿Milwaukee,Milwaukee
﻿mil.wi.0368,﻿church,﻿St. Odilia's,English,,,,﻿Door County,,﻿Red River,,﻿WI,,44.6325,-87.702222,,﻿Attended by Rev. Ph. Crud,,﻿phi_crud_002,﻿Rev.,﻿Ph. Crud,,,,,,,,1867,﻿,﻿,﻿Milwaukee,Milwaukee
﻿mil.wi.0178,﻿church,﻿St. Hubert's,English,,,,﻿Washington County,﻿Washington County,﻿Richfield,﻿Richfield,﻿WI,,43.232498,-88.215765,,﻿Attended by Rev. A. Faekler,,﻿a_faeckler_001,﻿Rev.,﻿A. Faekler,,,,,,,,1867,﻿,﻿,﻿Milwaukee,Milwaukee
﻿mil.wi.0179,﻿church,﻿Holy Maternity,English,,,,﻿Washington County,﻿Washington County,﻿Richfield,﻿Richfield,﻿WI,,43.25622,-88.194365,,﻿Attended by Rev. A. Faekler,,﻿a_faeckler_001,﻿Rev.,﻿A. Faekler,,,,,,,,1867,﻿,﻿,﻿Milwaukee,Milwaukee
﻿mil.wi.0180,﻿church,﻿St. Augustine's,English,,,,﻿Washington County,﻿Washington County,﻿Richfield,﻿Richfield,﻿WI,,43.219106,-88.226643,,﻿Attended by Rev. A. Faekler,,﻿a_faeckler_001,﻿Rev.,﻿A. Faekler,,,,,,,,1867,﻿,﻿,﻿Milwaukee,Milwaukee
﻿mil.wi.0181,﻿church,﻿St. Joseph's,English,,,,﻿Jefferson County,﻿Dodge County,﻿Richwood,﻿Richwood,﻿WI,,43.241389,-88.783056,,,,﻿h_roche_001,﻿Rev.,﻿H. Roche,,,,,,,,1867,﻿,﻿,﻿Milwaukee,Milwaukee
﻿lac.wi.0108,﻿church,﻿St. Finnbarr's,English,,,,﻿Monroe County,,﻿Ridgeville,,﻿WI,,43.840556,-90.587778,,﻿Attended by Rev. P. Casey,,﻿p_casey_001,﻿Rev.,﻿P. Casey,,,,,,,,1867,﻿,﻿,﻿Milwaukee,Milwaukee
﻿mil.wi.0182,﻿church,﻿St. Bridget's,English,,,,﻿Iowa County,﻿Iowa County,﻿Ridgeway,﻿Ridgeway,﻿WI,,42.997718,-89.995869,,﻿Attended by F. McGann,,﻿f_mcgann_001,﻿Rev.,﻿F. McGann,,,,,,,,1867,﻿,﻿,﻿Milwaukee,Milwaukee
﻿mil.wi.0183,﻿church,﻿St. Patrick's,English,,,,﻿Fond du Lac County,﻿Fond du Lac County,﻿Ripon,﻿Ripon,﻿WI,,43.784721,-88.446755,,,,﻿e_gray_001,﻿Rev.,﻿E. Gray,,,,,,,,1867,﻿,﻿,﻿Milwaukee,Milwaukee
﻿gre.wi.0029,﻿church,﻿St. Joseph's,English,,,,﻿Brown County,﻿Brown County,﻿Robinsonville,﻿Champion,﻿WI,,44.482213,-88.012871,,,,﻿phi_crud_002,﻿Rev.,﻿Ph. Crud,,,,,,,,1867,﻿,﻿,﻿Milwaukee,Milwaukee
﻿mil.wi.0369,﻿church,﻿St. Hubert's,English,,,,﻿Door County,,﻿Rosiere,,﻿WI,,44.675611,-87.613598,,"﻿Attended by Rev. A. Daems, O.S.C.",,﻿a_daems_001,﻿Rev.,﻿A. Daems,﻿O.S.C.,,,,,,,1867,﻿,﻿,﻿Milwaukee,Milwaukee
﻿mil.wi.0184,﻿church,﻿St. Norbert's,English,,,,﻿Dane County,﻿Dane County,﻿Roxbury,﻿Roxbury,﻿WI,,43.250644,-89.677281,,,,﻿a_inama_001,﻿Rev.,﻿A. Inama,﻿O. Praem,,,,,,,1867,﻿,﻿,﻿Milwaukee,Milwaukee
﻿mil.wi.0185,﻿church,﻿St. Andrew's,English,,,,﻿Sheboygan County,﻿Sheboygan County,﻿Rhine,﻿Rhine,﻿WI,,43.816254,-88.007253,,﻿Attended by Rev. W. Engeln,,﻿w_engeln_001,﻿Rev.,﻿W. Engeln,,,,,,,,1867,﻿,﻿,﻿Milwaukee,Milwaukee
﻿lac.wi.0109,﻿church,﻿St. Patrick's,English,,,,﻿Monroe County,,﻿Sparta,,﻿WI,,43.938363,-90.800707,,﻿Attended by Rev. M. M. Marco,,﻿m_m_marco_001,﻿Rev.,﻿M. M. Marco,,,,,,,,1867,﻿,﻿,﻿Milwaukee,Milwaukee
﻿mil.wi.0187,﻿church,﻿St. Martin's,English,,,,﻿Dane County,﻿Dane County,﻿Springfield,﻿Springfield,﻿WI,,43.180678,-89.589689,,,,﻿f_fastera_001,﻿Rev.,﻿F. Fastera,,,,,,,,1867,﻿,﻿,﻿Milwaukee,Milwaukee
﻿mil.wi.0188,﻿church,﻿St. Peter's,English,,,,﻿Dane County,﻿Dane County,﻿Springfield,﻿Springfield,﻿WI,,43.139502,-89.540955,,,,﻿f_fastera_001,﻿Rev.,﻿F. Fastera,,,,,,,,1867,﻿,﻿,﻿Milwaukee,Milwaukee
﻿lac.wi.0021,﻿church,﻿St. Aloysius,English,,,,﻿Sauk County,﻿Sauk County,﻿Sauk City,﻿Sauk City,﻿WI,,43.28139,-89.725801,,,,﻿a_durst_001,﻿Rev.,﻿A. Durst,,,,,,,,1867,﻿,﻿,﻿Milwaukee,Milwaukee
﻿mil.wi.0189,﻿church,"﻿St. Mary's, Immaculate Conception",English,,,,﻿Ozaukee County,﻿Ozaukee County,﻿Saukville,﻿Saukville,﻿WI,,43.380143,-87.94336,,,,﻿geo_strickner_001,﻿Rev.,﻿Geo. Strickner,,,,,,,,1867,﻿,﻿,﻿Milwaukee,Milwaukee
﻿mil.wi.0190,﻿church,﻿St. Finbar's,English,,,,﻿Ozaukee County,﻿Ozaukee County,﻿Saukville,﻿Saukville,﻿WI,,43.441187,-88.000675,,﻿Attended from Newburgh,,,,,,,,,,,,1867,﻿,﻿,﻿Milwaukee,Milwaukee
﻿mil.wi.0191,﻿church,﻿St. Peter's,English,,,,﻿Washington County,﻿Washington County,﻿Shleisingerville,﻿Slinger,﻿WI,,43.333613,-88.286206,,﻿Attended by Rev. M. Weiss,,﻿m_weiss_001,﻿Rev.,﻿M. Weiss,,,,,,,,1867,﻿,﻿,﻿Milwaukee,Milwaukee
﻿mil.wi.0370,﻿church,﻿St. Peter's,English,,,,﻿Manitowoc County,﻿Manitowoc County,﻿Schleswig,,﻿WI,,43.930278,-87.985556,,﻿Attended by Fathers of Calvary Convent,,,,,,,,,,,,1867,﻿,﻿,﻿Milwaukee,Milwaukee
﻿lac.wi.0110,﻿church,﻿St. Mark's,English,,,,﻿Crawford County,,﻿Seneca,,﻿WI,,43.222544,-90.945191,,﻿Attended by Rev. P. Murphy,,﻿p_murphy_004,﻿Rev.,﻿P. Murphy,,,,,,,,1867,﻿,﻿,﻿Milwaukee,Milwaukee
﻿mil.wi.0193,﻿church,﻿St. Magdalene's,English,,,,﻿Sheboygan County,﻿Sheboygan County,﻿Sheboygan,﻿Sheboygan,﻿WI,,43.760482,-87.71347,,,,﻿m_haider_001,﻿Rev.,﻿M. Haider,,,,,,,,1867,﻿,﻿,﻿Milwaukee,Milwaukee
﻿mil.wi.0194,﻿church,﻿St. Mary's,English,,,,﻿Sheboygan County,﻿Sheboygan County,﻿Silver Creek,﻿Sherman,﻿WI,,43.600762,-87.992268,,﻿Attended by Rev. H. McMahon,,﻿hug_mcmahon_001,﻿Rev.,﻿H. McMahon,,,,,,,,1867,﻿,﻿,﻿Milwaukee,Milwaukee
﻿mil.wi.0195,﻿church,﻿St. Dominic's,English,,,,﻿Grant County,﻿Grant County,﻿Sinsinawa,﻿Sinsinawa,﻿WI,,42.520811,-90.53856,,,,﻿cha_exel_001,﻿Rev.,﻿Charles Exel,,,,,,,,1867,﻿,﻿,﻿Milwaukee,Milwaukee
﻿mil.wi.0196,﻿church,﻿St. Matthews,English,,,,﻿Lafayette County,﻿Lafayette County,﻿Shullsburgh,﻿Shullsburg,﻿WI,,42.574395,-90.230549,,,,﻿j_j_kinsella_001,﻿Rev.,﻿J. J. Kinsella,,,,,,,,1867,﻿,﻿,﻿Milwaukee,Milwaukee
﻿mil.wi.0371,﻿church,﻿St. Peter's,English,,,,﻿Outagamie County,,﻿Snydersville,,﻿WI,,44.335706,-88.203726,,﻿Attended by Rev. A. J. Verberk,,﻿a_j_verberk_001,﻿Rev.,﻿A. J. Verberk,,,,,,,,1867,﻿,﻿,﻿Milwaukee,Milwaukee
﻿lac.wi.0111,﻿church,﻿St. Vincent de Paul's,English,,,,﻿St. Croix County,,﻿Sommerset,,﻿WI,,45.14552,-92.738987,,﻿Attended by Rev. S. Seif,,﻿s_seif_001,﻿Rev.,﻿S. Seif,,,,,,,,1867,﻿,﻿,﻿Milwaukee,Milwaukee
﻿mil.wi.0197,﻿church,﻿Holy Mary of Help,English,,,,﻿Fond du Lac County,﻿Fond du Lac County,﻿Springvale,﻿Springvale,﻿WI,,43.764244,-88.691631,,﻿Visited by Rev. E. Gray,,﻿e_gray_001,﻿Rev.,﻿E. Gray,,,,,,,,1867,﻿,﻿,﻿Milwaukee,Milwaukee
﻿gre.wi.0031,﻿church,﻿St. Stephen's,English,,,,﻿Portage County,﻿Portage County,﻿Stevens Point,﻿Stevens Point,﻿WI,,44.527046,-89.553282,,,,﻿m_schwebach_001,﻿Rev.,﻿M. Schwebach,,,,,,,,1867,﻿,﻿,﻿Milwaukee,Milwaukee
﻿mil.wi.0372,﻿church,﻿St. Catharine's,English,,,,﻿Calumet County,,﻿Stockbridge,,﻿WI,,44.06,-88.282778,,﻿Visited by Rev. Charles Shraudenback,,﻿cha_shraudenback_001,﻿Rev.,﻿Charles Shraudenback,,,,,,,,1867,﻿,﻿,﻿Milwaukee,Milwaukee
﻿mil.wi.0198,﻿church,﻿St. Joseph's,English,,,,﻿Dane County,﻿Dane County,﻿Sun Prairie,﻿Sun Prairie,﻿WI,,43.267928,-89.153749,,,,﻿max_de-becke_001,﻿Rev.,﻿Max De Becke,,,,,,,,1867,﻿,﻿,﻿Milwaukee,Milwaukee
﻿mil.wi.0199,﻿church,﻿Sacred Hearts of Jesus and Mary,English,,,,﻿Dane County,﻿Dane County,﻿Sun Prairie,﻿Sun Prairie,﻿WI,,43.186216,-89.210166,,﻿Attended by Rev. P. Lavin,,,,,,,,,,,,1867,﻿,﻿,﻿Milwaukee,Milwaukee
﻿mil.wi.0200,﻿church,﻿St. John the Baptist's,English,,,,﻿Fond du Lac County,﻿Fond du Lac County,﻿Taycheda,﻿Taycheeda,﻿WI,,43.808879,-88.395106,,,,﻿a_kieser_001,﻿Rev.,﻿A. Kieser,,,,,,,,1867,﻿,﻿,﻿Milwaukee,Milwaukee
﻿mil.wi.0202,﻿church,﻿St. Theresa's,English,,,,﻿Dodge County,﻿Dodge County,﻿Teresa,﻿Theresa,﻿WI,,43.518107,-88.453215,,,,﻿j_pikel_001,﻿Rev.,﻿J. Pikel,,,,,,,,1867,﻿,﻿,﻿Milwaukee,Milwaukee
﻿lac.wi.0022,﻿church,﻿St. Wenceslaus',﻿Polish,,,,﻿Trempeleau County,﻿Trempeleau County,﻿Trempeleau,﻿Trempeleau,﻿WI,,44.005519,-91.442088,,,,﻿flo_zadziorski_001,﻿Rev.,﻿Flo. Zadziorski,﻿O.M.C.,,,,,,,1867,﻿,﻿,﻿Milwaukee,Milwaukee
﻿gre.wi.0032,﻿church,﻿St. Luke's,English,,,,﻿Manitowoc County,﻿Manitowoc County,﻿Two Rivers,﻿Two Rivers,﻿WI,,44.149952,-87.567108,,,,﻿m_hens_001,﻿Rev.,﻿M. Hens,,,,,,,,1867,﻿,﻿,﻿Milwaukee,Milwaukee
﻿lac.wi.0112,﻿church,﻿St. Theresa's,English,,,,﻿Juneau County,,﻿Union Centre,,﻿WI,,43.682903,-90.262548,,﻿Attended by Rev. J. Casey,,﻿joh_casey_001,﻿Rev.,﻿J. Casey,,,,,,,,1867,﻿,﻿,﻿Milwaukee,Milwaukee
﻿lac.wi.0113,﻿church,﻿St. James',English,,,,﻿Crawford County,,﻿Utica,,﻿WI,,43.41151,-90.956867,,,,﻿p_murphy_004,﻿Rev.,﻿P. Murphy,,,,,,,,1867,﻿,﻿,﻿Milwaukee,Milwaukee
﻿mil.wi.0203,﻿church,﻿St. Simon's,English,,,,﻿Dane County,﻿Dane County,﻿Vermont,﻿Vermont,﻿WI,,43.077571,-89.794289,,﻿Attended by Rev. L. Kenny,,﻿l_kenny_001,﻿Rev.,﻿L. Kenny,,,,,,,,1867,﻿,﻿,﻿Milwaukee,Milwaukee
﻿mil.wi.0204,﻿church,﻿St. Margaret's,English,,,,﻿Dane County,﻿Dane County,﻿Vienna,﻿Vienna,﻿WI,,43.018607,-89.549763,,﻿Attended from Madison,,,,,,,,,,,,1867,﻿,﻿,﻿Milwaukee,Milwaukee
﻿mil.wi.0206,﻿church,﻿St. Thomas Aquinas,English,,,,﻿Racine County,﻿Racine County,﻿Waterford,﻿Waterford,﻿WI,,42.760776,-88.212041,,,,﻿fab_permadinger_001,﻿Rev.,﻿F. Permadinger,﻿O.M.C.,,,,,,,1867,﻿,﻿,﻿Milwaukee,Milwaukee
﻿mil.wi.0207,﻿church,﻿St. Wenceslaus,English,,,,﻿Jefferson County,﻿Jefferson County,﻿Waterloo,﻿Waterloo,﻿WI,,43.161085,-88.921266,,﻿Attended by Rev. J. Jansen,,﻿j_jansen_001,﻿Rev.,﻿J. Jansen,,,,,,,,1867,﻿,﻿,﻿Milwaukee,Milwaukee
﻿mil.wi.0208,﻿church,﻿St. Bernard's,English,,,,﻿Jefferson County,﻿Jefferson County,﻿Watertown,﻿Watertown,﻿WI,,43.193918,-88.729292,,,,﻿j_w_norris_001,﻿Rev. Dr.,﻿J. W. Norris,,,,,,,,1867,﻿,﻿,﻿Milwaukee,Milwaukee
﻿mil.wi.0209,﻿church,﻿St. Henry's,﻿German,,,,﻿Jefferson County,﻿Jefferson County,﻿Watertown,﻿Watertown,﻿WI,,43.196569,-88.720928,,,,﻿w_bernard_001,﻿Rev.,﻿W. Bernard,,,,,,,,1867,﻿,﻿,﻿Milwaukee,Milwaukee
﻿mil.wi.0210,﻿church,﻿St. Joseph's,English,,,,﻿Dodge County,﻿Dodge County,﻿Waupun,﻿Waupun,﻿WI,,43.633481,-88.737722,,﻿Visited by Rev. W. Dougherty,,,,,,,,,,,,1867,﻿,﻿,﻿Milwaukee,Milwaukee
﻿mil.wi.0211,﻿church,﻿St. Joseph's,English,,,,﻿Waukesha County,﻿Waukesha County,﻿Waukesha,﻿Waukesha,﻿WI,,43.011854,-88.226756,,,,﻿d_mcginnity_001,﻿Rev.,﻿D. McGinnity,,,,,,,,1867,﻿,﻿,﻿Milwaukee,Milwaukee
﻿mil.wi.0212,﻿church,﻿Holy Angels,English,,,,﻿Washington County,﻿Washington County,﻿West-Bend,﻿West Bend,﻿WI,,43.423965,-88.186686,,,,﻿j_reindl_001,﻿Rev.,﻿J. Reindl,,,,,,,,1867,﻿,﻿,﻿Milwaukee,Milwaukee
﻿mil.wi.0213,﻿church,﻿St. Mathias',English,,,,﻿Washington County,﻿Washington County,﻿West-Bend,﻿West Bend,﻿WI,,43.420725,-88.271444,,﻿Visited by M. Weiss,,﻿m_weiss_001,﻿Rev.,﻿M. Weiss,,,,,,,,1867,﻿,﻿,﻿Milwaukee,Milwaukee
﻿lac.wi.0114,﻿church,﻿St. Alphonsus',English,,,,﻿Sauk County,,﻿Westfield,,﻿WI,,43.437776,-90.003185,,﻿Visited by Rev. A. Durst,,﻿a_durst_001,﻿Rev.,﻿A. Durst,,,,,,,,1867,﻿,﻿,﻿Milwaukee,Milwaukee
﻿mil.wi.0216,﻿church,﻿St. Patrick's,English,,,,﻿Iowa County,﻿Iowa County,﻿Walwick,﻿Waldwick,﻿WI,,42.825555,-90.039847,,﻿Attended by Rev. F. McGann,,﻿f_mcgann_001,﻿Rev.,﻿F. McGann,,,,,,,,1867,﻿,﻿,﻿Milwaukee,Milwaukee
﻿mil.wi.0217,﻿church,﻿St. Alphonsus',English,,,,﻿Kenosha County,﻿Kenosha County,﻿Wheatland,﻿Wheatland,﻿WI,,42.580476,-88.226719,,,,﻿f_deipenbrack_001,﻿Rev.,﻿F. Deipenbrack,,,,,,,,1867,﻿,﻿,﻿Milwaukee,Milwaukee
﻿gre.wi.0033,﻿church,﻿Invention of Holy Cross,English,,,,﻿Brown County,﻿Brown County,﻿Wequiock,﻿Wequiock,﻿WI,,44.553625,-87.889262,,,,﻿edw_daems_001,﻿Rev.,﻿E. Daems,﻿O.S.C.,,,,,,,1867,﻿,﻿,﻿Milwaukee,Milwaukee
﻿mil.wi.0218,﻿church,﻿St. Patrick's,English,,,,﻿Walworth County,﻿Walworth County,﻿Whitewater,﻿Whitewater,﻿WI,,42.833958,-88.753497,,,,﻿r_dunphy_001,﻿Rev.,﻿R. Dumphy,,,,,,,,1867,﻿,﻿,﻿Milwaukee,Milwaukee
﻿mil.wi.0219,﻿church,﻿Holy Assumption,English,,,,﻿Lafayette County,﻿Lafayette County,﻿Willow Springs,﻿Willow Springs,﻿WI,,42.748242,-90.131799,,﻿Attended by Rev. E. M. McGinnity,,﻿e_m_mcginnity_001,﻿Rev.,﻿E. M. McGinnity,,,,,,,,1867,﻿,﻿,﻿Milwaukee,Milwaukee
﻿mil.wi.0220,﻿church,﻿Holy Name of Jesus,English,,,,﻿Kenosha County,﻿Kenosha County,﻿Wilmot,﻿Wilmont,﻿WI,,42.513043,-88.182513,,﻿Attended by Rev. F. Deipenbrack,,﻿f_deipenbrack_001,﻿Rev.,﻿F. Deipenbrack,,,,,,,,1867,﻿,﻿,﻿Milwaukee,Milwaukee
﻿mil.wi.0221,﻿church,﻿St. George's,English,,,,﻿Sheboygan County,﻿Sheboygan County,﻿Wilson,﻿Wilson,﻿WI,,43.669865,-87.799943,,,,﻿m_seibold_001,﻿Rev.,﻿M. Seibold,,,,,,,,1867,﻿,﻿,﻿Milwaukee,Milwaukee
﻿mil.wi.0376,﻿church,﻿St. Boniface's,English,,,,﻿Buffalo County,,﻿Woumadee,,﻿WI,,44.301702,-91.706978,,﻿Attended by Rev. A. Rasch,,﻿a_rasch_001,﻿Rev.,﻿A. Rasch,,,,,,,,1867,﻿,﻿,﻿Milwaukee,Milwaukee
﻿mil.wi.0375,﻿church,﻿St. John the Baptist's,English,,,,﻿Calumet County,,﻿Woodville,,﻿WI,,44.169052,-88.203972,,"﻿Visited by Rev. Bonavent. De Goy, O.M.C.",,﻿bon_de-goy_001,﻿Rev.,﻿Bonavent De Goy,﻿O.M.C.,,,,,,,1867,﻿,﻿,﻿Milwaukee,Milwaukee
﻿mil.wi.0223,﻿church,﻿St. Augustine's,English,,,,﻿Columbia County,﻿Columbia County,﻿Wyosina,﻿Wyocena,﻿WI,,43.495817,-89.308451,,,,﻿e_mcguirk_001,﻿Rev.,﻿E. McGuirk,,,,,,,,1867,﻿,﻿,﻿Milwaukee,Milwaukee
﻿mil.wi.0214,﻿church,﻿St. Mary's of the Lake,English,,,,﻿Dane County,﻿Dane County,﻿Westport,﻿Westport,﻿WI,,43.018607,-89.549763,,,,﻿pet_lavin_002,﻿Rev.,﻿Peter Lavin,,,,,,,,1867,﻿,﻿,﻿Milwaukee,Milwaukee
﻿lac.wi.0115,﻿station,[Unnamed Institution],English,,,,﻿Adams County,,﻿Neery,,﻿WI,,,,,,,,,,,,,,,,,1867,﻿,﻿,﻿Milwaukee,Milwaukee
﻿lac.wi.0116,﻿station,[Unnamed Institution],English,,,,﻿Adams County,,﻿Prairie,,﻿WI,,43.685278,-89.770556,,,,,,,,,,,,,,1867,﻿,﻿,﻿Milwaukee,Milwaukee
﻿lac.wi.0117,﻿station,[Unnamed Institution],English,,,,﻿Adams County,,﻿Quincy,,﻿WI,,43.876389,-89.956111,,,,,,,,,,,,,,1867,﻿,﻿,﻿Milwaukee,Milwaukee
﻿lac.wi.0118,﻿station,[Unnamed Institution],English,,,,﻿Adams County,,﻿Wardelah,,﻿WI,,,,,,,,,,,,,,,,,1867,﻿,﻿,﻿Milwaukee,Milwaukee
﻿lac.wi.0119,﻿station,[Unnamed Institution],English,,,,﻿Bad Axe County,,﻿Morrison,,﻿WI,,,,,,,,,,,,,,,,,1867,﻿,﻿,﻿Milwaukee,Milwaukee
﻿lac.wi.0120,﻿station,[Unnamed Institution],English,,,,﻿Bad Axe County,,﻿Wrightstown,,﻿WI,,,,,,,,,,,,,,,,,1867,﻿,﻿,﻿Milwaukee,Milwaukee
﻿mil.wi.0377,﻿station,[Unnamed Institution],English,,,,﻿Brown County,,﻿Bad Axe,,﻿WI,,,,,,,,,,,,,,,,,1867,﻿,﻿,﻿Milwaukee,Milwaukee
﻿mil.wi.0378,﻿station,[Unnamed Institution],English,,,,﻿Brown County,,﻿De Bellau,,﻿WI,,,,,,,,,,,,,,,,,1867,﻿,﻿,﻿Milwaukee,Milwaukee
﻿mil.wi.0379,﻿station,[Unnamed Institution],English,,,,﻿Brown County,,﻿Pine River,,﻿WI,,,,,,,,,,,,,,,,,1867,﻿,﻿,﻿Milwaukee,Milwaukee
﻿lac.wi.0025,﻿station,[Unnamed Institution],English,,,,﻿Buffalo County,,﻿Buffalo City,﻿Buffalo City,﻿WI,,44.230564,-91.863468,,,,,,,,,,,,,,1867,﻿,﻿,﻿Milwaukee,Milwaukee
﻿lac.wi.0121,﻿station,[Unnamed Institution],English,,,,﻿Buffalo County,,﻿Nelson,,﻿WI,,44.456944,-91.973889,,,,,,,,,,,,,,1867,﻿,﻿,﻿Milwaukee,Milwaukee
﻿lac.wi.0122,﻿station,[Unnamed Institution],English,,,,﻿Buffalo County,,﻿Little Waumadee,,﻿WI,,44.303056,-91.705833,,,,,,,,,,,,,,1867,﻿,﻿,﻿Milwaukee,Milwaukee
﻿lac.wi.0123,﻿station,[Unnamed Institution],English,,,,﻿Buffalo County,,﻿Mandara,,﻿WI,,,,,,,,,,,,,,,,,1867,﻿,﻿,﻿Milwaukee,Milwaukee
﻿lac.wi.0024,﻿station,[Unnamed Institution],English,,,,﻿Buffalo County,,﻿Alma,,﻿WI,,44.321587,-91.914457,,,,,,,,,,,,,,1867,﻿,﻿,﻿Milwaukee,Milwaukee
﻿mil.wi.0029,﻿station,[Unnamed Institution],English,,,,﻿Calumet County,,﻿Brothertown,,﻿WI,,43.978368,-88.275314,,,,,,,,,,,,,,1867,﻿,﻿,﻿Milwaukee,Milwaukee
﻿mil.wi.0345,﻿station,[Unnamed Institution],English,,,,﻿Calumet County,,﻿Harrison,,﻿WI,,44.134167,-88.291667,,,,,,,,,,,,,,1867,﻿,﻿,﻿Milwaukee,Milwaukee
﻿mil.wi.0044,﻿station,[Unnamed Institution],English,,,,﻿Calumet County,﻿Calumet County,﻿Charleston,﻿Charlestown,﻿WI,,44.023369,-88.109612,,,,,,,,,,,,,,1867,﻿,﻿,﻿Milwaukee,Milwaukee
﻿lac.wi.0026,﻿station,[Unnamed Institution],English,,,,﻿Chippewa County,,﻿Brush Prairie,﻿Bloomer,﻿WI,,45.120908,-91.421051,,,,,,,,,,,,,,1867,﻿,﻿,﻿Milwaukee,Milwaukee
﻿lac.wi.0124,﻿station,[Unnamed Institution],English,,,,﻿Chippewa County,,﻿Courtes Oreilles,,﻿WI,,45.883056,-91.320278,,,,,,,,,,,,,,1867,﻿,﻿,﻿Milwaukee,Milwaukee
﻿lac.wi.0063,﻿station,[Unnamed Institution],English,,,,﻿Chippewa County,,﻿Flambeau,﻿Holocombe,﻿WI,,45.262041,-91.16075,,,,,,,,,,,,,,1867,﻿,﻿,﻿Milwaukee,Milwaukee
﻿lac.wi.0125,﻿station,[Unnamed Institution],English,,,,﻿Chippewa County,,﻿Springfield,,﻿WI,,44.980833,-92.186389,,,,,,,,,,,,,,1867,﻿,﻿,﻿Milwaukee,Milwaukee
﻿lac.wi.0126,﻿station,[Unnamed Institution],English,,,,﻿Clarke County,,﻿Neilsville,,﻿WI,,44.561111,-90.595833,,,,,,,,,,,,,,1867,﻿,﻿,﻿Milwaukee,Milwaukee
﻿mil.wi.0224,﻿station,[Unnamed Institution],English,,,,﻿Columbia County,﻿Columbia County,﻿Marcello,﻿Marcellon,﻿WI,,43.568594,-89.265672,,,,,,,,,,,,,,1867,﻿,﻿,﻿Milwaukee,Milwaukee
﻿mil.wi.0225,﻿station,[Unnamed Institution],English,,,,﻿Columbia County,﻿Columbia County,﻿Caledonia,﻿Caledonia,﻿WI,,43.463521,-89.53089,,,,,,,,,,,,,,1867,﻿,﻿,﻿Milwaukee,Milwaukee
﻿mil.wi.0052,﻿station,[Unnamed Institution],English,,,,﻿Columbia County,,﻿Courland,﻿Courtland,﻿WI,,43.495505,-89.039176,,,,,,,,,,,,,,1867,﻿,﻿,﻿Milwaukee,Milwaukee
﻿mil.wi.0226,﻿station,[Unnamed Institution],English,,,,﻿Columbia County,﻿Columbia County,﻿Prairie,﻿Prairie,﻿WI,,43.404663,-89.322695,,,,,,,,,,,,,,1867,﻿,﻿,﻿Milwaukee,Milwaukee
﻿lac.wi.0127,﻿station,[Unnamed Institution],English,,,,﻿Crawford County,,﻿Boydtown Bluffs,,﻿WI,,43.110556,-90.803611,,,,,,,,,,,,,,1867,﻿,﻿,﻿Milwaukee,Milwaukee
﻿mil.wi.0227,﻿station,[Unnamed Institution],English,,,,﻿Dane County,﻿Dane County,﻿Cottage Grove,﻿Cottage Grove,﻿WI,,43.076108,-89.199559,,,,,,,,,,,,,,1867,﻿,﻿,﻿Milwaukee,Milwaukee
﻿mil.wi.0228,﻿station,[Unnamed Institution],English,,,,﻿Dane County,﻿Dane County,﻿Dane,﻿Dane,﻿WI,,43.250547,-89.501509,,,,,,,,,,,,,,1867,﻿,﻿,﻿Milwaukee,Milwaukee
﻿mil.wi.0229,﻿station,[Unnamed Institution],English,,,,﻿Dodge County,﻿Dodge County,﻿Lebanon,﻿Lebanon,﻿WI,,43.255277,-88.626768,,,,,,,,,,,,,,1867,﻿,﻿,﻿Milwaukee,Milwaukee
﻿mil.wi.0230,﻿station,[Unnamed Institution],English,,,,﻿Dodge County,﻿Dodge County,﻿Lamira,﻿Lamira,﻿WI,,43.591382,-88.443713,,,,,,,,,,,,,,1867,﻿,﻿,﻿Milwaukee,Milwaukee
﻿mil.wi.0231,﻿station,[Unnamed Institution],English,,,,﻿Dodge County,﻿Dodge County,﻿Iron Ridge,﻿Iron Ridge,﻿WI,,43.39972,-88.532601,,,,,,,,,,,,,,1867,﻿,﻿,﻿Milwaukee,Milwaukee
﻿mil.wi.0380,﻿station,[Unnamed Institution],English,,,,﻿Door County,,﻿Harbor Island,,﻿WI,,,,,,,,,,,,,,,,,1867,﻿,﻿,﻿Milwaukee,Milwaukee
﻿mil.wi.0381,﻿station,[Unnamed Institution],English,,,,﻿Door County,,﻿Leopold Village,,﻿WI,,,,,,,,,,,,,,,,,1867,﻿,﻿,﻿Milwaukee,Milwaukee
﻿gre.wi.0064,﻿station,[Unnamed Institution],English,,,,﻿Door County,,﻿New-Brussels,﻿Brussels,﻿WI,,44.74844,-87.621873,,,,,,,,,,,,,,1867,﻿,﻿,﻿Milwaukee,Milwaukee
﻿mil.wi.0382,﻿station,[Unnamed Institution],English,,,,﻿Door County,,﻿Potowatamie,,﻿WI,,44.864444,-87.415,,,,,,,,,,,,,,1867,﻿,﻿,﻿Milwaukee,Milwaukee
﻿mil.wi.0383,﻿station,[Unnamed Institution],English,,,,﻿Door County,,﻿Big Sturgeon Bay,,﻿WI,,44.833611,-87.377778,,,,,,,,,,,,,,1867,﻿,﻿,﻿Milwaukee,Milwaukee
﻿mil.wi.0384,﻿station,[Unnamed Institution],English,,,,﻿Door County,,﻿Little Sturgeon Bay,,﻿WI,,44.833611,-87.377778,,,,,,,,,,,,,,1867,﻿,﻿,﻿Milwaukee,Milwaukee
﻿mil.wi.0385,﻿station,[Unnamed Institution],English,,,,﻿Door County,,﻿Washington Harbor,,﻿WI,,45.397179,-86.927482,,,,,,,,,,,,,,1867,﻿,﻿,﻿Milwaukee,Milwaukee
﻿lac.wi.0067,﻿station,[Unnamed Institution],English,,,,﻿Douglas County,,﻿Superior City,,﻿WI,,46.703208,-92.046862,,,,,,,,,,,,,,1867,﻿,﻿,﻿Milwaukee,Milwaukee
﻿mil.wi.0386,﻿station,[Unnamed Institution],English,,,,﻿Douglas County,,﻿Fond du Lac,,﻿WI,,,,,,,,,,,,,,,,,1867,﻿,﻿,﻿Milwaukee,Milwaukee
﻿lac.wi.0128,﻿station,[Unnamed Institution],English,,,,﻿Dunn County,,﻿Fall City,,﻿WI,,44.798614,-91.764651,,,,,,,,,,,,,,1867,﻿,﻿,﻿Milwaukee,Milwaukee
﻿lac.wi.0031,﻿station,[Unnamed Institution],English,,,,﻿Eau Claire County,,﻿Adams' Settlement,,﻿WI,,44.813079,-91.605541,,,,,,,,,,,,,,1867,﻿,﻿,﻿Milwaukee,Milwaukee
﻿lac.wi.0129,﻿station,[Unnamed Institution],English,,,,﻿Eau Claire County,,﻿Pleasant Valley,,﻿WI,,44.670278,-91.466667,,,,,,,,,,,,,,1867,﻿,﻿,﻿Milwaukee,Milwaukee
﻿mil.wi.0387,﻿station,[Unnamed Institution],English,,,,﻿Fond du Lac County,,﻿Eldora,,﻿WI,,43.824722,-88.621667,,,,,,,,,,,,,,1867,﻿,﻿,﻿Milwaukee,Milwaukee
﻿mil.wi.0233,﻿station,[Unnamed Institution],English,,,,﻿Fond du Lac County,﻿Fond du Lac County,﻿Rosendale,﻿Rosendale,﻿WI,,43.807763,-88.674832,,,,,,,,,,,,,,1867,﻿,﻿,﻿Milwaukee,Milwaukee
﻿mil.wi.0201,﻿station,[Unnamed Institution],English,,,,﻿Fond du Lac County,,﻿Taycheda,,﻿WI,,43.83354217,-88.34189057,,,,,,,,,,,,,,1867,﻿,﻿,﻿Milwaukee,Milwaukee
﻿mil.wi.0388,﻿station,[Unnamed Institution],English,,,,﻿Fond du Lac County,,﻿Walkosten,,﻿WI,,,,,,,,,,,,,,,,,1867,﻿,﻿,﻿Milwaukee,Milwaukee
﻿mil.wi.0236,﻿station,[Unnamed Institution],English,,,,﻿Grant County,﻿Grant County,﻿Beetown,﻿Beetown,﻿WI,,42.794991,-90.885405,,,,,,,,,,,,,,1867,﻿,﻿,﻿Milwaukee,Milwaukee
﻿mil.wi.0237,﻿station,[Unnamed Institution],English,,,,﻿Grant County,﻿Grant County,﻿Boscobel,﻿Boscobel,﻿WI,,43.134429,-90.705404,,,,,,,,,,,,,,1867,﻿,﻿,﻿Milwaukee,Milwaukee
﻿mil.wi.0238,﻿station,[Unnamed Institution],English,,,,﻿Grant County,﻿Grant County,﻿Liberty,﻿Liberty,﻿WI,,42.881601,-90.620416,,,,,,,,,,,,,,1867,﻿,﻿,﻿Milwaukee,Milwaukee
﻿mil.wi.0239,﻿station,[Unnamed Institution],English,,,,﻿Grant County,﻿Grant County,﻿Waterloo,﻿Waterloo,﻿WI,,42.724027,-90.848452,,,,,,,,,,,,,,1867,﻿,﻿,﻿Milwaukee,Milwaukee
﻿mil.wi.0389,﻿station,[Unnamed Institution],English,,,,﻿Green County,,﻿Adams,,﻿WI,,42.720278,-89.763333,,,,,,,,,,,,,,1867,﻿,﻿,﻿Milwaukee,Milwaukee
﻿mil.wi.0390,﻿station,[Unnamed Institution],English,,,,﻿Green County,,﻿Broad Head,,﻿WI,,42.618611,-89.376389,,,,,,,,,,,,,,1867,﻿,﻿,﻿Milwaukee,Milwaukee
﻿mil.wi.0391,﻿station,[Unnamed Institution],English,,,,﻿Green County,,﻿New-Glanes,,﻿WI,,42.813764,-89.635365,,,,,,,,,,,,,,1867,﻿,﻿,﻿Milwaukee,Milwaukee
﻿mil.wi.0241,﻿station,[Unnamed Institution],English,,,,﻿Iowa County,﻿Iowa County,﻿Arina,﻿Arena,﻿WI,,43.165548,-89.912901,,,,,,,,,,,,,,1867,﻿,﻿,﻿Milwaukee,Milwaukee
﻿mil.wi.0242,﻿station,[Unnamed Institution],English,,,,﻿Iowa County,﻿Iowa County,﻿Avoca,﻿Avoca,﻿WI,,43.181933,-90.324569,,,,,,,,,,,,,,1867,﻿,﻿,﻿Milwaukee,Milwaukee
﻿mil.wi.0392,﻿station,[Unnamed Institution],English,,,,﻿Iowa County,,﻿Dodgeville,,﻿WI,,42.963333,-90.131111,,,,,,,,,,,,,,1867,﻿,﻿,﻿Milwaukee,Milwaukee
﻿lac.wi.0066,﻿station,[Unnamed Institution],English,,,,﻿Jackson County,,﻿Black River Falls,﻿Black River Falls,﻿WI,,44.294791,-90.85243,,,,,,,,,,,,,,1867,﻿,﻿,﻿Milwaukee,Milwaukee
﻿lac.wi.0130,﻿station,[Unnamed Institution],English,,,,﻿Jackson County,,﻿Garden Valley,,﻿WI,,44.460833,-90.976111,,,,,,,,,,,,,,1867,﻿,﻿,﻿Milwaukee,Milwaukee
﻿mil.wi.0243,﻿station,[Unnamed Institution],English,,,,﻿Jefferson County,﻿Jefferson County,﻿Fort Atkinson,﻿Fort Atkinson,﻿WI,,42.928894,-88.837051,,,,,,,,,,,,,,1867,﻿,﻿,﻿Milwaukee,Milwaukee
﻿mil.wi.0244,﻿station,[Unnamed Institution],English,,,,﻿Jefferson County,,﻿Pearlunawee,,﻿WI,,43.089927,-88.710896,,,,,,,,,,,,,,1867,﻿,﻿,﻿Milwaukee,Milwaukee
﻿mil.wi.0393,﻿station,[Unnamed Institution],English,,,,﻿Juneau County,,﻿Germantown,,﻿WI,,43.9125,-90.03,,,,,,,,,,,,,,1867,﻿,﻿,﻿Milwaukee,Milwaukee
﻿mil.wi.0394,﻿station,[Unnamed Institution],English,,,,﻿Juneau County,,﻿Vecedah,,﻿WI,,44.026191,-90.073748,,,,,,,,,,,,,,1867,﻿,﻿,﻿Milwaukee,Milwaukee
﻿mil.wi.0032,﻿station,[Unnamed Institution],English,,,,﻿Kenosha County,﻿Kenosha County,﻿Bristol,﻿Bristol,﻿WI,,42.558751,-88.050448,,,,,,,,,,,,,,1867,﻿,﻿,﻿Milwaukee,Milwaukee
﻿mil.wi.0445,﻿station,[Unnamed Institution],English,,,,﻿Kenosha County,﻿Racine County,﻿Dover,,﻿WI,,42.711944,-88.126389,,,,,,,,,,,,,,1867,﻿,﻿,﻿Milwaukee,Milwaukee
﻿mil.wi.0395,﻿station,[Unnamed Institution],English,,,,﻿Kewaunee County,,﻿Deykesville,,﻿WI,,44.640569,-87.761793,,,,,,,,,,,,,,1867,﻿,﻿,﻿Milwaukee,Milwaukee
﻿gre.wi.0085,﻿station,[Unnamed Institution],English,,,,﻿Kewaunee County,,﻿Red River,,﻿WI,,44.6325,-87.702222,,,,,,,,,,,,,,1867,﻿,﻿,﻿Milwaukee,Milwaukee
﻿mil.wi.0396,﻿station,[Unnamed Institution],English,,,,﻿Kewaunee County,,﻿Pierce,,﻿WI,,44.536111,-87.490833,,,,,,,,,,,,,,1867,﻿,﻿,﻿Milwaukee,Milwaukee
﻿gre.wi.0061,﻿station,[Unnamed Institution],English,,,,﻿Kewaunee County,,﻿Montpelier,﻿Montpelier,﻿WI,,44.455786,-87.734451,,,,,,,,,,,,,,1867,﻿,﻿,﻿Milwaukee,Milwaukee
﻿lac.wi.0069,﻿station,[Unnamed Institution],English,,,,﻿La Crosse County,,﻿Broswickvalley,﻿Stoddard,﻿WI,,43.728263,-91.151084,,,,,,,,,,,,,,1867,﻿,﻿,﻿Milwaukee,Milwaukee
﻿lac.wi.0131,﻿station,[Unnamed Institution],English,,,,﻿La Crosse County,,﻿Chipmunk,,﻿WI,,,,,,,,,,,,,,,,,1867,﻿,﻿,﻿Milwaukee,Milwaukee
﻿lac.wi.0132,﻿station,[Unnamed Institution],English,,,,﻿La Crosse County,,﻿Cooley,,﻿WI,,44.752082,-91.576843,,,,,,,,,,,,,,1867,﻿,﻿,﻿Milwaukee,Milwaukee
﻿lac.wi.0133,﻿station,[Unnamed Institution],English,,,,﻿La Point County,,﻿Bad River,,﻿WI,,,,,,,,,,,,,,,,,1867,﻿,﻿,﻿Milwaukee,Milwaukee
﻿mil.wi.0246,﻿station,[Unnamed Institution],English,,,,﻿Lafayette County,﻿Lafayette County,﻿Gratiot,﻿Gratiot,﻿WI,,42.578894,-90.022624,,,,,,,,,,,,,,1867,﻿,﻿,﻿Milwaukee,Milwaukee
﻿mil.wi.0446,﻿station,[Unnamed Institution],English,,,,﻿Lafayette County,,﻿Wiota,,﻿WI,,42.636667,-89.9525,,,,,,,,,,,,,,1867,﻿,﻿,﻿Milwaukee,Milwaukee
﻿mil.wi.0247,﻿station,[Unnamed Institution],English,,,,﻿Lafayette County,﻿Lafayette County,﻿Yellow Stone,﻿Yellowstone,﻿WI,,42.79833,-89.97028,,,,,,,,,,,,,,1867,﻿,﻿,﻿Milwaukee,Milwaukee
﻿lac.wi.0134,﻿station,[Unnamed Institution],English,,,,﻿Marathon County,,﻿Knowlton,,﻿WI,,44.716944,-89.679722,,,,,,,,,,,,,,1867,﻿,﻿,﻿Milwaukee,Milwaukee
﻿lac.wi.0135,﻿station,[Unnamed Institution],English,,,,﻿Marathon County,,﻿Mosinee,,﻿WI,,44.791667,-89.705278,,,,,,,,,,,,,,1867,﻿,﻿,﻿Milwaukee,Milwaukee
﻿mil.wi.0447,﻿station,[Unnamed Institution],English,,,,﻿Marathon County,,﻿Wausau,,﻿WI,,44.9,-89.76,,,,,,,,,,,,,,1867,﻿,﻿,﻿Milwaukee,Milwaukee
﻿mil.wi.0397,﻿station,[Unnamed Institution],English,,,,﻿Marquette County,,﻿Kingston,,﻿WI,,43.693611,-89.128611,,,,,,,,,,,,,,1867,﻿,﻿,﻿Milwaukee,Milwaukee
﻿mil.wi.0398,﻿station,[Unnamed Institution],English,,,,﻿Marquette County,,﻿Marquette,,﻿WI,,43.742222,-89.145833,,,,,,,,,,,,,,1867,﻿,﻿,﻿Milwaukee,Milwaukee
﻿lac.wi.0109,﻿station,[Unnamed Institution],English,,,,﻿Monroe County,,﻿Sparta,,﻿WI,,43.938363,-90.800707,,,,,,,,,,,,,,1867,﻿,﻿,﻿Milwaukee,Milwaukee
﻿lac.wi.0039,﻿station,[Unnamed Institution],English,,,,﻿Monroe County,,﻿Toma,﻿Tomah,﻿WI,,43.979703,-90.507634,,,,,,,,,,,,,,1867,﻿,﻿,﻿Milwaukee,Milwaukee
﻿lac.wi.0070,﻿station,[Unnamed Institution],English,,,,﻿Monroe County,,﻿Tunnel City,﻿Tunnel City,﻿WI,,44.00656,-90.566051,,,,,,,,,,,,,,1867,﻿,﻿,﻿Milwaukee,Milwaukee
﻿gre.wi.0063,﻿station,[Unnamed Institution],English,,,,﻿Oconto County,,﻿Menomenee,,﻿WI,,44.882285,-88.630926,,,,,,,,,,,,,,1867,﻿,﻿,﻿Milwaukee,Milwaukee
﻿mil.wi.0399,﻿station,[Unnamed Institution],English,,,,﻿Oconto County,,﻿Pensaukee,,﻿WI,,44.823056,-87.913056,,,,,,,,,,,,,,1867,﻿,﻿,﻿Milwaukee,Milwaukee
﻿mil.wi.0400,﻿station,[Unnamed Institution],English,,,,﻿Oconto County,,﻿Stiles,,﻿WI,,44.861111,-88.048333,,,,,,,,,,,,,,1867,﻿,﻿,﻿Milwaukee,Milwaukee
﻿mil.wi.0401,﻿station,[Unnamed Institution],English,,,,﻿Oconto County,,﻿Little Suamica,,﻿WI,,44.7175,-88.009167,,,,,,,,,,,,,,1867,﻿,﻿,﻿Milwaukee,Milwaukee
﻿mil.wi.0402,﻿station,[Unnamed Institution],English,,,,﻿Outagamie County,,﻿Ellington,,﻿WI,,44.366389,-88.558056,,,,,,,,,,,,,,1867,﻿,﻿,﻿Milwaukee,Milwaukee
﻿mil.wi.0403,﻿station,[Unnamed Institution],English,,,,﻿Outagamie County,,﻿Greenville,,﻿WI,,44.2875,-88.525833,,,,,,,,,,,,,,1867,﻿,﻿,﻿Milwaukee,Milwaukee
﻿mil.wi.0404,﻿station,[Unnamed Institution],English,,,,﻿Outagamie County,,﻿New-Lebanon,,﻿WI,,44.460278,-88.800278,,,,,,,,,,,,,,1867,﻿,﻿,﻿Milwaukee,Milwaukee
﻿mil.wi.0405,﻿station,[Unnamed Institution],English,,,,﻿Outagamie County,,﻿Stevensville,,﻿WI,,44.373333,-88.584167,,,,,,,,,,,,,,1867,﻿,﻿,﻿Milwaukee,Milwaukee
﻿lac.wi.0071,﻿station,[Unnamed Institution],English,,,,﻿Pepin County,,﻿Bear Creek,﻿Durand,﻿WI,,44.640859,-91.935671,,,,,,,,,,,,,,1867,﻿,﻿,﻿Milwaukee,Milwaukee
﻿lac.wi.0041,﻿station,[Unnamed Institution],English,,,,﻿Pepin County,,﻿Durand,﻿Durand,﻿WI,,44.626354,-91.965726,,,,,,,,,,,,,,1867,﻿,﻿,﻿Milwaukee,Milwaukee
﻿lac.wi.0072,﻿station,[Unnamed Institution],English,,,,﻿Pepin County,,﻿Pepin,﻿Pepin,﻿WI,,44.442998,-92.14894,,,,,,,,,,,,,,1867,﻿,﻿,﻿Milwaukee,Milwaukee
﻿lac.wi.0136,﻿station,[Unnamed Institution],English,,,,﻿Pierce County,,﻿Martell,,﻿WI,,44.829722,-92.397778,,,,,,,,,,,,,,1867,﻿,﻿,﻿Milwaukee,Milwaukee
﻿lac.wi.0044,﻿station,[Unnamed Institution],English,,,,﻿Pierce County,,﻿Perrytown,,﻿WI,,44.589194,-92.485676,,,,,,,,,,,,,,1867,﻿,﻿,﻿Milwaukee,Milwaukee
﻿lac.wi.0043,﻿station,[Unnamed Institution],English,,,,﻿Pierce County,,﻿Prescott,﻿Prescott,﻿WI,,44.748857,-92.802147,,,,,,,,,,,,,,1867,﻿,﻿,﻿Milwaukee,Milwaukee
﻿mil.wi.0406,﻿station,[Unnamed Institution],English,,,,﻿Polk County,,﻿Balsam Lake,,﻿WI,,45.458056,-92.455,,,,,,,,,,,,,,1867,﻿,﻿,﻿Milwaukee,Milwaukee
﻿mil.wi.0407,﻿station,[Unnamed Institution],English,,,,﻿Polk County,,﻿Eagle River,,﻿WI,,45.92,-89.250278,,,,,,,,,,,,,,1867,﻿,﻿,﻿Milwaukee,Milwaukee
﻿mil.wi.0408,﻿station,[Unnamed Institution],English,,,,﻿Polk County,,﻿Portland,,﻿WI,,,,,,,,,,,,,,,,,1867,﻿,﻿,﻿Milwaukee,Milwaukee
﻿mil.wi.0409,﻿station,[Unnamed Institution],English,,,,﻿Polk County,,﻿St. Croix Falls,,﻿WI,,45.411944,-92.638889,,,,,,,,,,,,,,1867,﻿,﻿,﻿Milwaukee,Milwaukee
﻿mil.wi.0410,﻿station,[Unnamed Institution],English,,,,﻿Polk County,,﻿Oceola,,﻿WI,,45.320556,-92.705,,,,,,,,,,,,,,1867,﻿,﻿,﻿Milwaukee,Milwaukee
﻿mil.wi.0411,﻿station,[Unnamed Institution],English,,,,﻿Polk County,,﻿Farmington,,﻿WI,,45.260556,-92.684722,,,,,,,,,,,,,,1867,﻿,﻿,﻿Milwaukee,Milwaukee
﻿mil.wi.0327,﻿station,[Unnamed Institution],English,,,,﻿Portage County,,﻿Buena Vista,,﻿WI,,44.373056,-89.442778,,,,,,,,,,,,,,1867,﻿,﻿,﻿Milwaukee,Milwaukee
﻿mil.wi.0412,﻿station,[Unnamed Institution],English,,,,﻿Portage County,,﻿Du Pays Point,,﻿WI,,44.714444,-89.695278,,,,,,,,,,,,,,1867,﻿,﻿,﻿Milwaukee,Milwaukee
﻿mil.wi.0413,﻿station,[Unnamed Institution],English,,,,﻿Portage County,,﻿Stockton,,﻿WI,,44.489444,-89.4175,,,,,,,,,,,,,,1867,﻿,﻿,﻿Milwaukee,Milwaukee
﻿mil.wi.0248,﻿station,[Unnamed Institution],English,,,,﻿Racine County,﻿Racine County,﻿Rochester,﻿Rochester,﻿WI,,42.741406,-88.224256,,,,,,,,,,,,,,1867,﻿,﻿,﻿Milwaukee,Milwaukee
﻿mil.wi.0249,﻿station,[Unnamed Institution],English,,,,﻿Racine County,﻿Racine County,﻿Yorkville,﻿Yorkville,﻿WI,,42.741963,-88.026751,,,,,,,,,,,,,,1867,﻿,﻿,﻿Milwaukee,Milwaukee
﻿lac.wi.0045,﻿station,[Unnamed Institution],English,,,,﻿Richland County,,﻿Richland Centre,﻿Richland Center,﻿WI,,43.334705,-90.386793,,,,,,,,,,,,,,1867,﻿,﻿,﻿Milwaukee,Milwaukee
﻿lac.wi.0137,﻿station,[Unnamed Institution],English,,,,﻿Richland County,,﻿Har's Creek,,﻿WI,,,,,,,,,,,,,,,,,1867,﻿,﻿,﻿Milwaukee,Milwaukee
﻿lac.wi.0079,﻿station,[Unnamed Institution],English,,,,﻿Richland County,,﻿Melanchton Creek,﻿Yuba,﻿WI,,43.518036,-90.358998,,,,,,,,,,,,,,1867,﻿,﻿,﻿Milwaukee,Milwaukee
﻿lac.wi.0080,﻿station,[Unnamed Institution],English,,,,﻿Richland County,,﻿Mullandy Creek,,﻿WI,,43.333327,-90.466456,,,,,,,,,,,,,,1867,﻿,﻿,﻿Milwaukee,Milwaukee
﻿lac.wi.0081,﻿station,[Unnamed Institution],English,,,,﻿Richland County,,﻿Pine Creek,﻿Richland Center,﻿WI,,43.410081,-90.579155,,,,,,,,,,,,,,1867,﻿,﻿,﻿Milwaukee,Milwaukee
﻿mil.wi.0250,﻿station,[Unnamed Institution],English,,,,﻿Rock County,﻿Rock County,﻿Fulton,﻿Fulton,﻿WI,,42.808062,-89.127614,,,,,,,,,,,,,,1867,﻿,﻿,﻿Milwaukee,Milwaukee
﻿mil.wi.0251,﻿station,[Unnamed Institution],English,,,,﻿Rock County,﻿Rock County,﻿Milton,﻿Milton,﻿WI,,42.775565,-88.943999,,,,,,,,,,,,,,1867,﻿,﻿,﻿Milwaukee,Milwaukee
﻿mil.wi.0252,﻿station,[Unnamed Institution],English,,,,﻿Rock County,﻿Rock County,﻿Spring Valley,﻿Spring Valley,﻿WI,,42.658342,-89.308449,,,,,,,,,,,,,,1867,﻿,﻿,﻿Milwaukee,Milwaukee
﻿mil.wi.0253,﻿station,[Unnamed Institution],English,,,,﻿Rock County,,﻿Sugar River,﻿Brodhead,﻿WI,,42.636197,-89.386535,,,,,,,,,,,,,,1867,﻿,﻿,﻿Milwaukee,Milwaukee
﻿lac.wi.0138,﻿station,[Unnamed Institution],English,,,,﻿Sauk County,,﻿Bear Creek,,﻿WI,,43.33,-90.154444,,,,,,,,,,,,,,1867,﻿,﻿,﻿Milwaukee,Milwaukee
﻿lac.wi.0139,﻿station,[Unnamed Institution],English,,,,﻿Sauk County,,﻿Marble Quarry,,﻿WI,,,,,,,,,,,,,,,,,1867,﻿,﻿,﻿Milwaukee,Milwaukee
﻿lac.wi.0140,﻿station,[Unnamed Institution],English,,,,﻿Sauk County,,﻿Sugar Grove,,﻿WI,,,,,,,,,,,,,,,,,1867,﻿,﻿,﻿Milwaukee,Milwaukee
﻿lac.wi.0054,﻿station,[Unnamed Institution],English,,,,﻿St. Croix County,,﻿Pleasant Valley,﻿Pleasant Valley,﻿WI,,44.914205,-92.485796,,,,,,,,,,,,,,1867,﻿,﻿,﻿Milwaukee,Milwaukee
﻿lac.wi.0077,﻿station,[Unnamed Institution],English,,,,﻿St. Croix County,,﻿Bauen's Mills,,﻿WI,,45.049784,-92.387569,,,,,,,,,,,,,,1867,﻿,﻿,﻿Milwaukee,Milwaukee
﻿lac.wi.0057,﻿station,[Unnamed Institution],English,,,,﻿Trempeleau County,,﻿Galesville,﻿Galesville,﻿WI,,44.083775,-91.358469,,,,,,,,,,,,,,1867,﻿,﻿,﻿Milwaukee,Milwaukee
﻿lac.wi.0141,﻿station,[Unnamed Institution],English,,,,﻿Trempeleau County,,﻿Hixton,,﻿WI,,44.387222,-90.994167,,,,,,,,,,,,,,1867,﻿,﻿,﻿Milwaukee,Milwaukee
﻿lac.wi.0142,﻿station,[Unnamed Institution],English,,,,﻿Trempeleau County,,﻿Montoville,,﻿WI,,,,,,,,,,,,,,,,,1867,﻿,﻿,﻿Milwaukee,Milwaukee
﻿lac.wi.0056,﻿station,[Unnamed Institution],English,,,,﻿Trempeleau County,,﻿Trempeleau City,﻿Trempealeau City,﻿WI,,44.013527,-91.415724,,,,,,,,,,,,,,1867,﻿,﻿,﻿Milwaukee,Milwaukee
﻿lac.wi.0078,﻿station,[Unnamed Institution],English,,,,﻿Vernon County,,﻿Woodland,﻿Forest,﻿WI,,43.67912,-90.509477,,,,,,,,,,,,,,1867,﻿,﻿,﻿Milwaukee,Milwaukee
﻿mil.wi.0254,﻿station,[Unnamed Institution],English,,,,﻿Waukesha County,﻿Waukesha County,﻿Delafield,﻿Delafield,﻿WI,,43.059973,-88.404176,,,,,,,,,,,,,,1867,﻿,﻿,﻿Milwaukee,Milwaukee
﻿mil.wi.0255,﻿station,[Unnamed Institution],English,,,,﻿Waukesha County,﻿Waukesha County,﻿Muckwanago,﻿Mukwonago,﻿WI,,42.863112,-88.332347,,,,,,,,,,,,,,1867,﻿,﻿,﻿Milwaukee,Milwaukee
﻿mil.wi.0256,﻿station,[Unnamed Institution],English,,,,﻿Waukesha County,﻿Waukesha County,﻿Pewaukee,﻿Pewaukee,﻿WI,,43.065463,-88.205804,,,,,,,,,,,,,,1867,﻿,﻿,﻿Milwaukee,Milwaukee
﻿mil.wi.0414,﻿station,[Unnamed Institution],English,,,,﻿Waupaca County,,﻿Farmington,,﻿WI,,44.359444,-89.162778,,,,,,,,,,,,,,1867,﻿,﻿,﻿Milwaukee,Milwaukee
﻿mil.wi.0415,﻿station,[Unnamed Institution],English,,,,﻿Waupaca County,,﻿Caledonia,,﻿WI,,44.291389,-88.804722,,,,,,,,,,,,,,1867,﻿,﻿,﻿Milwaukee,Milwaukee
﻿mil.wi.0416,﻿station,[Unnamed Institution],English,,,,﻿Waupaca County,,﻿Larribee,,﻿WI,,44.634167,-88.797778,,,,,,,,,,,,,,1867,﻿,﻿,﻿Milwaukee,Milwaukee
﻿mil.wi.0417,﻿station,[Unnamed Institution],English,,,,﻿Waupaca County,,﻿St. Lawrence,,﻿WI,,44.454167,-89.052778,,,,,,,,,,,,,,1867,﻿,﻿,﻿Milwaukee,Milwaukee
﻿mil.wi.0418,﻿station,[Unnamed Institution],English,,,,﻿Waupaca County,,﻿Weeyewiga,,﻿WI,,44.316667,-88.933333,,,,,,,,,,,,,,1867,﻿,﻿,﻿Milwaukee,Milwaukee
﻿mil.wi.0419,﻿station,[Unnamed Institution],English,,,,﻿Waupaca County,,﻿Unionville,,﻿WI,,44.539167,-88.915278,,,,,,,,,,,,,,1867,﻿,﻿,﻿Milwaukee,Milwaukee
﻿mil.wi.0420,﻿station,[Unnamed Institution],English,,,,﻿Waupaca County,,﻿Bear Creek,,﻿WI,,44.540278,-88.796944,,,,,,,,,,,,,,1867,﻿,﻿,﻿Milwaukee,Milwaukee
﻿mil.wi.0421,﻿station,[Unnamed Institution],English,,,,﻿Waushara County,,﻿Oasis,,﻿WI,,44.196667,-89.420833,,,,,,,,,,,,,,1867,﻿,﻿,﻿Milwaukee,Milwaukee
﻿mil.wi.0422,﻿station,[Unnamed Institution],English,,,,﻿Waushara County,,﻿Saxeville,,﻿WI,,44.203889,-89.054167,,,,,,,,,,,,,,1867,﻿,﻿,﻿Milwaukee,Milwaukee
﻿mil.wi.0423,﻿station,[Unnamed Institution],English,,,,﻿Waushara County,,﻿Wautomee,,﻿WI,,44.071389,-89.289722,,,,,,,,,,,,,,1867,﻿,﻿,﻿Milwaukee,Milwaukee
﻿mil.wi.0424,﻿station,[Unnamed Institution],English,,,,﻿Winnebago County,,﻿Black Wolf,,﻿WI,,43.937222,-88.503333,,,,,,,,,,,,,,1867,﻿,﻿,﻿Milwaukee,Milwaukee
﻿mil.wi.0425,﻿station,[Unnamed Institution],English,,,,﻿Winnebago County,,﻿Buttes des Mortes,,﻿WI,,44.099444,-88.653889,,,,,,,,,,,,,,1867,﻿,﻿,﻿Milwaukee,Milwaukee
﻿mil.wi.0426,﻿station,[Unnamed Institution],English,,,,﻿Winnebago County,,﻿Willow Creek,,﻿WI,,,,,,,,,,,,,,,,,1867,﻿,﻿,﻿Milwaukee,Milwaukee
﻿mil.wi.0161,﻿station,[Unnamed Institution],English,,,,﻿Winnebago County,,﻿Omro,,﻿WI,,44.03365,-88.742185,,,,,,,,,,,,,,1867,﻿,﻿,﻿Milwaukee,Milwaukee
﻿mil.wi.0427,﻿station,[Unnamed Institution],English,,,,﻿Winnebago County,,﻿Winneconne,,﻿WI,,44.103333,-88.689444,,,,,,,,,,,,,,1867,﻿,﻿,﻿Milwaukee,Milwaukee
﻿mil.wi.0257,﻿convent,﻿Capuchin Convent of Calvary,English,,﻿(Dotyville P.O.),,﻿Fond du Lac County,﻿Fond du Lac County,,﻿Calvary,﻿WI,,43.824287,-88.249763,,,,﻿fra_haas_001,﻿Very Rev.,﻿Francis Haas,﻿O.M.C.,"﻿Commiss. Gen., Guardian",,﻿religious,,,,1867,﻿,﻿,﻿Milwaukee,Milwaukee
﻿mil.wi.0257,﻿convent,﻿Capuchin Convent of Calvary,English,"﻿Priests attending outward missions: Rev. Bonaventura Frey, O.M.C., Vicarius in New-York; Rev. Cajetan Krauthahn, O.M.C., Keshena, Wis.; Rev. Pacificus Berlemann, O.M.C., St. Mary's, Wis.",﻿(Dotyville P.O.),,﻿Fond du Lac County,﻿Fond du Lac County,,﻿Calvary,﻿WI,,43.824287,-88.249763,,,,﻿dan_sherer_001,﻿Rev.,﻿Daniel Sherer,﻿O.M.C.,,,﻿religious,,,,1867,﻿,﻿,﻿Milwaukee,Milwaukee
﻿mil.wi.0257,﻿convent,﻿Capuchin Convent of Calvary,English,"﻿Stations attended by priests of the convent every Sunday, St. Michael's and St. Joseph's.",﻿(Dotyville P.O.),,﻿Fond du Lac County,﻿Fond du Lac County,,﻿Calvary,﻿WI,,43.824287,-88.249763,,,,﻿mar_e_staddegger_001,﻿Rev.,﻿Mar. Edmund Staddegger,﻿O.M.C.,﻿Magister Nov.,,﻿religious,,,,1867,﻿,﻿,﻿Milwaukee,Milwaukee
﻿mil.wi.0257,﻿convent,﻿Capuchin Convent of Calvary,English,"﻿Stations attended by priests of the convent every Sunday, St. Michael's and St. Joseph's.",﻿(Dotyville P.O.),,﻿Fond du Lac County,﻿Fond du Lac County,,﻿Calvary,﻿WI,,43.824287,-88.249763,,,,﻿ivo_prass_001,﻿Rev.,﻿Ivo Prass,﻿O.M.C.,,,﻿religious,,,,1867,﻿,﻿,﻿Milwaukee,Milwaukee
﻿mil.wi.0257,﻿convent,﻿Capuchin Convent of Calvary,English,"﻿Stations attended by priests of the convent every Sunday, St. Michael's and St. Joseph's.",﻿(Dotyville P.O.),,﻿Fond du Lac County,﻿Fond du Lac County,,﻿Calvary,﻿WI,,43.824287,-88.249763,,,,﻿sol_feddermann_001,﻿Rev.,﻿Solanus Fedderman,﻿O.M.C.,,,﻿religious,,,,1867,﻿,﻿,﻿Milwaukee,Milwaukee
﻿mil.wi.0257,﻿convent,﻿Capuchin Convent of Calvary,English,"﻿Stations attended by priests of the convent every Sunday, St. Michael's and St. Joseph's.",﻿(Dotyville P.O.),,﻿Fond du Lac County,﻿Fond du Lac County,,﻿Calvary,﻿WI,,43.824287,-88.249763,,,,﻿leo_gauchi_001,﻿Rev.,﻿Leo Gauchi,﻿O.M.C.,,,﻿religious,,,,1867,﻿,﻿,﻿Milwaukee,Milwaukee
﻿mil.wi.0257,﻿convent,﻿Capuchin Convent of Calvary,English,"﻿Stations attended by priests of the convent every Sunday, St. Michael's and St. Joseph's.",﻿(Dotyville P.O.),,﻿Fond du Lac County,﻿Fond du Lac County,,﻿Calvary,﻿WI,,43.824287,-88.249763,,,,﻿fid_steinauer_001,﻿Rev.,﻿Fidelis Steinauer,﻿O.M.C.,,,﻿religious,,,,1867,﻿,﻿,﻿Milwaukee,Milwaukee
﻿mil.wi.0257,﻿convent,﻿Capuchin Convent of Calvary,English,"﻿Stations attended by priests of the convent every Sunday, St. Michael's and St. Joseph's.",﻿(Dotyville P.O.),,﻿Fond du Lac County,﻿Fond du Lac County,,﻿Calvary,﻿WI,,43.824287,-88.249763,,,,﻿ant_rottensteiner_001,﻿Rev.,﻿Ant. Rottensteiner,﻿O.M.C.,,,﻿religious,,,,1867,﻿,﻿,﻿Milwaukee,Milwaukee
﻿mil.wi.0259,"﻿convent, house, novitiate",﻿Convent of the School Sisters of Notre Dame,English,"﻿Mother House and Novitiate...mission houses, 58; with 460 sisters, having under their charge throughout the United States, 19,892 parish school children, over 10[0]7 orphans, and 450 boarders.",﻿Corner of Milwaukee and Knapp streets,,,,﻿Milwaukee,,﻿WI,,43.04798,-87.906633,,,,,﻿Sister,﻿Mary Caroline,,﻿Superioress,,,,﻿Under the charge of the School Sisters of Notre Dame,,1867,﻿,﻿,﻿Milwaukee,Milwaukee
﻿mil.wi.0259,"﻿convent, house, novitiate",﻿Convent of the School Sisters of Notre Dame,English,"﻿Mother House and Novitiate...mission houses, 58; with 460 sisters, having under their charge throughout the United States, 19,892 parish school children, over 10[0]7 orphans, and 450 boarders.",﻿Corner of Milwaukee and Knapp streets,,﻿,,﻿Milwaukee,,﻿WI,,43.04798,-87.906633,,,,,,,,,,﻿religious,,﻿Under the charge of the School Sisters of Notre Dame,,1867,﻿,﻿,﻿Milwaukee,Milwaukee
﻿mil.wi.0259,"﻿convent, house, novitiate",﻿Convent of the School Sisters of Notre Dame,English,"﻿Mother House and Novitiate...mission houses, 58; with 460 sisters, having under their charge throughout the United States, 19,892 parish school children, over 10[0]7 orphans, and 450 boarders.",﻿Corner of Milwaukee and Knapp streets,,﻿,,﻿Milwaukee,,﻿WI,,43.04798,-87.906633,,,,,,,,,,﻿religious,﻿52 religious,﻿Under the charge of the School Sisters of Notre Dame,,1867,﻿,﻿,﻿Milwaukee,Milwaukee
﻿mil.wi.0299&0299_02,"﻿house, novitiate",﻿Convent of the Sisters of the Dominican Order,English,﻿Dedicated to St. Catherine of Sienna,,,,﻿Racine County,﻿Racine,﻿Racine,﻿WI,,42.718221,-87.785523,,,,,﻿Sister,﻿Mary Hyacintha,,﻿Prioress,,﻿religious,﻿67 novices,,,1867,﻿,﻿,﻿Milwaukee,Milwaukee
﻿mil.wi.0299&0299_02,"﻿house, novitiate",﻿Convent of the Sisters of the Dominican Order,English,﻿Dedicated to St. Catherine of Sienna,,,﻿,﻿Racine County,﻿Racine,﻿Racine,﻿WI,,42.718221,-87.785523,,,,,,,,,,﻿religious,﻿60 postulants,,,1867,﻿,﻿,﻿Milwaukee,Milwaukee
﻿mil.wi.0292,﻿house,﻿House of Sisters of the Third Order of St. Dominic,English,,,,﻿Lafayette County,,﻿Benton,,﻿WI,,42.567259,-90.378844,,,,,﻿Sister,﻿M. Regina,,﻿Superioress,,﻿religious,﻿9 professed sisters,,,1867,﻿,﻿,﻿Milwaukee,Milwaukee
﻿mil.wi.0292,﻿house,﻿House of Sisters of the Third Order of St. Dominic,English,,,,﻿Lafayette County,,﻿Benton,,﻿WI,,42.567259,-90.378844,,,,,,,,,,﻿religious,﻿6 novices,,,1867,﻿,﻿,﻿Milwaukee,Milwaukee
﻿mil.wi.0429,﻿house,﻿House of Brothers of the Third Order of St. Francis Seraph,English,,"﻿Nojoshing, near Milwaukee, attached to the Ecclesiastical Seminary",,,,,,﻿WI,,42.979525,-87.867348,,,,,,,,,,﻿religious,﻿26 sisters,,,1867,﻿,﻿,﻿Milwaukee,Milwaukee
﻿mil.wi.0282,"﻿house, novitiate",﻿Sisters of the Third Order of St. Francis Seraph,English,"﻿Mother House and Novitiate, dedicated to Blessed Collects.","﻿Near Jefferson, Jefferson Co.",,﻿,﻿Jefferson County,﻿Jefferson,﻿Jefferson,﻿WI,,43.002448,-88.780225,,,,,﻿Mother,﻿Antonia,,﻿Superioress,,﻿religious,﻿14 novices,,,1867,﻿,﻿,﻿Milwaukee,Milwaukee
﻿mil.wi.0282,"﻿house, novitiate",﻿Sisters of the Third Order of St. Francis Seraph,English,"﻿Mother House and Novitiate, dedicated to Blessed Collects.","﻿Near Jefferson, Jefferson Co.",,﻿,﻿Jefferson County,﻿Jefferson,﻿Jefferson,﻿WI,,43.002448,-88.780225,,,,,,,,,,﻿entire community member,﻿4 brothers,,,1867,﻿,﻿,﻿Milwaukee,Milwaukee
﻿mil.wi.0282,"﻿house, novitiate",﻿Sisters of the Third Order of St. Francis Seraph,English,"﻿Mother House and Novitiate, dedicated to Blessed Collects.","﻿Near Jefferson, Jefferson Co.",,﻿,﻿Jefferson County,﻿Jefferson,﻿Jefferson,﻿WI,,43.002448,-88.780225,,,,,,,,,,﻿entire community member,﻿64 members of whole community,,,1867,﻿,﻿,﻿Milwaukee,Milwaukee
﻿mil.wi.0282,"﻿house, novitiate",﻿Sisters of the Third Order of St. Francis Seraph,English,"﻿Mother House and Novitiate, dedicated to Blessed Collects.","﻿Near Jefferson, Jefferson Co.",,﻿,﻿Jefferson County,﻿Jefferson,﻿Jefferson,﻿WI,,43.002448,-88.780225,,,,,,,,,,﻿religious,﻿28 professed sisters,,,1867,﻿,﻿,﻿Milwaukee,Milwaukee
﻿mil.wi.0305,"﻿house, convent",﻿St. Agnes' Community,English,,,,﻿Washington County,﻿Washington County,﻿Barton,﻿Barton,﻿WI,,43.43789,-88.185299,,,,,﻿St.,﻿Mary Agnes,,﻿Superioress,,﻿religious,﻿16 novices,,,1867,﻿,﻿,﻿Milwaukee,Milwaukee
﻿mil.wi.0318,﻿seminary,﻿Ecclesiastical Seminary of St. Francis of Sales,English,,﻿Near Milwaukee,,,﻿Milwaukee County,﻿Nojoshing,,﻿WI,,42.979525,-87.867348,,,,﻿mic_heiss_001,﻿Rev.,﻿M. Heiss,,"﻿Rector and Professor of Canon Law, Scripture, and Church History",,﻿religious,﻿20 postulants,,,1867,﻿,﻿,﻿Milwaukee,Milwaukee
﻿mil.wi.0318,﻿seminary,﻿Ecclesiastical Seminary of St. Francis of Sales,English,,﻿Near Milwaukee,,﻿,﻿Milwaukee County,﻿Nojoshing,,﻿WI,,42.979525,-87.867348,,,,﻿jos_salzmann_001,﻿Rev. Dr.,﻿Jos. Salzmann,,﻿Procurator and Professor of Homiletics,,﻿religious,"﻿18 Sisters, employed in keeping school",,,1867,﻿,﻿,﻿Milwaukee,Milwaukee
﻿mil.wi.0318,﻿seminary,﻿Ecclesiastical Seminary of St. Francis of Sales,English,,﻿Near Milwaukee,,﻿,﻿Milwaukee County,﻿Nojoshing,,﻿WI,,42.979525,-87.867348,,,,﻿jos_sadler_002,﻿Rev.,﻿Jos. Sadler,,﻿Professor of Moral Theology,,﻿student,"﻿156 students, of whom 15 study philosophy, and 57 theology; the rest, the preparatory branches.",,,1867,﻿,﻿,﻿Milwaukee,Milwaukee
﻿mil.wi.0318,﻿seminary,﻿Ecclesiastical Seminary of St. Francis of Sales,English,,﻿Near Milwaukee,,﻿,﻿Milwaukee County,﻿Nojoshing,,﻿WI,,42.979525,-87.867348,,,,﻿m_gernbauer_001,﻿Rev.,﻿M. Gernbauer,,﻿Professor of Classics,,﻿student,"﻿156 students, of whom 15 study philosophy, and 57 theology; the rest, the preparatory branches.",,,1867,﻿,﻿,﻿Milwaukee,Milwaukee
﻿mil.wi.0318,﻿seminary,﻿Ecclesiastical Seminary of St. Francis of Sales,English,,﻿Near Milwaukee,,﻿,﻿Milwaukee County,﻿Nojoshing,,﻿WI,,42.979525,-87.867348,,,,﻿ch_wapelhorst_001,﻿Rev.,﻿Ch. Wapelhorst,,﻿Professor of Dogmatic Theology and Liturgy,,﻿student,"﻿156 students, of whom 15 study philosophy, and 57 theology; the rest, the preparatory branches.",,,1867,﻿,﻿,﻿Milwaukee,Milwaukee
﻿mil.wi.0318,﻿seminary,﻿Ecclesiastical Seminary of St. Francis of Sales,English,,﻿Near Milwaukee,,﻿,﻿Milwaukee County,﻿Nojoshing,,﻿WI,,42.979525,-87.867348,,,,﻿k_c_flasch_001,﻿Rev.,﻿K. Flash,,﻿Professor and Disciplinarian,,﻿student,"﻿156 students, of whom 15 study philosophy, and 57 theology; the rest, the preparatory branches.",,,1867,﻿,﻿,﻿Milwaukee,Milwaukee
﻿mil.wi.0318,﻿seminary,﻿Ecclesiastical Seminary of St. Francis of Sales,English,,﻿Near Milwaukee,,﻿,﻿Milwaukee County,﻿Nojoshing,,﻿WI,,42.979525,-87.867348,,,,﻿a_birkhaeuser_001,﻿Rev.,﻿A. Birkhauser,,﻿Professor of Philosophy and Greek,,﻿student,"﻿156 students, of whom 15 study philosophy, and 57 theology; the rest, the preparatory branches.",,,1867,﻿,﻿,﻿Milwaukee,Milwaukee
﻿mil.wi.0318,﻿seminary,﻿Ecclesiastical Seminary of St. Francis of Sales,English,,﻿Near Milwaukee,,﻿,﻿Milwaukee County,﻿Nojoshing,,﻿WI,,42.979525,-87.867348,,,,﻿a_gigg_001,﻿Rev.,﻿A. Gigg,,﻿Professor of Classics and German,,﻿student,"﻿156 students, of whom 15 study philosophy, and 57 theology; the rest, the preparatory branches.",,,1867,﻿,﻿,﻿Milwaukee,Milwaukee
﻿mil.wi.0318,﻿seminary,﻿Ecclesiastical Seminary of St. Francis of Sales,English,,﻿Near Milwaukee,,﻿,﻿Milwaukee County,﻿Nojoshing,,﻿WI,,42.979525,-87.867348,,,,﻿jos_mader_001,﻿Rev.,﻿Jos. Mader,,﻿Professor of Latin and Arithmetic,,﻿student,"﻿156 students, of whom 15 study philosophy, and 57 theology; the rest, the preparatory branches.",,,1867,﻿,﻿,﻿Milwaukee,Milwaukee
﻿mil.wi.0318,﻿seminary,﻿Ecclesiastical Seminary of St. Francis of Sales,English,,﻿Near Milwaukee,,﻿,﻿Milwaukee County,﻿Nojoshing,,﻿WI,,42.979525,-87.867348,,,,﻿fre_katzer_001,﻿Rev.,﻿Fred Katzer,,﻿Professor of Mathematics and Natural Philosophy,,﻿student,"﻿156 students, of whom 15 study philosophy, and 57 theology; the rest, the preparatory branches.",,,1867,﻿,﻿,﻿Milwaukee,Milwaukee
﻿mil.wi.0318,﻿seminary,﻿Ecclesiastical Seminary of St. Francis of Sales,English,,﻿Near Milwaukee,,﻿,﻿Milwaukee County,﻿Nojoshing,,﻿WI,,42.979525,-87.867348,,,,,﻿Mr.,﻿J. B. Darward,,﻿Professor of the English Language and of Rhetoric,,﻿student,"﻿156 students, of whom 15 study philosophy, and 57 theology; the rest, the preparatory branches.",,,1867,﻿,﻿,﻿Milwaukee,Milwaukee
﻿mil.wi.0318,﻿seminary,﻿Ecclesiastical Seminary of St. Francis of Sales,English,,﻿Near Milwaukee,,﻿,﻿Milwaukee County,﻿Nojoshing,,﻿WI,,42.979525,-87.867348,,,,﻿t_m_gartner_001,﻿Mr.,﻿J. M. Gartner,,﻿Professor of Latin and Arithmetic,,﻿student,"﻿156 students, of whom 15 study philosophy, and 57 theology; the rest, the preparatory branches.",,,1867,﻿,﻿,﻿Milwaukee,Milwaukee
