instID,church_type,instName,language,instNote,placeName,region,county_orig,county_reg,city_orig,city_reg,state_orig,state_reg,latitude,longitude,attendingInstID,attendingChurch,attendingChurchFrequency,persID,persTitle,persName,persSuffix,persRole,persNote,memberType,member,affiliated,order,year,attendingPersID,attendingChurchNote,diocese,diocese_reg
﻿mil.wi.0001,﻿cathedral,﻿St. John's Cathedral,English,,,,,﻿Milwaukee County,﻿Milwaukee,﻿Milwaukee,﻿WI,,43.041805,-87.904118,,,,﻿j_m_henni_001,﻿Rt. Rev.,﻿J. M. Henni,﻿D.D.,,,,,,,1860,﻿,﻿,﻿Milwaukee,Milwaukee
﻿mil.wi.0001,﻿cathedral,﻿St. John's Cathedral,English,,,,,﻿Milwaukee County,﻿Milwaukee,﻿Milwaukee,﻿WI,,43.041805,-87.904118,,,,﻿m_kundig_001,﻿Very Rev.,﻿M. Kundig,,,,,,,,1860,﻿,﻿,﻿Milwaukee,Milwaukee
﻿mil.wi.0001,﻿cathedral,﻿St. John's Cathedral,English,,,,,﻿Milwaukee County,﻿Milwaukee,﻿Milwaukee,﻿WI,,43.041805,-87.904118,,,,﻿p_j_donaghoe_001,﻿Rev.,﻿P. Donaghoe,,,,,,,,1860,﻿,﻿,﻿Milwaukee,Milwaukee
﻿mil.wi.0001,﻿cathedral,﻿St. John's Cathedral,English,,,,,﻿Milwaukee County,﻿Milwaukee,﻿Milwaukee,﻿WI,,43.041805,-87.904118,,,,﻿p_ofarrell_001,﻿Rev.,﻿P. O'Farrell,,,,,,,,1860,﻿,﻿,﻿Milwaukee,Milwaukee
﻿mil.wi.0002,﻿church,﻿St. Mary's,English,,,,,﻿Milwaukee County,﻿Milwaukee,﻿Milwaukee,﻿WI,,43.042173,-87.907964,,,,﻿f_etschmann_001,﻿Rev.,﻿F. Etschmann,,,,,,,,1860,﻿,﻿,﻿Milwaukee,Milwaukee
﻿mil.wi.0003,﻿church,﻿St. Gall's,English,,,,,﻿Milwaukee County,﻿Milwaukee,﻿Milwaukee,﻿WI,,43.066124,-87.913974,,,,﻿f_x_de-coen_002,﻿Rev.,﻿F. X. De Coen,﻿S.J.,,,,,,,1860,﻿,﻿,﻿Milwaukee,Milwaukee
﻿mil.wi.0003,﻿church,﻿St. Gall's,English,,,,,﻿Milwaukee County,﻿Milwaukee,﻿Milwaukee,﻿WI,,43.066124,-87.913974,,,,﻿d_kenny_002,﻿Rev.,﻿D. Kenny,﻿S.J.,,,,,,,1860,﻿,﻿,﻿Milwaukee,Milwaukee
﻿mil.wi.0004,﻿church,﻿Holy Trinity,English,,,,,﻿Milwaukee County,﻿Milwaukee,﻿Milwaukee,﻿WI,,43.025057,-87.91582,,,,﻿j_conrad_001,﻿Rev.,﻿J. Conrad,,,,,,,,1860,﻿,﻿,﻿Milwaukee,Milwaukee
﻿mil.wi.0005,﻿church,﻿St. Joseph's,English,,,,,﻿Milwaukee County,﻿Milwaukee,﻿Milwaukee,﻿WI,,43.04987,-87.926109,,,,﻿j_holzhauer_001,﻿Rev.,﻿J. Holzhauer,,,,,,,,1860,﻿,﻿,﻿Milwaukee,Milwaukee
﻿mil.wi.0006,﻿church,﻿St. Peter's,English,,,,,﻿Milwaukee County,﻿Milwaukee,﻿Milwaukee,﻿WI,,43.044007,-87.905226,﻿mil.wi.0001,﻿Attended from the Cathedral,,,,,,,,,,,,1860,﻿,﻿,﻿Milwaukee,Milwaukee
﻿mil.wi.0010,﻿church,﻿St. Mary's of the Holy Angels,English,,,,,﻿Milwaukee County,﻿Milwaukee,﻿Milwaukee,﻿WI,,43.047156,-87.907544,,,,﻿f_x_krautbauer_001,﻿Rev.,﻿F. X. Krautbauer,,,,,,,,1860,﻿,﻿,﻿Milwaukee,Milwaukee
﻿mil.wi.0011,﻿church,﻿St. Patrick's,English,,,,﻿Sheboygan County,﻿Sheboygan County,﻿Abbottown,,﻿WI,,43.689523,-87.618638,,﻿Attended by Rev. F. Fusseder,,﻿f_fusseder_001,﻿Rev.,﻿F. Fusseder,,,,,,,,1860,﻿,﻿,﻿Milwaukee,Milwaukee
﻿mil.wi.0013,﻿church,﻿St. Anthony's,English,,,,﻿Washington County,﻿Washington County,﻿Addison,﻿Addison,﻿WI,,43.442793,-88.340515,,,,﻿c_rehrl_001,﻿Rev.,﻿C. Rehrl,,,,,,,,1860,﻿,﻿,﻿Milwaukee,Milwaukee
﻿mil.wi.0014,﻿church,﻿SS. Peter and Paul,English,,,,﻿Washington County,﻿Washington County,﻿Addison,﻿Addison,﻿WI,,43.446284,-88.393623,,,,﻿c_rehrl_001,﻿Rev.,﻿C. Rehrl,,,,,,,,1860,﻿,﻿,﻿Milwaukee,Milwaukee
﻿mil.wi.0016,﻿church,﻿St. Martin's,English,,,,﻿Fond du Lac County,﻿Fond du Lac County,﻿Ashford,﻿Ashford,﻿WI,,43.586939,-88.370656,,,,﻿m_pickler_001,﻿Rev.,﻿M. Pickler,,,,,,,,1860,﻿,﻿,﻿Milwaukee,Milwaukee
﻿mil.wi.0465,﻿church,﻿St. Kilian's,English,,,,﻿Fond du Lac County,,﻿Ashford,,﻿WI,,,,,,,﻿m_pickler_001,﻿Rev.,﻿M. Pickler,,,,,,,,1860,﻿,﻿,﻿Milwaukee,Milwaukee
﻿mil.wi.0460,﻿church,﻿St. Joseph's,English,,,,﻿St. Croix County,,﻿Apple River,,﻿WI,,,,,﻿Attended by Rev. N. Mignault,,﻿n_mignault_002,﻿Rev.,﻿N. Mignault,,,,,,,,1860,﻿,﻿,﻿Milwaukee,Milwaukee
﻿mil.wi.0018,﻿church,﻿Immaculate Conception,English,,,,﻿Washington County,﻿Washington County,﻿Barton,﻿Barton,﻿WI,,43.460556,-88.236382,,,,﻿c_rehrl_001,﻿Rev.,﻿C. Rehrl,,,,,,,,1860,﻿,﻿,﻿Milwaukee,Milwaukee
﻿mil.wi.0481,﻿church,﻿St. Adelia's,English,,,,﻿Keewannee County,,﻿Belgium,,﻿WI,,,,,﻿Attended by Fathers of C.S.C.,,,,,,,,,,,,1860,﻿,﻿,﻿Milwaukee,Milwaukee
﻿mil.wi.0020,﻿church,﻿St. Thomas',English,,,,﻿Rock County,﻿Rock County,﻿Beloit,﻿Beloit,﻿WI,,42.499446,-89.027951,,,,﻿tho_smith_001,﻿Rev.,﻿Thomas Smith,,,,,,,,1860,﻿,﻿,﻿Milwaukee,Milwaukee
﻿mil.wi.0019,﻿church,﻿St. Mathias',English,,,,﻿Milwaukee County,﻿Milwaukee County,﻿Beloit Road,﻿West Milwaukee,﻿WI,,42.985763,-88.029982,,,,﻿m_polack_001,﻿Rev.,﻿M. Polack,,,,,,,,1860,﻿,﻿,﻿Milwaukee,Milwaukee
﻿lac.wi.0005,﻿church,﻿St. Boniface's,English,,,,﻿La Crosse County,﻿La Crosse County,﻿Buchanan,﻿Washington,﻿WI,,43.813775,-91.251902,,﻿Attended by Rev. H. Tappert,,﻿h_tappert_001,﻿Rev.,﻿H. Tappert,,,,,,,,1860,﻿,﻿,﻿Milwaukee,Milwaukee
﻿mil.wi.0326,﻿church,﻿St. Pius',English,,,,﻿Columbia County,,﻿Briggsville,,﻿WI,,43.655,-89.585278,,,,﻿m_hobbs_001,﻿Rev.,﻿M. Hobbs,,,,,,,,1860,﻿,﻿,﻿Milwaukee,Milwaukee
﻿mil.wi.0030,﻿church,﻿St. Sebastian's,English,,,,﻿Racine County,﻿Racine County,﻿Burlington,﻿Burlington,﻿WI,,42.675796,-88.281435,,,,﻿m_wisbauer_001,﻿Rev.,﻿M. Wisbauer,,,,,,,,1860,﻿,﻿,﻿Milwaukee,Milwaukee
﻿mil.wi.0031,﻿church,﻿St. Patrick's,English,,,,﻿Kenosha County,﻿Kenosha County,﻿Brighton,﻿Brighton,﻿WI,,42.627816,-88.100668,,,,﻿m_beiter_001,﻿Rev.,﻿M. Beiter,,,,,,,,1860,﻿,﻿,﻿Milwaukee,Milwaukee
﻿mil.wi.0033,﻿church,﻿St. Dominic's,English,,,,﻿Waukesha County,﻿Waukesha County,﻿Brookfield,﻿Brookfield,﻿WI,,43.060935,-88.126055,,﻿Attended by Rev. P. McGuerk,,﻿p_mcguerk_001,﻿Rev.,﻿P. McGuerk,,,,,,,,1860,﻿,﻿,﻿Milwaukee,Milwaukee
﻿mil.wi.0024,﻿church,﻿Holy Cross,English,,,,﻿Ozaukee County,﻿Ozaukee County,﻿Belgium,﻿Belgium,﻿WI,,43.47028,-87.89556,,,,﻿m_deisenrieder_001,﻿Rev.,﻿M. Deisenrieder,,,,,,,,1860,﻿,﻿,﻿Milwaukee,Milwaukee
﻿mil.wi.0025,﻿church,﻿St. Mary's,English,,,,﻿Ozaukee County,﻿Ozaukee County,﻿Belgium,﻿Belgium,﻿WI,,43.499721,-87.850367,,,,﻿m_deisenrieder_001,﻿Rev.,﻿M. Deisenrieder,,,,,,,,1860,﻿,﻿,﻿Milwaukee,Milwaukee
﻿mil.wi.0021,﻿church,﻿St. Peter's,English,,,,﻿Dodge County,﻿Dodge County,﻿Beaver Dam,﻿Beaver Dam,﻿WI,,43.451203,-88.836304,,,,﻿chs_shraudenbach_001,﻿Rev.,﻿Chs. Shraudenbach,,,,,,,,1860,﻿,﻿,﻿Milwaukee,Milwaukee
﻿mil.wi.0035,﻿church,﻿St. John's,English,,,,﻿Fond du Lac County,﻿Fond du Lac County,﻿Byron,﻿Byron,﻿WI,,43.674434,-88.450704,,﻿Attended by Rev. L. Dael,,﻿l_dael_001,﻿Rev.,﻿L. Dael,,,,,,,,1860,﻿,﻿,﻿Milwaukee,Milwaukee
﻿gre.wi.0033,﻿church,﻿Exaltation of the Holy Cross,English,,,,﻿Brown County,,﻿Bay Settlement,,﻿WI,,44.553625,-87.889262,,,,﻿e_daems_002,﻿Very Rev.,﻿E. Daems,﻿C.S.C.,,,,,,,1860,﻿,﻿,﻿Milwaukee,Milwaukee
﻿gre.wi.0033,﻿church,﻿Exaltation of the Holy Cross,English,,,,﻿Brown County,,﻿Bay Settlement,,﻿WI,,44.553625,-87.889262,,,,﻿j_h_nuyts_001,﻿Rev.,﻿J. H. Nuyts,﻿C.S.C.,,,,,,,1860,﻿,﻿,﻿Milwaukee,Milwaukee
﻿gre.wi.0033,﻿church,﻿Exaltation of the Holy Cross,English,,,,﻿Brown County,,﻿Bay Settlement,,﻿WI,,44.553625,-87.889262,,,,﻿w_c_verhoeff_001,﻿Rev.,﻿W. C. Verhoeff,﻿C.S.C.,,,,,,,1860,﻿,﻿,﻿Milwaukee,Milwaukee
﻿gre.wi.0033,﻿church,﻿Exaltation of the Holy Cross,English,,,,﻿Brown County,,﻿Bay Settlement,,﻿WI,,44.553625,-87.889262,,,,﻿a_aarts_001,﻿Rev.,﻿A. Aarts,﻿C.S.C.,,,,,,,1860,﻿,﻿,﻿Milwaukee,Milwaukee
﻿mil.wi.0026,﻿church,﻿St. Patrick's,English,,,,﻿Lafayette County,﻿Lafayette County,﻿Benton,﻿Benton,﻿WI,,42.567763,-90.378652,,,,﻿s_mazzuchelli_001,﻿Rev.,﻿S. Mazzuchelli,﻿O.S.D.,,,,,,,1860,﻿,﻿,﻿Milwaukee,Milwaukee
﻿mil.wi.0027,﻿church,﻿St. Joseph's,English,,,,﻿Marquette County,﻿Green Lake County,﻿Berlin,﻿Berlin,﻿WI,,43.977705,-88.941571,,,,﻿e_gray_001,﻿Rev.,﻿E. Gray,,,,,,,,1860,﻿,﻿,﻿Milwaukee,Milwaukee
﻿lac.wi.0069,﻿church,﻿St. Mary's,English,,,,﻿La Crosse County,,﻿Boswick,,﻿WI,,43.728263,-91.151084,,﻿Attended by Rev. H. Tappert,,﻿h_tappert_001,﻿Rev.,﻿H. Tappert,,,,,,,,1860,﻿,﻿,﻿Milwaukee,Milwaukee
﻿lac.wi.0005,﻿church,﻿St. Joseph's,English,,,,﻿La Crosse County,﻿La Crosse County,﻿Buchanan,﻿Washington,﻿WI,,43.813775,-91.251902,,﻿Attended from La Crosse,,,,,,,,,,,,1860,﻿,﻿,﻿Milwaukee,Milwaukee
﻿mil.wi.0036,﻿church,﻿St. Louis,English,,,,﻿Racine County,﻿Racine County,﻿Calledonia,﻿Caledonia,﻿WI,,42.807796,-87.924248,,﻿Attended from Laketown,,,,,,,,,,,,1860,﻿,﻿,﻿Milwaukee,Milwaukee
﻿mil.wi.0037,﻿church,﻿Holy Family,English,,,,﻿Racine County,﻿Racine County,﻿Calledonia,﻿Caledonia,﻿WI,,42.800861,-87.836661,,﻿Attended by F. X. Sailer,,,,﻿F. X. Sailer,,,,,,,,1860,﻿,﻿,﻿Milwaukee,Milwaukee
﻿mil.wi.0039,﻿church,﻿St. Mary's,English,,,,﻿Sheboygan County,﻿Sheboygan County,﻿Cascade,﻿Cascade,﻿WI,,43.658329,-88.007038,,,,﻿f_fusseder_001,﻿Rev.,﻿F. Fusseder,,,,,,,,1860,﻿,﻿,﻿Milwaukee,Milwaukee
﻿mil.wi.0040,﻿church,﻿St. Charles,English,,,,﻿Grant County,﻿Grant County,﻿Cassville,﻿Cassville,﻿WI,,42.715431,-90.974686,,﻿Attended by Rev. M. W. Gibson,,﻿m_w_gibson_001,﻿Rev.,﻿M. W. Gibson,,,,,,,,1860,﻿,﻿,﻿Milwaukee,Milwaukee
﻿mil.wi.0041,﻿church,﻿St. Francis Borgia,English,,,,﻿Ozaukee County,﻿Ozaukee County,﻿Cedarsburgh,﻿Cedarburg,﻿WI,,43.325764,-88.006679,,,,﻿w_dougherty_001,﻿Rev.,﻿W. Dougherty,,,,,,,,1860,﻿,﻿,﻿Milwaukee,Milwaukee
﻿mil.wi.0134,﻿church,﻿St. Mary's,English,,,,﻿Calumet County,,﻿Calumet,,﻿WI,,43.910993,-88.203431,,,,﻿j_stucky_001,﻿Rev.,﻿J. Stucky,,,,,,,,1860,﻿,﻿,﻿Milwaukee,Milwaukee
﻿gre.wi.0008,﻿church,﻿St. Maximilian's,English,,,,﻿Calumet County,﻿Calumet County,﻿Chilton,﻿Chilton,﻿WI,,44.028936,-88.166224,,,,﻿j_mcmahon_003,﻿Rev.,﻿J. McMahon,,,,,,,,1860,﻿,﻿,﻿Milwaukee,Milwaukee
﻿mil.wi.0047,﻿church,﻿St. Isidore's,English,,,,﻿Dodge County,﻿Dodge County,﻿Clyman,﻿Clyman,﻿WI,,43.308947,-88.718006,,﻿Attended by Rev. F. Uhlmeyer,,﻿f_uhlmeyer_001,﻿Rev.,﻿F. Uhlmeyer,,,,,,,,1860,﻿,﻿,﻿Milwaukee,Milwaukee
﻿lac.wi.0007,﻿church,﻿St. Mary's,English,,,,﻿Chippewa County,﻿Chippewa County,﻿Chippewa,﻿Chippewa Falls,﻿WI,,44.936905,-91.392935,,﻿Attended by Rev. A. Mignault,,﻿a_mignault_001,﻿Rev.,﻿A. Mignault,,,,,,,,1860,﻿,﻿,﻿Milwaukee,Milwaukee
﻿mil.wi.0334,﻿church,﻿Holy Family,English,,,,﻿Manitowoc County,,﻿Cooperstown,,﻿WI,,44.312778,-87.774444,,﻿Attended by Rev. J. Maly,,﻿j_maly_002,﻿Rev.,﻿J. Maly,,,,,,,,1860,﻿,﻿,﻿Milwaukee,Milwaukee
﻿mil.wi.0051,﻿church,﻿St. Mary's,English,,,,﻿Dane County,﻿Dane County,﻿Cross Plains,﻿Cross Plains,﻿WI,,43.495559,-89.310633,,,,﻿mat_garnbauer_001,﻿Rev.,﻿Math. Gernbauer,,,,,,,,1860,﻿,﻿,﻿Milwaukee,Milwaukee
﻿lac.wi.0094,﻿church,﻿All Saints,English,,,,﻿Sauk County,,﻿Delona,,﻿WI,,43.595825,-89.934587,,﻿Attended by Rev. P. Montague,,﻿p_montague_002,﻿Rev.,﻿P. Montague,,,,,,,,1860,﻿,﻿,﻿Milwaukee,Milwaukee
﻿mil.wi.0056,﻿church,﻿St. Andrew's,English,﻿vacant,,,﻿Walworth County,﻿Walworth County,﻿Delavan,﻿Delavan,﻿WI,,42.637216,-88.639119,,,,,,,,,,,,,,1860,﻿,﻿,﻿Milwaukee,Milwaukee
﻿mil.wi.0057,﻿church,﻿St. Kieran's,English,,,,﻿Columbia County,﻿Columbia County,﻿Dekora,﻿Dekkora,﻿WI,,43.457484,-89.46762,,﻿Attended from Portage City,,,,,,,,,,,,1860,﻿,﻿,﻿Milwaukee,Milwaukee
﻿mil.wi.0337,﻿church,﻿St. Ignatius',English,,,,﻿Brown County,,﻿Depére,,﻿WI,,44.447494,-88.05865,,﻿Attended from the Bay,,,,,,,,,,,,1860,﻿,﻿,﻿Milwaukee,Milwaukee
﻿mil.wi.0353,﻿church,﻿St. Charles,English,,,,﻿Winnebago County,,﻿Doty's Island,,﻿WI,,,,,,,﻿s_seif_001,﻿Rev.,﻿S. Seif,,,,,,,,1860,﻿,﻿,﻿Milwaukee,Milwaukee
﻿mil.wi.0060,﻿church,﻿St. Thaddeus,English,﻿vacant,,,﻿Walworth County,﻿Walworth County,﻿East Troy,﻿East Troy,﻿WI,,42.785292,-88.405096,,,,,,,,,,,,,,1860,﻿,﻿,﻿Milwaukee,Milwaukee
﻿mil.wi.0062,﻿church,[Unnamed Institution],English,,,,﻿Waukesha County,﻿Waukesha County,﻿Eagle Centre,﻿Eagle,﻿WI,,43.00726,-88.323931,,﻿Attended by Rev. R. Dumphy,,﻿r_dumphy_001,﻿Rev.,﻿R. Dumphy,,,,,,,,1860,﻿,﻿,﻿Milwaukee,Milwaukee
﻿lac.wi.0009,﻿church,﻿St. Peter's,English,,,,﻿Eau Claire County,﻿Eau Claire County,﻿Eau Claire,﻿Eau Claire,﻿WI,,44.811349,-91.498494,,﻿Attended by Rev. A. Mignault,,﻿a_mignault_001,﻿Rev.,﻿A. Mignault,,,,,,,,1860,﻿,﻿,﻿Milwaukee,Milwaukee
﻿mil.wi.0070,﻿church,﻿St. Columbkille,English,﻿vacant,,,﻿Dodge County,,﻿Elba,,﻿WI,,43.307257,-88.928573,,,,,,,,,,,,,,1860,﻿,﻿,﻿Milwaukee,Milwaukee
﻿mil.wi.0069,﻿church,[Unnamed Institution],English,,,,﻿Fond du Lac County,﻿Fond du Lac County,﻿Eden,﻿Eden,﻿WI,,43.693603,-88.360936,,﻿Attended by Rev. L. Dael,,﻿l_dael_001,﻿Rev.,﻿L. Dael,,,,,,,,1860,﻿,﻿,﻿Milwaukee,Milwaukee
﻿lac.wi.0011,﻿church,﻿St. Patrick's,English,,,,﻿St. Croix County,﻿St. Croix County,﻿Erin,﻿Erin Prairie,﻿WI,,45.067181,-92.448595,,﻿Attended from Hudson,,,,,,,,,,,,1860,﻿,﻿,﻿Milwaukee,Milwaukee
﻿mil.wi.0071,﻿church,﻿St. Patrick's,English,,,,﻿Washington County,﻿Washington County,﻿Erin,﻿Erin,﻿WI,,43.22085,-88.343362,,﻿By Rev. E. Tiernan,,﻿e_tiernan_001,﻿Rev.,﻿E. Tiernan,,,,,,,,1860,﻿,﻿,﻿Milwaukee,Milwaukee
﻿mil.wi.0065,﻿church,﻿St. Rose's,English,,,,﻿Lafayette County,﻿La Fayette County,﻿Elk Grove,﻿Elk Grove,﻿WI,,42.671664,-90.390961,,﻿Attended by Rev. S. Mazzuchelli,,﻿s_mazzuchelli_001,﻿Rev.,﻿S. Mazzuchelli,,,,,,,,1860,﻿,﻿,﻿Milwaukee,Milwaukee
﻿mil.wi.0083,﻿church,﻿St. Nicholas',English,﻿vacant,,,﻿Ozaukee County,﻿Ozaukee County,﻿Fredonia,﻿Fredonia,﻿WI,,43.470555,-87.950646,,,,,,,,,,,,,,1860,﻿,﻿,﻿Milwaukee,Milwaukee
﻿mil.wi.0084,﻿church,﻿Mother of Dolors,English,﻿vacant,,,﻿Ozaukee County,﻿Ozaukee County,﻿Fredonia,﻿Fredonia,﻿WI,,42.670842,-89.209004,,﻿Attended by Rev. M. Haslbauer,,﻿m_haslbauer_001,﻿Rev.,﻿M. Haslbauer,,,,,,,,1860,﻿,﻿,﻿Milwaukee,Milwaukee
﻿mil.wi.0075,﻿church,﻿St. Louis,English,,,,﻿Fond du Lac County,﻿Fond du Lac County,﻿Fond du Lac,﻿Fond du Lac,﻿WI,,43.771582,-88.449415,,,,﻿l_dael_001,﻿Rev.,﻿L. Dael,,,,,,,,1860,﻿,﻿,﻿Milwaukee,Milwaukee
﻿mil.wi.0080,﻿church,﻿St. Virgillus,English,,,,﻿Fond du Lac County,﻿Fond du Lac County,﻿Forresttown,﻿Forest,﻿WI,,43.757996,-88.226643,,﻿Attended by the Fathers of Calvary,,,,,,,,,,,,1860,﻿,﻿,﻿Milwaukee,Milwaukee
﻿gre.wi.0016,﻿church,﻿St. Anne's,English,,,,﻿Manitowoc County,﻿Manitowoc County,﻿French Creek,﻿Kossuth,﻿WI,,44.206988,-87.756651,,﻿Attended by Rev. M. De Beeke,,﻿m_de-beeke_001,﻿Rev.,﻿M. De Beeke,,,,,,,,1860,﻿,﻿,﻿Milwaukee,Milwaukee
﻿gre.wi.0010,﻿church,﻿St. Nicholas',English,,,,﻿Outagamie County,﻿Outagamie County,﻿Freedom,﻿Freedom,﻿WI,,44.386111,-88.288056,,﻿Attended by Rev. M. Peiffer,,﻿m_peiffer_001,﻿Rev.,﻿M. Peiffer,,,,,,,,1860,﻿,﻿,﻿Milwaukee,Milwaukee
﻿mil.wi.0074,﻿church,﻿Holy Mother of Consolation,English,,,,﻿Dane County,﻿Dane County,﻿Fitchburg,﻿Fitchburg,﻿WI,,42.951169,-89.402893,,,,﻿p_murphy_004,﻿Rev.,﻿P. Murphy,,,,,,,,1860,﻿,﻿,﻿Milwaukee,Milwaukee
﻿mil.wi.0081,﻿church,﻿St. Martin',English,,,,﻿Milwaukee County,﻿Milwaukee County,﻿Franklin,﻿Franklin,﻿WI,,42.888627,-88.038419,,,,﻿j_mcgowan_001,﻿Rev.,﻿J. McGowan,,,,,,,,1860,﻿,﻿,﻿Milwaukee,Milwaukee
﻿mil.wi.0082,﻿church,﻿Sacred Hearts of Jesus and Mary,English,,,,﻿Milwaukee County,﻿Milwaukee County,﻿Franklin,﻿Franklin,﻿WI,,43.072467,-87.618638,,,,﻿j_jansen_001,﻿Rev.,﻿J. Jansen,,,,,,,,1860,﻿,﻿,﻿Milwaukee,Milwaukee
﻿mil.wi.0088,﻿church,﻿St. Boniface's,English,﻿vacant,,,﻿Washington County,﻿Washington County,﻿Germantown,﻿Germantown,﻿WI,,43.234715,-88.161571,,,,﻿m_haslbauer_001,﻿Rev.,﻿M. Haslbauer,,,,,,,,1860,﻿,﻿,﻿Milwaukee,Milwaukee
﻿mil.wi.0096,﻿church,﻿St. Mary's,English,,,,﻿Milwaukee County,﻿Milwaukee County,﻿Greenfield,﻿Greenfield,﻿WI,,42.961404,-88.012586,,﻿Attended by Rev. J. McGowan,,﻿j_mcgowan_001,﻿Rev.,﻿J. McGowan,,,,,,,,1860,﻿,﻿,﻿Milwaukee,Milwaukee
﻿mil.wi.0097,﻿church,﻿Holy Sacrament,English,,,,﻿Milwaukee County,﻿Milwaukee County,﻿Greenfield,﻿Greenfield,﻿WI,,42.970611,-88.05414,,﻿Attended by Rev. J. Jansen,,﻿j_jansen_001,﻿Rev.,﻿J. Jansen,,,,,,,,1860,﻿,﻿,﻿Milwaukee,Milwaukee
﻿mil.wi.0089,﻿church,﻿St. Michael's,English,,,,﻿Milwaukee County,﻿Milwaukee County,﻿Greenville,﻿Granville,﻿WI,,43.177508,-88.043978,,﻿Attended by Rev. W. Dougherty,,﻿w_dougherty_001,﻿Rev.,﻿W. Dougherty,,,,,,,,1860,﻿,﻿,﻿Milwaukee,Milwaukee
﻿mil.wi.0091,﻿church,﻿St. Martin's,English,,,,﻿Milwaukee County,﻿Milwaukee County,﻿Greenville,﻿Granville,﻿WI,,43.177508,-88.043978,,﻿Attended by Rev. H. Bergsmann,,﻿h_bergsmann_001,﻿Rev.,﻿H. Bergsmann,,,,,,,,1860,﻿,﻿,﻿Milwaukee,Milwaukee
﻿mil.wi.0087,﻿church,﻿St. Francis of Sales,English,,,,﻿Walworth County,﻿Walworth County,﻿Geneva,﻿Geneva,﻿WI,,42.638605,-88.459767,,,,﻿j_stehlé_001,﻿Rev.,﻿J. Stehlé,,,,,,,,1860,﻿,﻿,﻿Milwaukee,Milwaukee
﻿mil.wi.0094,﻿church,﻿St. Joseph's,English,,,,﻿Ozaukee County,﻿Ozaukee County,﻿Grafton,﻿Grafton,﻿WI,,43.319503,-87.946456,,"﻿Atten'd by Rev. F. Germadinger, O.S.F.",,﻿f_germadinger_001,﻿Rev.,﻿F. Germadinger,﻿O.S.F.,,,,,,,1860,﻿,﻿,﻿Milwaukee,Milwaukee
﻿mil.wi.0095,﻿church,﻿St. Francis Xavier's,English,,,,﻿Ozaukee County,﻿Ozaukee County,﻿Grafton,﻿Grafton,﻿WI,,43.352328,-87.969748,,"﻿Atten'd by Rev. F. Germadinger, O.S.F.",,﻿f_germadinger_001,﻿Rev.,﻿F. Germadinger,﻿O.S.F.,,,,,,,1860,﻿,﻿,﻿Milwaukee,Milwaukee
﻿mil.wi.0090,﻿church,﻿St. Catherine's,English,,,,﻿Milwaukee County,﻿Milwaukee County,﻿Grandville,﻿Granville,﻿WI,,43.177508,-88.043978,,,,﻿j_borgsmann_001,﻿Rev.,﻿J. Borgsmann,,,,,,,,1860,﻿,﻿,﻿Milwaukee,Milwaukee
﻿mil.wi.0341,﻿church,﻿St. John's,English,,,,﻿Brown County,,﻿Green Bay,,﻿WI,,44.508686,-88.015212,,,,﻿j_f_banduel_001,﻿Rev.,﻿J. Fl. Banduel,,,,,,,,1860,﻿,﻿,﻿Milwaukee,Milwaukee
﻿mil.wi.0342,﻿church,﻿St. Mary's,English,﻿vacant,,,﻿Brown County,,﻿Green Bay,,﻿WI,,44.511672,-88.01211,,,,,,,,,,,,,,1860,﻿,﻿,﻿Milwaukee,Milwaukee
﻿gre.wi.0011,﻿church,﻿Holy Cross,English,,,,﻿Wood County,﻿Wood County,﻿Grand Rapids,﻿Grand Rapids,﻿WI,,44.380134,-89.756769,,,,﻿j_a_david_001,﻿Rev.,﻿J. A. David,,,,,,,,1860,﻿,﻿,﻿Milwaukee,Milwaukee
﻿lac.wi.0098,﻿church,﻿St. Mary's of Loretto,English,,,,﻿Sauk County,,﻿Honey Creek,,﻿WI,,43.350551,-89.90521,,﻿Attended by Rev. F. Weinhardt,,﻿f_weinhardt_001,﻿Rev.,﻿F. Weinhardt,,,,,,,,1860,﻿,﻿,﻿Milwaukee,Milwaukee
﻿lac.wi.0013,﻿church,﻿St. James',English,,,,﻿St. Croix County,﻿St. Croix County,﻿Hudson,﻿Hudson,﻿WI,,44.97469,-92.75687,,,,﻿n_mignault_002,﻿Rev.,﻿N. Mignault,,,,,,,,1860,﻿,﻿,﻿Milwaukee,Milwaukee
﻿mil.wi.0108,﻿church,﻿St. Kilian's,English,,,,﻿Walworth County,﻿Walworth County,﻿Hudson,,﻿WI,,42.588688,-88.359873,,﻿Attended by Rev. J. Stehlé,,﻿j_stehlé_001,﻿Rev.,﻿J. Stehlé,,,,,,,,1860,﻿,﻿,﻿Milwaukee,Milwaukee
﻿mil.wi.0101,﻿church,﻿St. John's,English,,,,﻿Dodge County,﻿Dodge County,﻿Herman,﻿Herman,﻿WI,,43.375995,-88.480937,,﻿Attended by Rev. F. Reindl,,﻿f_reindl_001,﻿Rev.,﻿F. Reindl,,,,,,,,1860,﻿,﻿,﻿Milwaukee,Milwaukee
﻿mil.wi.0102,﻿church,﻿St. Joseph's,English,,,,﻿Sheboygan County,﻿Sheboygan County,﻿Herman,﻿Herman,﻿WI,,43.600762,-87.992268,,﻿Attended by Rev. J. B. Smeddink,,﻿j_b_smeddink_001,﻿Rev.,﻿J. B. Smeddink,,,,,,,,1860,﻿,﻿,﻿Milwaukee,Milwaukee
﻿mil.wi.0098,﻿church,﻿St. Lawrence,English,,,,﻿Washington County,﻿Washington County,﻿Hartford,﻿Hartford,﻿WI,,43.354195,-88.348337,,,,﻿f_reindl_001,﻿Rev.,﻿F. Reindl,,,,,,,,1860,﻿,﻿,﻿Milwaukee,Milwaukee
﻿mil.wi.0107,﻿church,﻿St. Anne's,English,,,,﻿Calumet County,﻿Calumet County,﻿Holstein,﻿New Holstein,﻿WI,,43.896117,-88.123037,,﻿Attended by Rev. J. Stucky,,﻿j_stucky_001,﻿Rev.,﻿J. Stucky,,,,,,,,1860,﻿,﻿,﻿Milwaukee,Milwaukee
﻿mil.wi.0346,﻿church,﻿St. Francis Xavier,English,,,,﻿Brown County,,﻿Holland Town,,﻿WI,,,,,,,﻿e_spierings_001,﻿Rev.,﻿E. Spierings,,,,,,,,1860,﻿,﻿,﻿Milwaukee,Milwaukee
﻿mil.wi.0100,﻿church,﻿St. Francis',English,,,,﻿Grant County,﻿Grant County,﻿Hazel Green,﻿Hazel Green,﻿WI,,42.536699,-90.435959,,﻿Visited by Dominican Fathers,,,,,,,,,,,,1860,﻿,﻿,﻿Milwaukee,Milwaukee
﻿mil.wi.0104,﻿church,﻿St. Philip's,English,,,,﻿Iowa County,﻿Iowa County,﻿Highland,﻿Highland,﻿WI,,43.046303,-90.382599,,,,﻿th_mcdonnell_001,﻿Rev.,﻿Th. McDonnell,,,,,,,,1860,﻿,﻿,﻿Milwaukee,Milwaukee
﻿mil.wi.0106,﻿church,﻿St. Malachy's,English,,,,﻿Dodge County,﻿Dodge County,﻿Horicon,﻿Horicon,﻿WI,,43.444012,-88.633196,,﻿Attended by Rev. Chs. Shraudenbach,,,,,,,,,,,,1860,﻿,﻿,﻿Milwaukee,Milwaukee
﻿mil.wi.0109,﻿church,﻿St. Augustine's,English,,,,﻿Ozaukee County,﻿Washington County,﻿Jackson,﻿Jackson,﻿WI,,43.384316,-88.041167,,"﻿Attended by Rev. F. Germadinger, O.S.F.",,﻿f_germandinger_001,﻿Rev.,﻿F. Germandinger,﻿O.S.F.,,,,,,,1860,﻿,﻿,﻿Milwaukee,Milwaukee
﻿mil.wi.0110,﻿church,﻿St. Bridget's,English,,,,﻿Ozaukee County,﻿Washington County,﻿Jackson,﻿Jackson,﻿WI,,43.38195,-87.618638,,﻿Attended by Rev. W. Dougherty,,﻿w_dougherty_001,﻿Rev.,﻿W. Dougherty,,,,,,,,1860,﻿,﻿,﻿Milwaukee,Milwaukee
﻿mil.wi.0111,﻿church,﻿St. Cuthbert's,English,,,,﻿Lock County,﻿Rock County,﻿Janesville,﻿Janesville,﻿WI,,42.676364,-89.025287,,,,﻿j_conroy_001,﻿Rev.,﻿J. Conroy,,,,,,,,1860,﻿,﻿,﻿Milwaukee,Milwaukee
﻿mil.wi.0113,﻿church,﻿St. Lawrence,English,,,,﻿Jefferson County,﻿Jefferson County,﻿Jefferson,﻿Jefferson,﻿WI,,43.004965,-88.779191,,,,﻿m_minderer_001,﻿Rev.,﻿M. Minderer,,,,,,,,1860,﻿,﻿,﻿Milwaukee,Milwaukee
﻿gre.wi.0014,﻿mission,﻿St. Michael's,English,﻿Mission of the Menomonees,,,﻿Showano County,﻿Menominee County,﻿Keshena,﻿Keshena,﻿WI,,45.030475,-88.74777,,,,﻿m_a_gachet_001,﻿Rev.,﻿M. A. Gachet,﻿O.S.F.,,,,,,,1860,﻿,﻿,﻿Milwaukee,Milwaukee
﻿mil.wi.0114,﻿church,﻿St. Mark's,English,,,,﻿Kenosha County,﻿Kenosha County,﻿Kenosha,﻿Kenosha,﻿WI,,42.568136,-87.824919,,,,﻿g_riardon_001,﻿Rev.,﻿G. Riardon,,,,,,,,1860,﻿,﻿,﻿Milwaukee,Milwaukee
﻿mil.wi.0115,﻿church,﻿St. George's,English,,,,﻿Kenosha County,﻿Kenosha County,﻿Kenosha,﻿Kenosha,﻿WI,,42.581123,-87.872016,,,,﻿m_obermüller_001,﻿Rev.,﻿M. Obermüller,,,,,,,,1860,﻿,﻿,﻿Milwaukee,Milwaukee
﻿mil.wi.0117,﻿church,﻿St. Bridget's,English,,,,﻿Washington County,﻿Washington County,﻿Kewaskee,﻿Kewaskum,﻿WI,,43.78444,-88.787868,,﻿Attended by Rev. C. Rehrl,,﻿c_rehrl_001,﻿Rev.,﻿C. Rehrl,,,,,,,,1860,﻿,﻿,﻿Milwaukee,Milwaukee
﻿mil.wi.0118,﻿church,﻿St. Michael's,English,,,,﻿Washington County,﻿Washington County,﻿Kewaskum,﻿Kewaskum,﻿WI,,43.52083,-88.228985,,﻿Attended by Rev. C. Rehrl,,﻿c_rehrl_001,﻿Rev.,﻿C. Rehrl,,,,,,,,1860,﻿,﻿,﻿Milwaukee,Milwaukee
﻿mil.wi.0328,﻿church,﻿Holy Angels,English,,,,﻿Outgamie County,,﻿Kaukanna,,﻿WI,,44.243613,-88.329741,,﻿Attended by Rev. S. Seif,,﻿s_seif_001,﻿Rev.,﻿S. Seif,,,,,,,,1860,﻿,﻿,﻿Milwaukee,Milwaukee
﻿gre.wi.0015,﻿church,﻿Holy Rosary,English,,,,﻿Kewannee County,﻿Kewaunee County,﻿Keevany,﻿Kewaunee,﻿WI,,44.457712,-87.50662,,"﻿Attended by Rev. J. H. Nuyts, C.S.C.",,﻿j_h_nuyts_001,﻿Rev.,﻿J. H. Nuyts,﻿C.S.C.,,,,,,,1860,﻿,﻿,﻿Milwaukee,Milwaukee
﻿mil.wi.0466,﻿church,﻿St. Stephen's,English,,,,﻿Milwaukee County,﻿Milwaukee County,﻿Laketown,﻿Lake,﻿WI,,,,,,,﻿j_flasch_001,﻿Rev.,﻿J. Flasch,,,,,,,,1860,﻿,﻿,﻿Milwaukee,Milwaukee
﻿mil.wi.0120,﻿church,﻿St. James,English,,,,﻿Milwaukee County,﻿Milwaukee County,﻿Laketown,﻿Lake,﻿WI,,43.04848,-88.000907,,,,﻿j_flasch_001,﻿Rev.,﻿J. Flasch,,,,,,,,1860,﻿,﻿,﻿Milwaukee,Milwaukee
﻿mil.wi.0122,﻿church,﻿St. Columban's,English,,,,﻿Waukesha County,﻿Waukesha County,﻿Lake Fire,﻿Lake Five,﻿WI,,43.192506,-88.270927,,﻿Attended by Rev. F. Tiernan,,﻿f_tiernan_001,﻿Rev.,﻿F. Tiernan,,,,,,,,1860,﻿,﻿,﻿Milwaukee,Milwaukee
﻿mil.wi.0126,﻿church,﻿St. Andrew's,English,,,,﻿Dodge County,﻿Dodge County,﻿Lomera,﻿Lomira,﻿WI,,43.573118,-88.550108,,﻿Attended by Rev. J. Pickler,,﻿j_pickler_001,﻿Rev.,﻿J. Pickler,,,,,,,,1860,﻿,﻿,﻿Milwaukee,Milwaukee
﻿mil.wi.0338,﻿church,﻿St. John Baptist's,English,,,,﻿Brown County,,﻿Lower Duck Creek,,﻿WI,,,,,﻿Attended by Rev. J. Fl. Bonduel,,﻿j_e_bonduel_001,﻿Rev.,﻿J. Fl. Bonduel,,,,,,,,1860,﻿,﻿,﻿Milwaukee,Milwaukee
﻿gre.wi.0017,﻿church,﻿St. John Nep.,English,,,,﻿Outagamie County,﻿Outagamie County,﻿Little Chute,﻿Little Chute,﻿WI,,44.278276,-88.314417,,,,﻿m_peiffer_001,﻿Rev.,﻿M. Peiffer,,,,,,,,1860,﻿,﻿,﻿Milwaukee,Milwaukee
﻿lac.wi.0103,﻿church,﻿St. Michael's,English,,,,﻿Adams County,,﻿Lindon,,﻿WI,,43.784444,-90.134722,,,,﻿p_montague_002,﻿Rev.,﻿P. Montague,,,,,,,,1860,﻿,﻿,﻿Milwaukee,Milwaukee
﻿lac.wi.0102,﻿church,﻿St. James',English,,,,﻿Bad Axe County,,﻿Liberty Pole,,﻿WI,,43.49,-90.908511,,﻿Attended by V. Rev. L. Galtier,,﻿l_galtier_001,﻿V. Rev.,﻿L. Galtier,,,,,,,,1860,﻿,﻿,﻿Milwaukee,Milwaukee
﻿mil.wi.0121,﻿church,[Unnamed Institution],English,,,,﻿Marquette County,,﻿La Cote St. Marie,,﻿WI,,43.876085,-89.110883,,﻿Attended by Rev. E. Gray,,﻿e_gray_001,﻿Rev.,﻿E. Gray,,,,,,,,1860,﻿,﻿,﻿Milwaukee,Milwaukee
﻿lac.wi.0001,﻿church,﻿St. Mary's,English,,,,﻿La Crosse County,,﻿La Crosse,﻿La Crosse,﻿WI,,43.813775,-91.251902,,,,﻿h_tappert_001,﻿Rev.,﻿H. Tappert,,,,,,,,1860,﻿,﻿,﻿Milwaukee,Milwaukee
﻿lac.wi.0101,﻿church,﻿St. Joseph's,English,,,,﻿La Pointe County,,﻿La Pointe,,﻿WI,,46.782288,-90.787505,,,,,,,,,,,,,,1860,﻿,﻿,﻿Milwaukee,Milwaukee
﻿mil.wi.0139,﻿church,﻿St. James',English,,,,﻿Ozaukee County,﻿Washington County,﻿Maquon,﻿Mequon,﻿WI,,43.38195,-87.618638,,﻿Attended by Rev. M. Weiss,,﻿m_weiss_001,﻿Rev.,﻿M. Weiss,,,,,,,,1860,﻿,﻿,﻿Milwaukee,Milwaukee
﻿mil.wi.0138,﻿church,﻿St. James',English,,,,﻿Waukesha County,﻿Waukesha County,﻿Menomonee,﻿Menomonee Falls,﻿WI,,43.136322,-88.18306,,,,﻿g_mcguerk_001,﻿Rev.,﻿G. McGuerk,,,,,,,,1860,﻿,﻿,﻿Milwaukee,Milwaukee
﻿mil.wi.0443,﻿church,﻿St. Anthony's,English,,,,﻿Waukesha County,﻿Waukesha County,﻿Menomonee,﻿Menomonee Falls,﻿WI,,,,,,,﻿m_weiss_001,﻿Rev.,﻿M. Weiss,,,,,,,,1860,﻿,﻿,﻿Milwaukee,Milwaukee
﻿mil.wi.0144,﻿church,﻿St. John's,English,,,,﻿Waukesha County,,﻿Monches,,﻿WI,,43.140603,-88.308192,,,,﻿f_tiernan_001,﻿Rev.,﻿F. Tiernan,,,,,,,,1860,﻿,﻿,﻿Milwaukee,Milwaukee
﻿mil.wi.0135,﻿church,﻿St. Mary's,English,,,,﻿Dodge County,﻿Dodge County,﻿Mayville,﻿Mayville,﻿WI,,43.492936,-88.540727,,﻿Attended from Teresa,,,,,,,,,,,,1860,﻿,﻿,﻿Milwaukee,Milwaukee
﻿mil.wi.0444,﻿church,﻿St. Francis Regis,English,,,,﻿Sheboygan County,﻿Sheboygan County,﻿Mitchel,﻿Mitchell,﻿WI,,,,,﻿Attended by Rev. F. Strocker,,﻿f_strocker_001,﻿Rev.,﻿F. Strocker,,,,,,,,1860,﻿,﻿,﻿Milwaukee,Milwaukee
﻿mil.wi.0132,﻿church,﻿Calvary,English,,,,﻿Fond du Lac County,﻿Fond du Lac County,﻿Marshfield,﻿Marshfield,﻿WI,,43.8721,-88.187668,,,,﻿m_a_gachet_001,﻿Very Rev.,﻿M. A. Gachet,﻿O.S.F.,,,,,,,1860,﻿,﻿,﻿Milwaukee,Milwaukee
﻿mil.wi.0132,﻿church,﻿Calvary,English,,,,﻿Fond du Lac County,﻿Fond du Lac County,﻿Marshfield,﻿Marshfield,﻿WI,,43.8721,-88.187668,,,,﻿g_haas_001,﻿Very Rev.,﻿G. Haas,﻿O.S.F.,,,,,,,1860,﻿,﻿,﻿Milwaukee,Milwaukee
﻿mil.wi.0132,﻿church,﻿Calvary,English,,,,﻿Fond du Lac County,﻿Fond du Lac County,﻿Marshfield,﻿Marshfield,﻿WI,,43.8721,-88.187668,,,,﻿b_frey_001,﻿Rev.,﻿B. Frey,﻿O.S.F.,,,,,,,1860,﻿,﻿,﻿Milwaukee,Milwaukee
﻿mil.wi.0130,﻿church,﻿St. Boniface's,English,,,,﻿Manitowoc County,﻿Manitowoc County,﻿Manitowoc,﻿Manitowoc,﻿WI,,44.088606,-87.657584,,,,﻿max_de-becke_001,﻿Rev.,﻿Max De Becke,,,,,,,,1860,﻿,﻿,﻿Milwaukee,Milwaukee
﻿mil.wi.0354,﻿church,﻿Holy Maternity,English,,,,﻿Manitowoc County,,﻿Manitowoc Rapids,,﻿WI,,,,,,,﻿max_de-becke_001,﻿Rev.,﻿Max De Becke,,,,,,,,1860,﻿,﻿,﻿Milwaukee,Milwaukee
﻿gre.wi.0020,﻿church,﻿St. Patrick's,English,,,,﻿Manitowoc County,﻿Manitowoc County,﻿Maple Grove,﻿Maple Grove,﻿WI,,44.188884,-87.923628,,,,﻿max_de-becke_001,﻿Rev.,﻿Max De Becke,,,,,,,,1860,﻿,﻿,﻿Milwaukee,Milwaukee
﻿lac.wi.0017,﻿church,﻿St. Benedict's,English,﻿vacant,,,﻿Marathon County,﻿Marathon County,﻿Marathon,﻿Marathon,﻿WI,,44.930472,-89.84021,,,,,,,,,,,,,,1860,﻿,﻿,﻿Milwaukee,Milwaukee
﻿mil.wi.0148,﻿church,﻿St. Barnata's,English,,,,﻿Dane County,﻿Dane County,﻿Mazzo-Manie,﻿Mazomanie,﻿WI,,43.172687,-89.791703,,﻿Attended from Sauk City,,,,,,,,,,,,1860,﻿,﻿,﻿Milwaukee,Milwaukee
﻿mil.wi.0136,﻿church,﻿St. Isidore's,English,,,,﻿Manitowoc County,﻿Manitowoc County,﻿Memeetown,﻿Meeme,﻿WI,,43.920549,-87.831478,,,,﻿j_maly_002,﻿Rev.,﻿J. Maly,,,,,,,,1860,﻿,﻿,﻿Milwaukee,Milwaukee
﻿mil.wi.0355,﻿church,﻿Inv. of Holy Cross,English,,,,﻿Manitowoc County,,﻿Mihiot,,﻿WI,,,,,﻿Attended by Rev. J. C. Perrodin,,﻿j_c_perrodin_001,﻿Rev.,﻿J. C. Perrodin,,,,,,,,1860,﻿,﻿,﻿Milwaukee,Milwaukee
﻿mil.wi.0128,﻿church,﻿St. Raphael's,English,,,,﻿Dane County,﻿Dane County,﻿Madison,﻿Madison,﻿WI,,43.072394,-89.386004,,,,﻿j_h_norris_001,﻿Rev.,﻿J. H. Narrs,﻿D.D.,,,,,,,1860,﻿,﻿,﻿Milwaukee,Milwaukee
﻿mil.wi.0140,﻿church,﻿St. John Baptist,English,,,,﻿Grant County,﻿Iowa County,﻿Mifflin,﻿Miffin,﻿WI,,42.871105,-90.354015,,﻿Attended by Rev. M. W. Gibson,,﻿m_w_gibson_001,﻿Rev.,﻿M. W. Gibson,,,,,,,,1860,﻿,﻿,﻿Milwaukee,Milwaukee
﻿mil.wi.0141,﻿church,﻿St. Malachy's,English,,,,﻿Jefferson County,﻿Jefferson County,﻿Milford,﻿Milford,﻿WI,,43.188369,-88.733814,,﻿Attended by Rev. J. Smith,,﻿j_smith_003,﻿Rev.,﻿J. Smith,,,,,,,,1860,﻿,﻿,﻿Milwaukee,Milwaukee
﻿mil.wi.0142,﻿church,﻿St. Paul's,English,,,,﻿Iowa County,﻿Iowa County,﻿Mineral Point,﻿Mineral Point,﻿WI,,42.857093,-90.188688,,,,﻿fra_mccann_001,﻿Rev.,﻿Francis McGann,,,,,,,,1860,﻿,﻿,﻿Milwaukee,Milwaukee
﻿mil.wi.0357,﻿church,﻿Gethsemani,English,,,,﻿Marquette County,,﻿Montello,,﻿WI,,43.794961,-89.318268,,﻿Attended by Rev. E. Gray,,﻿e_gray_001,﻿Rev.,﻿E. Gray,,,,,,,,1860,﻿,﻿,﻿Milwaukee,Milwaukee
﻿mil.wi.0465,﻿church,﻿St. Wendelin's,English,,,,﻿Sheboygan County,,﻿Mosle,,﻿WI,,,,,﻿Attended by Rev. J. Smeddink,,﻿j_smeddink_001,﻿Rev.,﻿J. Smeddink,,,,,,,,1860,﻿,﻿,﻿Milwaukee,Milwaukee
﻿mil.wi.0359,﻿church,﻿St. Patrick's,English,,,,﻿Juneau County,,﻿Mouston,,﻿WI,,,,,,,﻿p_montague_002,﻿Rev.,﻿P. Montague,,,,,,,,1860,﻿,﻿,﻿Milwaukee,Milwaukee
﻿mil.wi.0362,﻿church,﻿St. Francis Assis.,English,,,,﻿Milwaukee County,,﻿Nojoshing,,﻿WI,,,,,,,﻿m_heiss_002,﻿Rev.,﻿M. Heiss,,,,,,,,1860,﻿,﻿,﻿Milwaukee,Milwaukee
﻿mil.wi.0151,﻿church,﻿St. Valerius,English,,,,﻿Waukesha County,﻿Waukesha County,﻿New Berlin,﻿New Berlin,﻿WI,,42.976455,-88.10839,,﻿Attended by Rev. M. Polack,,﻿m_polack_001,﻿Rev.,﻿M. Polack,,,,,,,,1860,﻿,﻿,﻿Milwaukee,Milwaukee
﻿mil.wi.0157,﻿church,﻿St. Peter's,English,,,,﻿Manitowoc County,﻿Manitowoc County,﻿Newton,﻿Newtown,﻿WI,,43.993743,-87.726333,,﻿Attended by Rev. Max De Becke,,﻿max_de-becke_001,﻿Rev.,﻿Max De Becke,,,,,,,,1860,﻿,﻿,﻿Milwaukee,Milwaukee
﻿gre.wi.0022,﻿church,﻿St. Kilian's,English,,,,﻿Brown County,﻿Brown County,﻿New Franklin,﻿New Franken,﻿WI,,44.53103,-87.825846,,﻿Atten'd by Fathers of Holy Cross,,,,,,,,,,,,1860,﻿,﻿,﻿Milwaukee,Milwaukee
﻿mil.wi.0154,﻿church,﻿St. Augustine's,English,,,,﻿Lafayette County,﻿Lafayette County,﻿New Diggings,﻿New Diggings,﻿WI,,42.534075,-90.334564,,﻿Attended by Rev. S. Mazzuchelli,,﻿s_mazzuchelli_001,﻿Rev.,﻿S. Mazzuchelli,,,,,,,,1860,﻿,﻿,﻿Milwaukee,Milwaukee
﻿mil.wi.0361,﻿church,﻿St. Francis,English,,,,﻿Waupaca County,,﻿Northport,,﻿WI,,,,,﻿Attended by Rev. Th. Keenan,,﻿th_keenan_001,﻿Rev.,﻿Th. Keenan,,,,,,,,1860,﻿,﻿,﻿Milwaukee,Milwaukee
﻿mil.wi.0158,﻿church,﻿St. Matthew's,English,,,,﻿Milwaukee County,﻿Milwaukee County,﻿Oak Creek,﻿Oak Creek,﻿WI,,42.874655,-87.86136,,,,﻿f_tierney_001,﻿Rev.,﻿F. Tierney,,,,,,,,1860,﻿,﻿,﻿Milwaukee,Milwaukee
﻿gre.wi.0024,﻿church,﻿St. Peter's,English,,,,﻿Occonto County,﻿Oconto County,﻿Occonto,﻿Oconto,﻿WI,,44.887571,-87.883319,,﻿Visited by Rev. J. Fl. Banduel,,﻿j_f_banduel_001,﻿Rev.,﻿J. Fl. Banduel,,,,,,,,1860,﻿,﻿,﻿Milwaukee,Milwaukee
﻿mil.wi.0159,﻿church,﻿St. Catharine's,English,,,,﻿Waukesha County,﻿Waukesha County,﻿Occonomowoc,﻿Oconomowoc,﻿WI,,43.097305,-88.493677,,﻿Visited by Rev. M. Hobbs,,﻿m_hobbs_001,﻿Rev.,﻿M. Hobbs,,,,,,,,1860,﻿,﻿,﻿Milwaukee,Milwaukee
﻿mil.wi.0164,﻿church,﻿St. Bruno's,English,,,,﻿Waukesha County,﻿Waukesha County,﻿Ottowa,﻿Ottawa,﻿WI,,42.993896,-88.512589,,﻿Attended by Rev. M. Minderer,,﻿m_minderer_001,﻿Rev.,﻿M. Minderer,,,,,,,,1860,﻿,﻿,﻿Milwaukee,Milwaukee
﻿gre.wi.0025,﻿church,﻿St. Peter's,English,,,,﻿Winnebago County,﻿Winnebago County,﻿Oshkosh,﻿Oshkosh,﻿WI,,44.019711,-88.544474,,,,﻿th_keenan_001,﻿Rev.,﻿Th. Keenan,,,,,,,,1860,﻿,﻿,﻿Milwaukee,Milwaukee
﻿gre.wi.0026,﻿church,﻿St. Mary's,English,,,,﻿Winnebago County,﻿Winnebago County,﻿Oshkosh,﻿Oshkosh,﻿WI,,44.012364,-88.619724,,,,﻿th_keenan_001,﻿Rev.,﻿Th. Keenan,,,,,,,,1860,﻿,﻿,﻿Milwaukee,Milwaukee
﻿mil.wi.0160,﻿church,﻿St. Mary's,English,,,,﻿Fond du Lac County,﻿Fond du Lac County,﻿Osceola,﻿Osceola,﻿WI,,43.681371,-88.226643,,,,﻿l_dael_001,﻿Rev.,﻿L. Dael,,,,,,,,1860,﻿,﻿,﻿Milwaukee,Milwaukee
﻿mil.wi.0165,﻿church,﻿St. Wendelin's,English,,,,﻿Kenosha County,,﻿Paristown,﻿Paris,﻿WI,,42.63363,-88.051473,,﻿Attended by Rev. M. Beiter,,﻿m_beiter_001,﻿Rev.,﻿M. Beiter,,,,,,,,1860,﻿,﻿,﻿Milwaukee,Milwaukee
﻿mil.wi.0167,﻿church,﻿St. Francis,English,,,,﻿Dane County,﻿Dane County,﻿Perry,﻿Perry,﻿WI,,42.916955,-89.385547,,,,﻿mat_gernbauer_001,﻿Rev.,﻿Math. Gernbauer,,,,,,,,1860,﻿,﻿,﻿Milwaukee,Milwaukee
﻿mil.wi.0168,﻿church,﻿SS. Peter and Paul,English,,,,﻿Waukesha County,﻿Waukesha County,﻿Pewaukee,﻿Pewaukee,﻿WI,,43.065463,-88.205804,,﻿Attended by Rev. G. Rehrl,,﻿g_rehrl_001,﻿Rev.,﻿G. Rehrl,,,,,,,,1860,﻿,﻿,﻿Milwaukee,Milwaukee
﻿mil.wi.0170,﻿church,﻿St. Mary's,English,,,,﻿Grant County,﻿Grant County,﻿Platteville,﻿Platteville,﻿WI,,42.737178,-90.47859,,﻿Visited by Rev. M. W. Gibson,,﻿m_w_gibson_001,﻿Rev.,﻿M. W. Gibson,,,,,,,,1860,﻿,﻿,﻿Milwaukee,Milwaukee
﻿mil.wi.0466,﻿church,﻿St. Joseph's,English,,,,﻿Washington County,﻿Milwaukee County,﻿Polk,﻿Lake,﻿WI,,,,,﻿Attended by Rev. M. Reindl,,﻿m_reindl_001,﻿Rev.,﻿M. Reindl,,,,,,,,1860,﻿,﻿,﻿Milwaukee,Milwaukee
﻿mil.wi.0467,﻿church,﻿St. Mary's,English,,,,﻿Monroe County,,﻿Portland,,﻿WI,,,,,﻿Attended from La Crosse,,,,,,,,,,,,1860,﻿,﻿,﻿Milwaukee,Milwaukee
﻿mil.wi.0175,﻿church,﻿St. Michael's,English,,,,﻿Rock County,,﻿Pottertown,,﻿WI,,42.817871,-89.180321,,,,﻿m_downey_001,﻿Rev.,﻿M. Downey,,,,,,,,1860,﻿,﻿,﻿Milwaukee,Milwaukee
﻿gre.wi.0027,﻿church,﻿St. Bartholomew's,English,,,,﻿Columbia County,﻿Columbia County,﻿Portage City,﻿Portage,﻿WI,,43.538915,-89.464551,,,,﻿j_doyle_001,﻿Rev.,﻿J. Doyle,,,,,,,,1860,﻿,﻿,﻿Milwaukee,Milwaukee
﻿mil.wi.0173,﻿church,﻿St. Thomas',English,,,,﻿Grant County,﻿Grant County,﻿Potosi,﻿Potosi,﻿WI,,42.686562,-90.714447,,,,﻿m_w_gibson_001,﻿Rev.,﻿M. W. Gibson,,,,,,,,1860,﻿,﻿,﻿Milwaukee,Milwaukee
﻿mil.wi.0174,﻿church,﻿St. Andrew's,English,,,,﻿Grant County,﻿Grant County,﻿Potosi,﻿Potosi,﻿WI,,42.689439,-90.712071,,,,﻿a_zuber_001,﻿Rev.,﻿A. Zuber,,,,,,,,1860,﻿,﻿,﻿Milwaukee,Milwaukee
﻿mil.wi.0172,﻿church,﻿St. Mary's,English,,,,﻿Ozaukee County,﻿Ozaukee County,﻿Port Washington,﻿Port Washington,﻿WI,,43.391873,-87.868991,,,,﻿f_weikmann_001,﻿Rev.,﻿F. Weikmann,,,,,,,,1860,﻿,﻿,﻿Milwaukee,Milwaukee
﻿mil.wi.0468,﻿church,﻿St. Stephen's,English,,,,﻿Ozaukee County,,﻿Port Washington,,﻿WI,,,,,,,﻿f_weikmann_001,﻿Rev.,﻿F. Weikmann,,,,,,,,1860,﻿,﻿,﻿Milwaukee,Milwaukee
﻿lac.wi.0019,﻿church,﻿St. Gabriel's,English,,,,﻿Crawford County,﻿Crawford County,﻿Prairie du Chien,﻿Prairie du Chien,﻿WI,,43.058349,-91.146135,,,,﻿l_galtier_001,﻿Very Rev.,﻿L. Galtier,,,,,,,,1860,﻿,﻿,﻿Milwaukee,Milwaukee
﻿lac.wi.0019,﻿church,﻿St. Gabriel's,English,,,,﻿Crawford County,﻿Crawford County,﻿Prairie du Chien,﻿Prairie du Chien,﻿WI,,43.058349,-91.146135,,,,﻿a_oconnor_001,﻿Rev.,﻿A. O'Connor,,,,,,,,1860,﻿,﻿,﻿Milwaukee,Milwaukee
﻿mil.wi.0469,﻿church,﻿St. Ignatius',English,,,,﻿Racine County,,﻿Racine,,﻿WI,,,,,,,﻿h_brennan_001,﻿Rev.,﻿H. Brennan,,,,,,,,1860,﻿,﻿,﻿Milwaukee,Milwaukee
﻿mil.wi.0176,﻿church,﻿St. Patrick's,English,,,,﻿Racine County,﻿Racine County,﻿Racine,﻿Racine,﻿WI,,42.734386,-87.787466,,,,,,﻿—,,,,,,,,1860,﻿,﻿,﻿Milwaukee,Milwaukee
﻿mil.wi.0177,﻿church,﻿St. Mary's,English,,,,﻿Racine County,﻿Racine County,﻿Racine,﻿Racine,﻿WI,,42.724484,-87.78494,,,,﻿f_x_sailer_002,﻿Rev.,﻿F. X. Sailer,,,,,,,,1860,﻿,﻿,﻿Milwaukee,Milwaukee
﻿mil.wi.0178,﻿church,﻿St. Hubert's,English,,,,﻿Washington County,﻿Washington County,﻿Richfield,﻿Richfield,﻿WI,,43.232498,-88.215765,,﻿Attended by Rev. M. Haslbauer,,﻿m_haslbauer_001,﻿Rev.,﻿M. Haslbauer,,,,,,,,1860,﻿,﻿,﻿Milwaukee,Milwaukee
﻿mil.wi.0180,﻿church,﻿St. Augustine's,English,,,,﻿Washington County,﻿Washington County,﻿Richfield,﻿Richfield,﻿WI,,43.219106,-88.226643,,﻿Attended by Rev. M. Haslbauer,,﻿m_haslbauer_001,﻿Rev.,﻿M. Haslbauer,,,,,,,,1860,﻿,﻿,﻿Milwaukee,Milwaukee
﻿mil.wi.0179,﻿church,﻿Holy Maternity,English,,,,﻿Washington County,﻿Washington County,﻿Richfield,﻿Richfield,﻿WI,,43.25622,-88.194365,,﻿Attended by Rev. M. Haslbauer,,﻿m_haslbauer_001,﻿Rev.,﻿M. Haslbauer,,,,,,,,1860,﻿,﻿,﻿Milwaukee,Milwaukee
﻿mil.wi.0116,﻿church,﻿St. Pius V.,English,,,,﻿Lafayette County,,﻿Randal,,﻿WI,,42.765975,-90.243231,,﻿Attended by Rev. J. Colton,,﻿j_colton_001,﻿Rev.,﻿J. Colton,,,,,,,,1860,﻿,﻿,﻿Milwaukee,Milwaukee
﻿mil.wi.0182,﻿church,﻿St. Bridget's,English,,,,﻿Iowa County,﻿Iowa County,﻿Ridgeway,﻿Ridgeway,﻿WI,,42.997718,-89.995869,,﻿Attended by Rev. H. McGann,,﻿h_mcgann_001,﻿Rev.,﻿H. McGann,,,,,,,,1860,﻿,﻿,﻿Milwaukee,Milwaukee
﻿mil.wi.0184,﻿church,﻿St. Norbert's,English,,,,﻿Dane County,﻿Dane County,﻿Rosebury,﻿Roxbury,﻿WI,,43.250644,-89.677281,,,,﻿a_inama_001,﻿Rev.,﻿A. Inama,,,,,,,,1860,﻿,﻿,﻿Milwaukee,Milwaukee
﻿lac.wi.0021,﻿church,﻿St. Aloysius',English,,,,﻿Sauk County,﻿Sauk County,﻿Sac City,﻿Sauk City,﻿WI,,43.28139,-89.725801,,,,﻿m_weinhardt_001,﻿Rev.,﻿M. Weinhardt,,,,,,,,1860,﻿,﻿,﻿Milwaukee,Milwaukee
﻿mil.wi.0190,﻿church,﻿St. Finbar,English,,,,﻿Ozaukee County,﻿Ozaukee County,﻿Saukville,﻿Saukville,﻿WI,,43.441187,-88.000675,,,,﻿p_bradley_002,﻿Rev.,﻿P. Bradley,,,,,,,,1860,﻿,﻿,﻿Milwaukee,Milwaukee
﻿mil.wi.0470,﻿church,﻿Nativity of the Blessed Virgin,English,,,,﻿Richland County,,﻿Sextonville,,﻿WI,,,,,,,﻿f_x_weinhardt_001,﻿Rev.,﻿F. X. Weinhart,,,,,,,,1860,﻿,﻿,﻿Milwaukee,Milwaukee
﻿mil.wi.0471,﻿church,﻿St. Catherine's,English,,,,﻿Walworth County,,﻿Sharon,,﻿WI,,,,,﻿Attended from Beloit,,,,,,,,,,,,1860,﻿,﻿,﻿Milwaukee,Milwaukee
﻿mil.wi.0193,﻿church,﻿St. Magdalene's,English,,,,﻿Sheboygan County,﻿Sheboygan County,﻿Sheboygan,﻿Sheboygan,﻿WI,,43.760482,-87.71347,,,,﻿j_b_smeddink_001,﻿Rev.,﻿J. B. Smeddink,,,,,,,,1860,﻿,﻿,﻿Milwaukee,Milwaukee
﻿mil.wi.0191,﻿church,﻿St. Chrysostom's,English,,,,﻿Washington County,﻿Washington County,﻿Schleissingerville,﻿Slinger,﻿WI,,43.333613,-88.286206,,﻿Attended by Rev. M. Reindl,,﻿m_reindl_001,﻿Rev.,﻿M. Reindl,,,,,,,,1860,﻿,﻿,﻿Milwaukee,Milwaukee
﻿mil.wi.0196,﻿church,﻿St. Matthew's,English,,,,﻿Lafayette County,﻿Lafayette County,﻿Shullsburgh,﻿Shullsburg,﻿WI,,42.574395,-90.230549,,,,﻿j_colton_001,﻿Rev.,﻿J. Colton,,,,,,,,1860,﻿,﻿,﻿Milwaukee,Milwaukee
﻿lac.wi.0111,﻿church,﻿St. Joseph's,English,,,,﻿St. Croix County,,﻿Somerset,,﻿WI,,45.14552,-92.738987,,,,﻿a_mignault_001,﻿Rev.,﻿A. Mignault,,,,,,,,1860,﻿,﻿,﻿Milwaukee,Milwaukee
﻿mil.wi.0187,﻿church,﻿St. Martin's,English,,,,﻿Dane County,﻿Dane County,﻿Springfield,﻿Springfield,﻿WI,,43.180678,-89.589689,,﻿Attended by Rev. M. Gernbauer,,﻿m_gernbauer_001,﻿Rev.,﻿M. Gernbauer,,,,,,,,1860,﻿,﻿,﻿Milwaukee,Milwaukee
﻿mil.wi.0197,﻿church,﻿St. Alphonsus',English,,,,﻿Fond du Lac County,﻿Fond du Lac County,﻿Springvale,﻿Springvale,﻿WI,,43.764244,-88.691631,,﻿Attended by Rev. L. Dael,,﻿l_dael_001,﻿Rev.,﻿L. Dael,,,,,,,,1860,﻿,﻿,﻿Milwaukee,Milwaukee
﻿mil.wi.0195,﻿church,﻿St. Dominic's,English,,,,﻿Grant County,﻿Grant County,﻿Sinsinawa,﻿Sinsinawa,﻿WI,,42.520811,-90.53856,,,,﻿j_t_jarboe_003,﻿Very Rev.,﻿J. T. Jarboe,﻿O.S.D.,,,,,,,1860,﻿,﻿,﻿Milwaukee,Milwaukee
﻿mil.wi.0195,﻿church,﻿St. Dominic's,English,,,,﻿Grant County,﻿Grant County,﻿Sinsinawa,﻿Sinsinawa,﻿WI,,42.520811,-90.53856,,,,﻿t_l_power_002,﻿Rev.,﻿T. L. Power,﻿O.S.D.,,,,,,,1860,﻿,﻿,﻿Milwaukee,Milwaukee
﻿mil.wi.0195,﻿church,﻿St. Dominic's,English,,,,﻿Grant County,﻿Grant County,﻿Sinsinawa,﻿Sinsinawa,﻿WI,,42.520811,-90.53856,,,,﻿m_b_fortune_002,﻿Rev.,﻿M. B. Fortune,﻿O.S.D.,,,,,,,1860,﻿,﻿,﻿Milwaukee,Milwaukee
﻿mil.wi.0195,﻿church,﻿St. Dominic's,English,,,,﻿Grant County,﻿Grant County,﻿Sinsinawa,﻿Sinsinawa,﻿WI,,42.520811,-90.53856,,,,﻿j_b_geraghty_001,﻿Rev.,﻿J. B. Geraghty,﻿O.S.D.,,,,,,,1860,﻿,﻿,﻿Milwaukee,Milwaukee
﻿mil.wi.0195,﻿church,﻿St. Dominic's,English,,,,﻿Grant County,﻿Grant County,﻿Sinsinawa,﻿Sinsinawa,﻿WI,,42.520811,-90.53856,,,,﻿jos_poelking_001,﻿Rev.,﻿Jos. Poelking,﻿O.S.D.,,,,,,,1860,﻿,﻿,﻿Milwaukee,Milwaukee
﻿mil.wi.0195,﻿church,﻿St. Dominic's,English,,,,﻿Grant County,﻿Grant County,﻿Sinsinawa,﻿Sinsinawa,﻿WI,,42.520811,-90.53856,,,,﻿f_kendeler_001,﻿Rev.,﻿F. Kendeler,﻿O.S.D.,,,,,,,1860,﻿,﻿,﻿Milwaukee,Milwaukee
﻿gre.wi.0031,﻿church,﻿St. Paul's,English,,,,﻿Portage County,﻿Portage County,﻿Stephens' Point,﻿Stevens Point,﻿WI,,44.527046,-89.553282,,,,﻿n_stehlé_001,﻿Rev.,﻿N. Stehlé,,,,,,,,1860,﻿,﻿,﻿Milwaukee,Milwaukee
﻿mil.wi.0372,﻿church,﻿St. Catherine's,English,,,,﻿Calumet County,,﻿Stockbridge,,﻿WI,,,,,﻿Attended by Rev. M. McMahon,,﻿m_mcmahon_001,﻿Rev.,﻿M. McMahon,,,,,,,,1860,﻿,﻿,﻿Milwaukee,Milwaukee
﻿mil.wi.0198,﻿church,﻿St. Joseph's,English,,,,﻿Dane County,﻿Dane County,﻿Sun Prairie,﻿Sun Prairie,﻿WI,,43.267928,-89.153749,,,,﻿f_x_pfaller_002,﻿Rev.,﻿F. X. Pfaller,,,,,,,,1860,﻿,﻿,﻿Milwaukee,Milwaukee
﻿mil.wi.0200,﻿church,﻿St. John Baptist,English,,,,﻿Calumet County,﻿Fond du Lac County,﻿Taycheidah,﻿Taycheeda,﻿WI,,43.808879,-88.395106,,﻿Attended by Fathers of Mount Calvary,,,,,,,,,,,,1860,﻿,﻿,﻿Milwaukee,Milwaukee
﻿mil.wi.0202,﻿church,﻿St. Theresa's,English,,,,﻿Dodge County,﻿Dodge County,﻿Teresa,﻿Theresa,﻿WI,,43.518107,-88.453215,,,,﻿j_pickler_001,﻿Rev.,﻿J. Pickler,,,,,,,,1860,﻿,﻿,﻿Milwaukee,Milwaukee
﻿mil.wi.0463,﻿church,﻿St. Edward's,English,,,,﻿Pierce County,,﻿Trumbell,,﻿WI,,44.731558,-92.579873,,﻿Attended by Rev. W. Mignault,,﻿w_mignault_001,﻿Rev.,﻿W. Mignault,,,,,,,,1860,﻿,﻿,﻿Milwaukee,Milwaukee
﻿gre.wi.0032,﻿church,﻿St. Luke's,English,,,,﻿Manitowoc County,﻿Manitowoc County,﻿Two Rivers,﻿Two Rivers,﻿WI,,44.149952,-87.567108,,,,﻿j_c_perrodin_001,﻿Rev.,﻿J. C. Perrodin,,,,,,,,1860,﻿,﻿,﻿Milwaukee,Milwaukee
﻿mil.wi.0061,﻿church,﻿St. Gregory's,English,,,,﻿Manitowoc County,,﻿Town Eighteen,﻿Eaton,﻿WI,,44.021373,-87.992268,,,,﻿a_oschwald_001,﻿Rev.,﻿A. Oschwald,,,,,,,,1860,﻿,﻿,﻿Milwaukee,Milwaukee
﻿lac.wi.0113,﻿church,﻿St. Mark's,English,,,,﻿Crawford County,,﻿Utica,,﻿WI,,43.41151,-90.956867,,﻿Attended by Rev. L. Galtier,,﻿l_galtier_001,﻿Rev.,﻿L. Galtier,,,,,,,,1860,﻿,﻿,﻿Milwaukee,Milwaukee
﻿mil.wi.0206,﻿church,﻿St. Thomas Aquin,English,,,,﻿Racine County,﻿Racine County,﻿Waterford,﻿Waterford,﻿WI,,42.760776,-88.212041,,,,﻿s_sanner_001,﻿Rev.,﻿S. Sanner,,,,,,,,1860,﻿,﻿,﻿Milwaukee,Milwaukee
﻿mil.wi.0472,﻿church,﻿St. Ambrose,English,,,,﻿Milwaukee County,,﻿Wawatosa,,﻿WI,,,,,,,﻿g_rehrl_001,﻿Rev.,﻿G. Rehrl,,,,,,,,1860,﻿,﻿,﻿Milwaukee,Milwaukee
﻿mil.wi.0217,﻿church,﻿St. Alphonsus',English,,,,﻿Kenosha County,﻿Kenosha County,﻿Wheatland,﻿Wheatland,﻿WI,,42.580476,-88.226719,,,,﻿j_lutz_001,﻿Rev.,﻿J. Lutz,,,,,,,,1860,﻿,﻿,﻿Milwaukee,Milwaukee
﻿mil.wi.0218,﻿church,﻿St. Patrick's,English,,,,﻿Walworth County,﻿Walworth County,﻿Whitewater,﻿Whitewater,﻿WI,,42.833958,-88.753497,,,,﻿r_dumphy_001,﻿Rev.,﻿R. Dumphy,,,,,,,,1860,﻿,﻿,﻿Milwaukee,Milwaukee
﻿mil.wi.0211,﻿church,﻿St. Joseph's,English,,,,﻿Waukesha County,﻿Waukesha County,﻿Waukesha,﻿Waukesha,﻿WI,,43.011854,-88.226756,,,,﻿m_oneil_003,﻿Rev.,﻿M. O'Neil,,,,,,,,1860,﻿,﻿,﻿Milwaukee,Milwaukee
﻿mil.wi.0208,﻿church,﻿St. Joseph's,English,,,,﻿Jefferson County,﻿Jefferson County,﻿Watertown,﻿Watertown,﻿WI,,43.193918,-88.729292,,,,﻿jas_smith_001,﻿Rev.,﻿Jas. Smith,,,,,,,,1860,﻿,﻿,﻿Milwaukee,Milwaukee
﻿mil.wi.0209,﻿church,﻿St. Henry's,English,,,,﻿Jefferson County,﻿Jefferson County,﻿Watertown,﻿Watertown,﻿WI,,43.196569,-88.720928,,,,﻿f_uhlmeyer_001,﻿Rev.,﻿F. Uhlmeyer,,,,,,,,1860,﻿,﻿,﻿Milwaukee,Milwaukee
﻿mil.wi.0079,﻿church,﻿Immac. Concep.,English,,,,﻿Dodge County,,﻿Waushara,,﻿WI,,43.565543,-88.906498,,,,﻿j_morris_003,﻿Rev.,﻿J. Morris,,,,,,,,1860,﻿,﻿,﻿Milwaukee,Milwaukee
﻿mil.wi.0212,﻿church,﻿Holy Angels,English,,,,﻿Washington County,﻿Washington County,﻿Westbend,﻿West Bend,﻿WI,,43.423965,-88.186686,,,,﻿c_rehrl_001,﻿Rev.,﻿C. Rehrl,,,,,,,,1860,﻿,﻿,﻿Milwaukee,Milwaukee
﻿mil.wi.0213,﻿church,﻿St. Matthias's,English,,,,﻿Washington County,﻿Washington County,﻿Westbend,﻿West Bend,﻿WI,,43.420725,-88.271444,,,,﻿c_rehrl_001,﻿Rev.,﻿C. Rehrl,,,,,,,,1860,﻿,﻿,﻿Milwaukee,Milwaukee
﻿mil.wi.0220,﻿church,﻿Holy Name of Jesus,English,,,,﻿Kenosha County,﻿Kenosha County,﻿Wilmot,﻿Wilmont,﻿WI,,42.513043,-88.182513,,﻿Attended by Rev. J. Stehlé,,﻿j_stehlé_001,﻿Rev.,﻿J. Stehlé,,,,,,,,1860,﻿,﻿,﻿Milwaukee,Milwaukee
﻿mil.wi.0221,﻿church,[Unnamed Institution],English,,,,﻿Sheboygan County,﻿Sheboygan County,﻿Wilson,﻿Wilson,﻿WI,,43.669865,-87.799943,,﻿Attended by Rev. J. B. Smeddink,,﻿j_b_smeddink_001,﻿Rev.,﻿J. B. Smeddink,,,,,,,,1860,﻿,﻿,﻿Milwaukee,Milwaukee
﻿mil.wi.0223,﻿church,﻿St. Augustine's,English,,,,﻿Columbia County,﻿Columbia County,﻿Wyosina,﻿Wyocena,﻿WI,,43.495817,-89.308451,,﻿Attended from Elba,,,,,,,,,,,,1860,﻿,﻿,﻿Milwaukee,Milwaukee
﻿mil.wi.0219,﻿church,﻿Holy Assumption,English,,,,﻿Lafayette County,﻿Lafayette County,﻿Willow Springs,﻿Willow Springs,﻿WI,,42.748242,-90.131799,,﻿Attended by Rev. H. McGann,,﻿e_mcginnity_001,﻿Rev.,﻿H. McGann,,,,,,,,1860,﻿,﻿,﻿Milwaukee,Milwaukee
﻿mil.wi.0473,﻿church,﻿St. Alphonsus',English,,,,﻿La Crosse County,,﻿Woomata,,﻿WI,,,,,﻿Attended by Rev. H. Tappert,,﻿h_tappert_001,﻿Rev.,﻿H. Tappert,,,,,,,,1860,﻿,﻿,﻿Milwaukee,Milwaukee
﻿mil.wi.0393,﻿station,[Unnamed Institution],English,"﻿Regularly visited by Clergymen, and Churches and Chapels being constructed in most of them",,,﻿Adams County,,﻿Germantown,,﻿WI,,,,,,,,,,,,,,,,,1860,﻿,﻿,﻿Milwaukee,Milwaukee
﻿lac.wi.0117,﻿station,[Unnamed Institution],English,"﻿Regularly visited by Clergymen, and Churches and Chapels being constructed in most of them",,,﻿Adams County,,﻿Quincy,,﻿WI,,43.876389,-89.956111,,,,,,,,,,,,,,1860,﻿,﻿,﻿Milwaukee,Milwaukee
﻿lac.wi.0115,﻿station,[Unnamed Institution],English,"﻿Regularly visited by Clergymen, and Churches and Chapels being constructed in most of them",,,﻿Adams County,,﻿Neery,,﻿WI,,,,,,,,,,,,,,,,,1860,﻿,﻿,﻿Milwaukee,Milwaukee
﻿mil.wi.0474,﻿station,[Unnamed Institution],English,"﻿Regularly visited by Clergymen, and Churches and Chapels being constructed in most of them",,,﻿Adams County,,﻿Cell,,﻿WI,,,,,,,,,,,,,,,,,1860,﻿,﻿,﻿Milwaukee,Milwaukee
﻿lac.wi.0116,﻿station,[Unnamed Institution],English,"﻿Regularly visited by Clergymen, and Churches and Chapels being constructed in most of them",,,﻿Adams County,,﻿Prairie,,﻿WI,,,,,,,,,,,,,,,,,1860,﻿,﻿,﻿Milwaukee,Milwaukee
﻿lac.wi.0118,﻿station,[Unnamed Institution],English,"﻿Regularly visited by Clergymen, and Churches and Chapels being constructed in most of them",,,﻿Adams County,,﻿Warledah,,﻿WI,,,,,,,,,,,,,,,,,1860,﻿,﻿,﻿Milwaukee,Milwaukee
﻿lac.wi.0120,﻿station,[Unnamed Institution],English,"﻿Regularly visited by Clergymen, and Churches and Chapels being constructed in most of them; and other settlements [in Brown Co.]",,,﻿Brown County,,﻿Wrightstown,,﻿WI,,,,,,,,,,,,,,,,,1860,﻿,﻿,﻿Milwaukee,Milwaukee
﻿mil.wi.0163,﻿station,[Unnamed Institution],English,"﻿Regularly visited by Clergymen, and Churches and Chapels being constructed in most of them",,,﻿Columbia County,﻿Columbia County,﻿Otsigo,﻿Otsego,﻿WI,,43.40221,-89.166225,,,,,,,,,,,,,,1860,﻿,﻿,﻿Milwaukee,Milwaukee
﻿mil.wi.0048,﻿station,[Unnamed Institution],English,"﻿Regularly visited by Clergymen, and Churches and Chapels being constructed in most of them",,,﻿Columbia County,,﻿Columbus,,﻿WI,,43.323503,-89.020849,,,,,,,,,,,,,,1860,﻿,﻿,﻿Milwaukee,Milwaukee
﻿mil.wi.0350,﻿station,[Unnamed Institution],English,"﻿Regularly visited by Clergymen, and Churches and Chapels being constructed in most of them",,,﻿Columbia County,,﻿Kilburn City,,﻿WI,,,,,,,,,,,,,,,,,1860,﻿,﻿,﻿Milwaukee,Milwaukee
﻿mil.wi.0482,﻿station,[Unnamed Institution],English,"﻿Regularly visited by Clergymen, and Churches and Chapels being constructed in most of them",,,﻿Columbia County,,﻿Wyacena,,﻿WI,,,,,,,,,,,,,,,,,1860,﻿,﻿,﻿Milwaukee,Milwaukee
﻿mil.wi.0224,﻿station,[Unnamed Institution],English,"﻿Regularly visited by Clergymen, and Churches and Chapels being constructed in most of them",,,﻿Columbia County,﻿Columbia County,﻿Marcello,﻿Marcellon,﻿WI,,43.568594,-89.265672,,,,,,,,,,,,,,1860,﻿,﻿,﻿Milwaukee,Milwaukee
﻿lac.wi.0110,﻿station,[Unnamed Institution],English,"﻿Regularly visited by Clergymen, and Churches and Chapels being constructed in most of them",,,﻿Crawford County,,﻿Seneca,,﻿WI,,43.222544,-90.945191,,,,,,,,,,,,,,1860,﻿,﻿,﻿Milwaukee,Milwaukee
﻿lac.wi.0127,﻿station,[Unnamed Institution],English,"﻿Regularly visited by Clergymen, and Churches and Chapels being constructed in most of them",,,﻿Crawford County,,﻿Poydtown,,﻿WI,,43.110556,-90.803611,,,,,,,,,,,,,,1860,﻿,﻿,﻿Milwaukee,Milwaukee
﻿mil.wi.0483,﻿station,[Unnamed Institution],English,"﻿Regularly visited by Clergymen, and Churches and Chapels being constructed in most of them",,,﻿Crawford County,,﻿Bluffs,,﻿WI,,,,,,,,,,,,,,,,,1860,﻿,﻿,﻿Milwaukee,Milwaukee
﻿mil.wi.0474,﻿station,[Unnamed Institution],English,"﻿Regularly visited by Clergymen, and Churches and Chapels being constructed in most of them",,,﻿Dane County,,﻿Bluemound,,﻿WI,,,,,,,,,,,,,,,,,1860,﻿,﻿,﻿Milwaukee,Milwaukee
﻿mil.wi.0055,﻿station,[Unnamed Institution],English,"﻿Regularly visited by Clergymen, and Churches and Chapels being constructed in most of them",,,﻿Dane County,,﻿Deerfield,,﻿WI,,43.08213,-89.083051,,,,,,,,,,,,,,1860,﻿,﻿,﻿Milwaukee,Milwaukee
﻿mil.wi.0214,﻿station,[Unnamed Institution],English,"﻿Regularly visited by Clergymen, and Churches and Chapels being constructed in most of them",,,﻿Dane County,﻿Dane County,﻿Westport,﻿Westport,﻿WI,,43.018607,-89.549763,,,,,,,,,,,,,,1860,﻿,﻿,﻿Milwaukee,Milwaukee
﻿mil.wi.0227,﻿station,[Unnamed Institution],English,"﻿Regularly visited by Clergymen, and Churches and Chapels being constructed in most of them",,,﻿Dane County,﻿Dane County,﻿Cottage Grove,﻿Cottage Grove,﻿WI,,43.076108,-89.199559,,,,,,,,,,,,,,1860,﻿,﻿,﻿Milwaukee,Milwaukee
﻿mil.wi.0188,﻿station,[Unnamed Institution],English,"﻿Regularly visited by Clergymen, and Churches and Chapels being constructed in most of them",,,﻿Dane County,,﻿Springfield,,﻿WI,,43.139502,-89.540955,,,,,,,,,,,,,,1860,﻿,﻿,﻿Milwaukee,Milwaukee
﻿mil.wi.0229,﻿station,[Unnamed Institution],English,"﻿Regularly visited by Clergymen, and Churches and Chapels being constructed in most of them",,,﻿Dodge County,﻿Dodge County,﻿Lebanon,﻿Lebanon,﻿WI,,43.255277,-88.626768,,,,,,,,,,,,,,1860,﻿,﻿,﻿Milwaukee,Milwaukee
﻿mil.wi.0231,﻿station,[Unnamed Institution],English,"﻿Regularly visited by Clergymen, and Churches and Chapels being constructed in most of them",,,﻿Dodge County,﻿Dodge County,﻿Iron Ridge,﻿Iron Ridge,﻿WI,,43.39972,-88.532601,,,,,,,,,,,,,,1860,﻿,﻿,﻿Milwaukee,Milwaukee
﻿mil.wi.0230,﻿station,[Unnamed Institution],English,"﻿Regularly visited by Clergymen, and Churches and Chapels being constructed in most of them",,,﻿Dodge County,﻿Dodge County,﻿Lamira,﻿Lamira,﻿WI,,43.591382,-88.443713,,,,,,,,,,,,,,1860,﻿,﻿,﻿Milwaukee,Milwaukee
﻿mil.wi.0461,﻿station,[Unnamed Institution],English,"﻿Regularly visited by Clergymen, and Churches and Chapels being constructed in most of them",,,﻿Dodge County,,﻿Rubicon,,﻿WI,,,,,,,,,,,,,,,,,1860,﻿,﻿,﻿Milwaukee,Milwaukee
﻿mil.wi.0383,﻿station,[Unnamed Institution],English,"﻿Regularly visited by Clergymen, and Churches and Chapels being constructed in most of them",,,﻿Door County,,﻿Sturgen Bay,,﻿WI,,,,,,,,,,,,,,,,,1860,﻿,﻿,﻿Milwaukee,Milwaukee
﻿mil.wi.0369,﻿station,[Unnamed Institution],English,"﻿Regularly visited by Clergymen, and Churches and Chapels being constructed in most of them",,,﻿Door County,,﻿Rosiere,,﻿WI,,,,,,,,,,,,,,,,,1860,﻿,﻿,﻿Milwaukee,Milwaukee
﻿mil.wi.0476,﻿station,[Unnamed Institution],English,"﻿Regularly visited by Clergymen, and Churches and Chapels being constructed in most of them",,,﻿Door County,,﻿Marysburgh,,﻿WI,,,,,,,,,,,,,,,,,1860,﻿,﻿,﻿Milwaukee,Milwaukee
﻿gre.wi.0064,﻿station,[Unnamed Institution],English,"﻿Regularly visited by Clergymen, and Churches and Chapels being constructed in most of them",,,﻿Door County,,﻿New Brussels,﻿Brussels,﻿WI,,44.74844,-87.621873,,,,,,,,,,,,,,1860,﻿,﻿,﻿Milwaukee,Milwaukee
﻿mil.wi.0381,﻿station,[Unnamed Institution],English,"﻿Regularly visited by Clergymen, and Churches and Chapels being constructed in most of them",,,﻿Door County,,﻿Leopold Villago,,﻿WI,,,,,,,,,,,,,,,,,1860,﻿,﻿,﻿Milwaukee,Milwaukee
﻿mil.wi.0382,﻿station,[Unnamed Institution],English,"﻿Regularly visited by Clergymen, and Churches and Chapels being constructed in most of them",,,﻿Door County,,﻿Patawattamee,,﻿WI,,,,,,,,,,,,,,,,,1860,﻿,﻿,﻿Milwaukee,Milwaukee
﻿mil.wi.0210,﻿station,[Unnamed Institution],English,"﻿Regularly visited by Clergymen, and Churches and Chapels being constructed in most of them",,,﻿Fond du Lac County,﻿Dodge County,﻿Waupun,,﻿WI,,43.633481,-88.737722,,,,,,,,,,,,,,1860,﻿,﻿,﻿Milwaukee,Milwaukee
﻿mil.wi.0183,﻿station,[Unnamed Institution],English,"﻿Regularly visited by Clergymen, and Churches and Chapels being constructed in most of them",,,﻿Fond du Lac County,,﻿Rippsan,,﻿WI,,43.784721,-88.446755,,,,,,,,,,,,,,1860,﻿,﻿,﻿Milwaukee,Milwaukee
﻿mil.wi.0233,﻿station,[Unnamed Institution],English,"﻿Regularly visited by Clergymen, and Churches and Chapels being constructed in most of them",,,﻿Fond du Lac County,﻿Fond du Lac County,﻿Rosendale,﻿Rosendale,﻿WI,,43.807763,-88.674832,,,,,,,,,,,,,,1860,﻿,﻿,﻿Milwaukee,Milwaukee
﻿mil.wi.0201,﻿station,[Unnamed Institution],English,"﻿Regularly visited by Clergymen, and Churches and Chapels being constructed in most of them",,,﻿Fond du Lac County,,﻿Taycheedah,,﻿WI,,43.833542,-88.341891,,,,,,,,,,,,,,1860,﻿,﻿,﻿Milwaukee,Milwaukee
﻿mil.wi.0387,﻿station,[Unnamed Institution],English,"﻿Regularly visited by Clergymen, and Churches and Chapels being constructed in most of them",,,﻿Fond du Lac County,,﻿Eldorado,,﻿WI,,,,,,,,,,,,,,,,,1860,﻿,﻿,﻿Milwaukee,Milwaukee
﻿mil.wi.0452,﻿station,[Unnamed Institution],English,"﻿Regularly visited by Clergymen, and Churches and Chapels being constructed in most of them",,,﻿Fond du Lac County,,﻿New Castle,,﻿WI,,,,,,,,,,,,,,,,,1860,﻿,﻿,﻿Milwaukee,Milwaukee
﻿mil.wi.0388,﻿station,[Unnamed Institution],English,"﻿Regularly visited by Clergymen, and Churches and Chapels being constructed in most of them",,,﻿Fond du Lac County,,﻿Wolkusten,,﻿WI,,,,,,,,,,,,,,,,,1860,﻿,﻿,﻿Milwaukee,Milwaukee
﻿mil.wi.0145,﻿station,[Unnamed Institution],English,"﻿Regularly visited by Clergymen, and Churches and Chapels being constructed in most of them",,,﻿Green County,,﻿Monroe,,﻿WI,,42.598221,-89.635254,,,,,,,,,,,,,,1860,﻿,﻿,﻿Milwaukee,Milwaukee
﻿mil.wi.0015,﻿station,[Unnamed Institution],English,"﻿Regularly visited by Clergymen, and Churches and Chapels being constructed in most of them",,,﻿Green County,,﻿Albany,,﻿WI,,42.735501,-89.426929,,,,,,,,,,,,,,1860,﻿,﻿,﻿Milwaukee,Milwaukee
﻿mil.wi.0391,﻿station,[Unnamed Institution],English,"﻿Regularly visited by Clergymen, and Churches and Chapels being constructed in most of them",,,﻿Green County,,﻿New Glarus,,﻿WI,,,,,,,,,,,,,,,,,1860,﻿,﻿,﻿Milwaukee,Milwaukee
﻿mil.wi.0236,﻿station,[Unnamed Institution],English,"﻿Regularly visited by Clergymen, and Churches and Chapels being constructed in most of them",,,﻿Grant County,﻿Grant County,﻿Beetown,﻿Beetown,﻿WI,,42.794991,-90.885405,,,,,,,,,,,,,,1860,﻿,﻿,﻿Milwaukee,Milwaukee
﻿mil.wi.0484,﻿station,[Unnamed Institution],English,"﻿Regularly visited by Clergymen, and Churches and Chapels being constructed in most of them",,,﻿Grant County,,﻿Mascada,,﻿WI,,,,,,,,,,,,,,,,,1860,﻿,﻿,﻿Milwaukee,Milwaukee
﻿mil.wi.0237,﻿station,[Unnamed Institution],English,"﻿Regularly visited by Clergymen, and Churches and Chapels being constructed in most of them",,,﻿Grant County,﻿Grant County,﻿Bashhabul,﻿Boscobel,﻿WI,,43.134429,-90.705404,,,,,,,,,,,,,,1860,﻿,﻿,﻿Milwaukee,Milwaukee
﻿mil.wi.0147,﻿station,[Unnamed Institution],English,"﻿Regularly visited by Clergymen, and Churches and Chapels being constructed in most of them",,,﻿Grant County,,﻿Mt. Hope,,,,43.006918,-90.816792,,,,,,,,,,,,,,1860,﻿,﻿,﻿Milwaukee,Milwaukee
﻿mil.wi.0238,﻿station,[Unnamed Institution],English,"﻿Regularly visited by Clergymen, and Churches and Chapels being constructed in most of them",,,﻿Grant County,﻿Grant County,﻿Liberty,﻿Liberty,﻿WI,,42.881601,-90.620416,,,,,,,,,,,,,,1860,﻿,﻿,﻿Milwaukee,Milwaukee
﻿mil.wi.0239,﻿station,[Unnamed Institution],English,"﻿Regularly visited by Clergymen, and Churches and Chapels being constructed in most of them",,,﻿Grant County,﻿Grant County,﻿Waterloo,﻿Waterloo,﻿WI,,42.724027,-90.848452,,,,,,,,,,,,,,1860,﻿,﻿,﻿Milwaukee,Milwaukee
﻿lac.wi.0066,﻿station,[Unnamed Institution],English,"﻿Regularly visited by Clergymen, and Churches and Chapels being constructed in most of them",,,﻿Jackson County,,﻿Black River Falls,﻿Black River Falls,﻿WI,,44.294791,-90.85243,,,,,,,,,,,,,,1860,﻿,﻿,﻿Milwaukee,Milwaukee
﻿mil.wi.0049,﻿station,[Unnamed Institution],English,"﻿Regularly visited by Clergymen, and Churches and Chapels being constructed in most of them",,,﻿Jefferson County,,﻿Concord,,﻿WI,,43.06945,-88.598712,,,,,,,,,,,,,,1860,﻿,﻿,﻿Milwaukee,Milwaukee
﻿mil.wi.0244,﻿station,[Unnamed Institution],English,"﻿Regularly visited by Clergymen, and Churches and Chapels being constructed in most of them",,,﻿Jefferson County,,﻿Peorlunawee,,﻿WI,,43.089927,-88.710896,,,,,,,,,,,,,,1860,﻿,﻿,﻿Milwaukee,Milwaukee
﻿mil.wi.0032,﻿station,[Unnamed Institution],English,"﻿Regularly visited by Clergymen, and Churches and Chapels being constructed in most of them",,,﻿Kenosha County,,﻿Bristol,,﻿WI,,42.558751,-88.050448,,,,,,,,,,,,,,1860,﻿,﻿,﻿Milwaukee,Milwaukee
﻿mil.wi.0445,﻿station,[Unnamed Institution],English,"﻿Regularly visited by Clergymen, and Churches and Chapels being constructed in most of them",,,﻿Kenosha County,,﻿Dover,,﻿WI,,,,,,,,,,,,,,,,,1860,﻿,﻿,﻿Milwaukee,Milwaukee
﻿gre.wi.0085,﻿station,[Unnamed Institution],English,"﻿Regularly visited by Clergymen, and Churches and Chapels being constructed in most of them",,,﻿Keevannee County,,﻿Red River Town,,﻿WI,,44.6325,-87.702222,,,,,,,,,,,,,,1860,﻿,﻿,﻿Milwaukee,Milwaukee
﻿mil.wi.0395,﻿station,[Unnamed Institution],English,"﻿Regularly visited by Clergymen, and Churches and Chapels being constructed in most of them",,,﻿Keevannee County,,﻿Deekesville,,﻿WI,,44.640569,-87.761793,,,,,,,,,,,,,,1860,﻿,﻿,﻿Milwaukee,Milwaukee
﻿mil.wi.0447,﻿station,[Unnamed Institution],English,"﻿Regularly visited by Clergymen, and Churches and Chapels being constructed in most of them",,,﻿Marathon County,,﻿Wausaw,﻿Wausau,﻿WI,,,,,,,,,,,,,,,,,1860,﻿,﻿,﻿Milwaukee,Milwaukee
﻿mil.wi.0477,﻿station,[Unnamed Institution],English,"﻿Regularly visited by Clergymen, and Churches and Chapels being constructed in most of them",,,﻿Marathon County,,﻿Big Bull Falls,﻿Wausau,﻿WI,,,,,,,,,,,,,,,,,1860,﻿,﻿,﻿Milwaukee,Milwaukee
﻿lac.wi.0135,﻿station,[Unnamed Institution],English,"﻿Regularly visited by Clergymen, and Churches and Chapels being constructed in most of them",,,﻿Marathon County,,﻿Mesomee,,﻿WI,,44.791667,-89.705278,,,,,,,,,,,,,,1860,﻿,﻿,﻿Milwaukee,Milwaukee
﻿mil.wi.0478,﻿station,[Unnamed Institution],English,"﻿Regularly visited by Clergymen, and Churches and Chapels being constructed in most of them",,,﻿Marquette County,,﻿Briggsville,,﻿WI,,,,,,,,,,,,,,,,,1860,﻿,﻿,﻿Milwaukee,Milwaukee
﻿mil.wi.0397,﻿station,[Unnamed Institution],English,"﻿Regularly visited by Clergymen, and Churches and Chapels being constructed in most of them",,,﻿Marquette County,,﻿Kingston,,﻿WI,,,,,,,,,,,,,,,,,1860,﻿,﻿,﻿Milwaukee,Milwaukee
﻿mil.wi.0398,﻿station,[Unnamed Institution],English,"﻿Regularly visited by Clergymen, and Churches and Chapels being constructed in most of them",,,﻿Marquette County,,﻿Marquette,,﻿WI,,,,,,,,,,,,,,,,,1860,﻿,﻿,﻿Milwaukee,Milwaukee
﻿mil.wi.0247,﻿station,[Unnamed Institution],English,"﻿Regularly visited by Clergymen, and Churches and Chapels being constructed in most of them",,,﻿Lafayette County,﻿Lafayette County,﻿Yellow Stone,﻿Yellowstone,﻿WI,,42.79833,-89.97028,,,,,,,,,,,,,,1860,﻿,﻿,﻿Milwaukee,Milwaukee
﻿mil.wi.0246,﻿station,[Unnamed Institution],English,"﻿Regularly visited by Clergymen, and Churches and Chapels being constructed in most of them",,,﻿Lafayette County,﻿Lafayette County,﻿Gratiot,﻿Gratiot,﻿WI,,42.578894,-90.022624,,,,,,,,,,,,,,1860,﻿,﻿,﻿Milwaukee,Milwaukee
﻿mil.wi.0446,﻿station,[Unnamed Institution],English,"﻿Regularly visited by Clergymen, and Churches and Chapels being constructed in most of them",,,﻿Lafayette County,,﻿Wyota,,﻿WI,,,,,,,,,,,,,,,,,1860,﻿,﻿,﻿Milwaukee,Milwaukee
﻿gre.wi.0063,﻿station,[Unnamed Institution],English,"﻿Regularly visited by Clergymen, and Churches and Chapels being constructed in most of them",,,﻿Occonto County,,﻿Menomonee,,﻿WI,,44.882285,-88.630926,,,,,,,,,,,,,,1860,﻿,﻿,﻿Milwaukee,Milwaukee
﻿mil.wi.0399,﻿station,[Unnamed Institution],English,"﻿Regularly visited by Clergymen, and Churches and Chapels being constructed in most of them",,,﻿Occonto County,,﻿Pewsaukee Mills,,﻿WI,,,,,,,,,,,,,,,,,1860,﻿,﻿,﻿Milwaukee,Milwaukee
﻿mil.wi.0485,﻿station,[Unnamed Institution],English,"﻿Regularly visited by Clergymen, and Churches and Chapels being constructed in most of them",,,﻿Occonto County,,﻿Occonto Mills,,﻿WI,,,,,,,,,,,,,,,,,1860,﻿,﻿,﻿Milwaukee,Milwaukee
﻿mil.wi.0486,﻿station,[Unnamed Institution],English,"﻿Regularly visited by Clergymen, and Churches and Chapels being constructed in most of them",,,﻿Outagomie County,,﻿Grand Chute,,﻿WI,,,,,,,,,,,,,,,,,1860,﻿,﻿,﻿Milwaukee,Milwaukee
﻿mil.wi.0487,﻿station,[Unnamed Institution],English,"﻿Regularly visited by Clergymen, and Churches and Chapels being constructed in most of them",,,﻿Outagomie County,,﻿Greenfield,,﻿WI,,,,,,,,,,,,,,,,,1860,﻿,﻿,﻿Milwaukee,Milwaukee
﻿mil.wi.0402,﻿station,[Unnamed Institution],English,"﻿Regularly visited by Clergymen, and Churches and Chapels being constructed in most of them",,,﻿Outagomie County,,﻿Ellington,,﻿WI,,,,,,,,,,,,,,,,,1860,﻿,﻿,﻿Milwaukee,Milwaukee
﻿mil.wi.0404,﻿station,[Unnamed Institution],English,"﻿Regularly visited by Clergymen, and Churches and Chapels being constructed in most of them",,,﻿Outagomie County,,﻿New Lebanon,,﻿WI,,,,,,,,,,,,,,,,,1860,﻿,﻿,﻿Milwaukee,Milwaukee
﻿mil.wi.0408,﻿station,[Unnamed Institution],English,"﻿Regularly visited by Clergymen, and Churches and Chapels being constructed in most of them",,,﻿Polk County,,﻿Portland,,﻿WI,,,,,,,,,,,,,,,,,1860,﻿,﻿,﻿Milwaukee,Milwaukee
﻿mil.wi.0407,﻿station,[Unnamed Institution],English,"﻿Regularly visited by Clergymen, and Churches and Chapels being constructed in most of them",,,﻿Polk County,,﻿Eagle River,,﻿WI,,,,,,,,,,,,,,,,,1860,﻿,﻿,﻿Milwaukee,Milwaukee
﻿lac.wi.0043,﻿station,[Unnamed Institution],English,"﻿Regularly visited by Clergymen, and Churches and Chapels being constructed in most of them",,,﻿Pierce County,,﻿Prescott,﻿Prescott,﻿WI,,44.748857,-92.802147,,,,,,,,,,,,,,1860,﻿,﻿,﻿Milwaukee,Milwaukee
﻿mil.wi.0410,﻿station,[Unnamed Institution],English,"﻿Regularly visited by Clergymen, and Churches and Chapels being constructed in most of them",,,﻿Pierce County,,﻿Oseola,,﻿WI,,,,,,,,,,,,,,,,,1860,﻿,﻿,﻿Milwaukee,Milwaukee
﻿lac.wi.0143,﻿station,[Unnamed Institution],English,"﻿Regularly visited by Clergymen, and Churches and Chapels being constructed in most of them",,,﻿Pierce County,,﻿Erin,,﻿WI,,,,,,,,,,,,,,,,,1860,﻿,﻿,﻿Milwaukee,Milwaukee
﻿lac.wi.0136,﻿station,[Unnamed Institution],English,"﻿Regularly visited by Clergymen, and Churches and Chapels being constructed in most of them",,,﻿Pierce County,,﻿French settlements,,﻿WI,,44.829722,-92.397778,,,,,,,,,,,,,,1860,﻿,﻿,﻿Milwaukee,Milwaukee
﻿mil.wi.0412,﻿station,[Unnamed Institution],English,"﻿Regularly visited by Clergymen, and Churches and Chapels being constructed in most of them; etc. [in reference to other settlements in Portage Co.]",,,﻿Portage County,,﻿Duboy's Point,,﻿WI,,,,,,,,,,,,,,,,,1860,﻿,﻿,﻿Milwaukee,Milwaukee
﻿lac.wi.0081,﻿station,[Unnamed Institution],English,"﻿Regularly visited by Clergymen, and Churches and Chapels being constructed in most of them",,,﻿Richland County,,﻿Pine Creek,﻿Richland Center,﻿WI,,43.410081,-90.579155,,,,,,,,,,,,,,1860,﻿,﻿,﻿Milwaukee,Milwaukee
﻿lac.wi.0144,﻿station,[Unnamed Institution],English,"﻿Regularly visited by Clergymen, and Churches and Chapels being constructed in most of them",,,﻿Richland County,,﻿Little Baraboo,,﻿WI,,,,,,,,,,,,,,,,,1860,﻿,﻿,﻿Milwaukee,Milwaukee
﻿lac.wi.0079,﻿station,[Unnamed Institution],English,"﻿Regularly visited by Clergymen, and Churches and Chapels being constructed in most of them",,,﻿Richland County,,﻿Melancthon Creek,﻿Yuba,﻿WI,,43.518036,-90.358998,,,,,,,,,,,,,,1860,﻿,﻿,﻿Milwaukee,Milwaukee
﻿mil.wi.0250,﻿station,[Unnamed Institution],English,"﻿Regularly visited by Clergymen, and Churches and Chapels being constructed in most of them",,,﻿Rock County,﻿Rock County,﻿Fulton,﻿Fulton,﻿WI,,42.808062,-89.127614,,,,,,,,,,,,,,1860,﻿,﻿,﻿Milwaukee,Milwaukee
﻿lac.wi.0140,﻿station,[Unnamed Institution],English,"﻿Regularly visited by Clergymen, and Churches and Chapels being constructed in most of them",,,﻿Rock County,,﻿Sugar Creek,,﻿WI,,,,,,,,,,,,,,,,,1860,﻿,﻿,﻿Milwaukee,Milwaukee
﻿mil.wi.0252,﻿station,[Unnamed Institution],English,"﻿Regularly visited by Clergymen, and Churches and Chapels being constructed in most of them",,,﻿Rock County,﻿Rock County,﻿Spring Valley,﻿Spring Valley,﻿WI,,42.658342,-89.308449,,,,,,,,,,,,,,1860,﻿,﻿,﻿Milwaukee,Milwaukee
﻿mil.wi.0455,﻿station,[Unnamed Institution],English,"﻿Regularly visited by Clergymen, and Churches and Chapels being constructed in most of them",,,﻿Sauk County,,﻿Baraboo Village,,﻿WI,,,,,,,,,,,,,,,,,1860,﻿,﻿,﻿Milwaukee,Milwaukee
﻿lac.wi.0139,﻿station,[Unnamed Institution],English,"﻿Regularly visited by Clergymen, and Churches and Chapels being constructed in most of them",,,﻿Sauk County,,﻿Marble Quarry,,﻿WI,,,,,,,,,,,,,,,,,1860,﻿,﻿,﻿Milwaukee,Milwaukee
﻿lac.wi.0140,﻿station,[Unnamed Institution],English,"﻿Regularly visited by Clergymen, and Churches and Chapels being constructed in most of them",,,﻿Sauk County,,﻿Sugar Grove,,﻿WI,,,,,,,,,,,,,,,,,1860,﻿,﻿,﻿Milwaukee,Milwaukee
﻿mil.wi.0479,﻿station,[Unnamed Institution],English,"﻿Regularly visited by Clergymen, and Churches and Chapels being constructed in most of them",,,﻿Sauk County,,﻿Lelandsville,,﻿WI,,,,,,,,,,,,,,,,,1860,﻿,﻿,﻿Milwaukee,Milwaukee
﻿mil.wi.0409,﻿station,[Unnamed Institution],English,"﻿Regularly visited by Clergymen, and Churches and Chapels being constructed in most of them",,,﻿St. Croix County,,﻿St. Croix Falls,,﻿WI,,,,,,,,,,,,,,,,,1860,﻿,﻿,﻿Milwaukee,Milwaukee
﻿mil.wi.0124,﻿station,[Unnamed Institution],English,"﻿Regularly visited by Clergymen, and Churches and Chapels being constructed in most of them",,,﻿Sheboygan County,,﻿Lima,,﻿WI,,43.675386,-87.874615,,,,,,,,,,,,,,1860,﻿,﻿,﻿Milwaukee,Milwaukee
﻿mil.wi.0185,﻿station,[Unnamed Institution],English,"﻿Regularly visited by Clergymen, and Churches and Chapels being constructed in most of them",,,﻿Sheboygan County,﻿Sheboygan County,﻿Rhine,﻿Rhine,﻿WI,,43.816254,-88.007253,,,,,,,,,,,,,,1860,﻿,﻿,﻿Milwaukee,Milwaukee
﻿mil.wi.0411,﻿station,[Unnamed Institution],English,"﻿Regularly visited by Clergymen, and Churches and Chapels being constructed in most of them",,,﻿Sheboygan County,,﻿Farmington,,﻿WI,,,,,,,,,,,,,,,,,1860,﻿,﻿,﻿Milwaukee,Milwaukee
﻿mil.wi.0194,﻿station,[Unnamed Institution],English,"﻿Regularly visited by Clergymen, and Churches and Chapels being constructed in most of them",,,﻿Sheboygan County,,﻿Silver Creek,,﻿WI,,43.600762,-87.992268,,,,,,,,,,,,,,1860,﻿,﻿,﻿Milwaukee,Milwaukee
﻿mil.wi.0488,﻿station,[Unnamed Institution],English,"﻿Regularly visited by Clergymen, and Churches and Chapels being constructed in most of them",,,﻿Sheboygan County,,﻿Sheboygan Falls,,﻿WI,,,,,,,,,,,,,,,,,1860,﻿,﻿,﻿Milwaukee,Milwaukee
﻿lac.wi.0142,﻿station,[Unnamed Institution],English,"﻿Regularly visited by Clergymen, and Churches and Chapels being constructed in most of them",,,﻿Trampleau County,,﻿Montoville,,﻿WI,,,,,,,,,,,,,,,,,1860,﻿,﻿,﻿Milwaukee,Milwaukee
﻿lac.wi.0057,﻿station,[Unnamed Institution],English,"﻿Regularly visited by Clergymen, and Churches and Chapels being constructed in most of them",,,﻿Trampleau County,,﻿Galesville,﻿Galesville,﻿WI,,44.083775,-91.358469,,,,,,,,,,,,,,1860,﻿,﻿,﻿Milwaukee,Milwaukee
﻿mil.wi.0254,﻿station,[Unnamed Institution],English,"﻿Regularly visited by Clergymen, and Churches and Chapels being constructed in most of them",,,﻿Waukesha County,﻿Waukesha County,﻿Delafield,﻿Delafield,﻿WI,,43.059973,-88.404176,,,,,,,,,,,,,,1860,﻿,﻿,﻿Milwaukee,Milwaukee
﻿mil.wi.0164,﻿station,[Unnamed Institution],English,"﻿Regularly visited by Clergymen, and Churches and Chapels being constructed in most of them",,,﻿Waukesha County,﻿Waukesha County,﻿Ottowa,﻿Ottawa,﻿WI,,42.993896,-88.512589,,,,,,,,,,,,,,1860,﻿,﻿,﻿Milwaukee,Milwaukee
﻿mil.wi.0255,﻿station,[Unnamed Institution],English,"﻿Regularly visited by Clergymen, and Churches and Chapels being constructed in most of them",,,﻿Waukesha County,﻿Waukesha County,﻿Muguanago,﻿Mukwonago,﻿WI,,42.863112,-88.332347,,,,,,,,,,,,,,1860,﻿,﻿,﻿Milwaukee,Milwaukee
﻿mil.wi.0072,﻿station,[Unnamed Institution],English,"﻿Regularly visited by Clergymen, and Churches and Chapels being constructed in most of them",,,﻿Washington County,,﻿Farmington,,﻿WI,,43.513052,-88.110006,,,,,,,,,,,,,,1860,﻿,﻿,﻿Milwaukee,Milwaukee
﻿mil.wi.0385,﻿station,[Unnamed Institution],English,"﻿Regularly visited by Clergymen, and Churches and Chapels being constructed in most of them",,,﻿Washington County,,﻿Washington,,﻿WI,,,,,,,,,,,,,,,,,1860,﻿,﻿,﻿Milwaukee,Milwaukee
﻿mil.wi.0380,﻿station,[Unnamed Institution],English,"﻿Regularly visited by Clergymen, and Churches and Chapels being constructed in most of them",,,﻿Washington County,,﻿Harbor Island,,﻿WI,,,,,,,,,,,,,,,,,1860,﻿,﻿,﻿Milwaukee,Milwaukee
﻿mil.wi.0489,﻿station,[Unnamed Institution],English,"﻿Regularly visited by Clergymen, and Churches and Chapels being constructed in most of them",,,﻿Washington County,,﻿Lake Michigan,,﻿WI,,,,,,,,,,,,,,,,,1860,﻿,﻿,﻿Milwaukee,Milwaukee
﻿mil.wi.0361,﻿station,[Unnamed Institution],English,"﻿Regularly visited by Clergymen, and Churches and Chapels being constructed in most of them",,,﻿Waupacca County,,﻿New London,,﻿WI,,,,,,,,,,,,,,,,,1860,﻿,﻿,﻿Milwaukee,Milwaukee
﻿mil.wi.0414,﻿station,[Unnamed Institution],English,"﻿Regularly visited by Clergymen, and Churches and Chapels being constructed in most of them",,,﻿Waupacca County,,﻿Farmington,,﻿WI,,,,,,,,,,,,,,,,,1860,﻿,﻿,﻿Milwaukee,Milwaukee
﻿mil.wi.0423,﻿station,[Unnamed Institution],English,"﻿Regularly visited by Clergymen, and Churches and Chapels being constructed in most of them",,,﻿Waushara County,,﻿Wautamee,,﻿WI,,,,,,,,,,,,,,,,,1860,﻿,﻿,﻿Milwaukee,Milwaukee
﻿mil.wi.0421,﻿station,[Unnamed Institution],English,"﻿Regularly visited by Clergymen, and Churches and Chapels being constructed in most of them",,,﻿Waushara County,,﻿Oasis,,﻿WI,,,,,,,,,,,,,,,,,1860,﻿,﻿,﻿Milwaukee,Milwaukee
﻿mil.wi.0422,﻿station,[Unnamed Institution],English,"﻿Regularly visited by Clergymen, and Churches and Chapels being constructed in most of them",,,﻿Waushara County,,﻿Saxeville,,﻿WI,,,,,,,,,,,,,,,,,1860,﻿,﻿,﻿Milwaukee,Milwaukee
﻿mil.wi.0424,﻿station,[Unnamed Institution],English,"﻿Regularly visited by Clergymen, and Churches and Chapels being constructed in most of them",,,﻿Winnebago County,,﻿Blackwolf,,﻿WI,,,,,,,,,,,,,,,,,1860,﻿,﻿,﻿Milwaukee,Milwaukee
﻿mil.wi.0364,﻿station,[Unnamed Institution],English,"﻿Regularly visited by Clergymen, and Churches and Chapels being constructed in most of them",,,﻿Winnebago County,,﻿Poygan,,﻿WI,,,,,,,,,,,,,,,,,1860,﻿,﻿,﻿Milwaukee,Milwaukee
﻿mil.wi.0426,﻿station,[Unnamed Institution],English,"﻿Regularly visited by Clergymen, and Churches and Chapels being constructed in most of them",,,﻿Winnebago County,,﻿Willow Creek,,﻿WI,,,,,,,,,,,,,,,,,1860,﻿,﻿,﻿Milwaukee,Milwaukee
﻿mil.wi.0425,﻿station,[Unnamed Institution],English,"﻿Regularly visited by Clergymen, and Churches and Chapels being constructed in most of them",,,﻿Winnebago County,,﻿Buttes de Mortes,,﻿WI,,,,,,,,,,,,,,,,,1860,﻿,﻿,﻿Milwaukee,Milwaukee
﻿mil.wi.0318,﻿seminary,﻿Ecclesiastical Seminary of St. Francis of Sales,English,,,,﻿Milwaukee County,,﻿Nojoshing,,﻿WI,,42.979525,-87.867348,,,,﻿m_heiss_002,﻿Rev.,﻿M. Heiss,,﻿Rector,,﻿student,"﻿Number of students 69; candidates of theology, 19",,,1860,﻿,﻿,﻿Milwaukee,Milwaukee
﻿mil.wi.0318,﻿seminary,﻿Ecclesiastical Seminary of St. Francis of Sales,English,,,,﻿Milwaukee County,,﻿Nojoshing,,﻿WI,,42.979525,-87.867348,,,,﻿dr_j_salzman_001,﻿Rev.,﻿D. Salzman,,,,﻿student,"﻿Number of students 69; candidates of theology, 19",,,1860,﻿,﻿,﻿Milwaukee,Milwaukee
﻿mil.wi.0318,﻿seminary,﻿Ecclesiastical Seminary of St. Francis of Sales,English,,,,﻿Milwaukee County,,﻿Nojoshing,,﻿WI,,42.979525,-87.867348,,,,﻿f_de-berge_001,﻿Rev.,﻿F. De Berge,,,,﻿student,"﻿Number of students 69; candidates of theology, 19",,,1860,﻿,﻿,﻿Milwaukee,Milwaukee
﻿mil.wi.0318,﻿seminary,﻿Ecclesiastical Seminary of St. Francis of Sales,English,,,,﻿Milwaukee County,,﻿Nojoshing,,﻿WI,,42.979525,-87.867348,,,,﻿l_bartz_001,﻿Rev.,﻿L. Bartz,,,,﻿student,"﻿Number of students 69; candidates of theology, 19",,,1860,﻿,﻿,﻿Milwaukee,Milwaukee
﻿mil.wi.0195_02,﻿convent,﻿Dominican Convent,English,,,,﻿Grant County,,﻿Sinsinawa Mound,,﻿WI,,42.520811,-90.53856,,,,﻿j_t_jarboe_003,﻿Very Rev.,﻿J. T. Jarboe,﻿O.S.D.,,,,,﻿Dominican,,1860,﻿,﻿,﻿Milwaukee,Milwaukee
﻿mil.wi.0195_02,﻿convent,﻿Dominican Convent,English,,,,﻿Grant County,,﻿Sinsinawa Mound,,﻿WI,,42.520811,-90.53856,,,,﻿l_power_001,﻿Rev.,﻿T. L. Power,﻿O.S.D.,,,,,﻿Dominican,,1860,﻿,﻿,﻿Milwaukee,Milwaukee
﻿mil.wi.0195_02,﻿convent,﻿Dominican Convent,English,,,,﻿Grant County,,﻿Sinsinawa Mound,,﻿WI,,42.520811,-90.53856,,,,﻿m_b_fortune_002,﻿Rev.,﻿M. B. Fortune,﻿O.S.D.,,,,,﻿Dominican,,1860,﻿,﻿,﻿Milwaukee,Milwaukee
﻿mil.wi.0195_02,﻿convent,﻿Dominican Convent,English,,,,﻿Grant County,,﻿Sinsinawa Mound,,﻿WI,,42.520811,-90.53856,,,,﻿j_b_geraghty_001,﻿Rev.,﻿J. B. Geraghty,﻿O.S.D.,,,,,﻿Dominican,,1860,﻿,﻿,﻿Milwaukee,Milwaukee
﻿mil.wi.0195_02,﻿convent,﻿Dominican Convent,English,,,,﻿Grant County,,﻿Sinsinawa Mound,,﻿WI,,42.520811,-90.53856,,,,﻿g_poelking_001,﻿Rev.,﻿J. Poelking,﻿O.S.D.,,,,,﻿Dominican,,1860,﻿,﻿,﻿Milwaukee,Milwaukee
﻿mil.wi.0195_02,﻿convent,﻿Dominican Convent,English,,,,﻿Grant County,,﻿Sinsinawa Mound,,﻿WI,,42.520811,-90.53856,,,,﻿s_mazzuchelli_001,﻿Rev.,﻿S. Mazzuchelli,﻿O.S.D.,,,,,﻿Dominican,,1860,﻿,﻿,﻿Milwaukee,Milwaukee
﻿gre.wi.0033_02,﻿convent,﻿Convent of the Holy Cross,English,,,,﻿Brown County,,﻿Bay Settlement,,﻿WI,,44.553625,-87.889262,,,,﻿e_daems_002,﻿Very Rev.,﻿E. Daems,﻿C.S.C.,﻿Sup.,,﻿student,﻿with novices,﻿Holy Cross,,1860,﻿,﻿,﻿Milwaukee,Milwaukee
﻿gre.wi.0033_02,﻿convent,﻿Convent of the Holy Cross,English,,,,﻿Brown County,,﻿Bay Settlement,,﻿WI,,44.553625,-87.889262,,,,﻿j_h_nuyts_001,﻿Rev.,﻿J. H. Nuyts,﻿C.S.C.,,,﻿layperson,﻿and 4 lay brothers,﻿Holy Cross,,1860,﻿,﻿,﻿Milwaukee,Milwaukee
﻿gre.wi.0033_02,﻿convent,﻿Convent of the Holy Cross,English,,,,﻿Brown County,,﻿Bay Settlement,,﻿WI,,44.553625,-87.889262,,,,﻿h_verhoef_002,﻿Rev.,﻿H. Verhaeff,﻿C.S.C.,,,﻿layperson,﻿and 4 lay brothers,﻿Holy Cross,,1860,﻿,﻿,﻿Milwaukee,Milwaukee
﻿gre.wi.0033_02,﻿convent,﻿Convent of the Holy Cross,English,,,,﻿Brown County,,﻿Bay Settlement,,﻿WI,,44.553625,-87.889262,,,,﻿a_oarts_001,﻿Rev.,﻿A. Aarts,﻿C.S.C.,,,﻿layperson,﻿and 4 lay brothers,﻿Holy Cross,,1860,﻿,﻿,﻿Milwaukee,Milwaukee
﻿mil.wi.0257,﻿convent,﻿Calvary Convent of Capucin Fathers,English,,,,﻿Fond du Lac County,﻿Fond du Lac County,,﻿Calvary,﻿WI,,43.824287,-88.249763,,,,﻿a_m_gachet_001,﻿Very Rev.,﻿A Maria Gachet,﻿O.S.F.,﻿Sup.,,﻿student,﻿with 2 novices,﻿Capucin Fathers,,1860,﻿,﻿,﻿Milwaukee,Milwaukee
﻿mil.wi.0257,﻿convent,﻿Calvary Convent of Capucin Fathers,English,,,,﻿Fond du Lac County,﻿Fond du Lac County,,﻿Calvary,﻿WI,,43.824287,-88.249763,,,,﻿g_haas_001,﻿Rev.,﻿G. F. Haas,﻿O.S.F.,,,﻿religious,﻿and 3 lay brothers,﻿Capucin Fathers,,1860,﻿,﻿,﻿Milwaukee,Milwaukee
﻿mil.wi.0257,﻿convent,﻿Calvary Convent of Capucin Fathers,English,,,,﻿Fond du Lac County,﻿Fond du Lac County,,﻿Calvary,﻿WI,,43.824287,-88.249763,,,,﻿bonaventura_002,﻿Rev.,﻿Bonaventura,﻿O.S.F.,,,﻿religious,﻿and 3 lay brothers,﻿Capucin Fathers,,1860,﻿,﻿,﻿Milwaukee,Milwaukee
﻿mil.wi.0318_02,﻿house,﻿House of Brothers of the Third Order of St. Francis Seraph,English,,﻿attached to the Ecclesiastical Seminary,,﻿Milwaukee County,,﻿Nojoshing,,﻿WI,,42.979525,-87.867348,,,,,,,,,,﻿religious,﻿4 brothers,,,1860,﻿,﻿,﻿Milwaukee,Milwaukee
﻿mil.wi.0259,﻿convent,﻿Convent of the Sisters of Notre Dame,English,﻿This is the mother house and novitiate of the Sisters of Notre Dame,,,,,,﻿Milwaukee,﻿WI,,43.04798,-87.906633,,,,,﻿Sister,﻿Mary Caroline,,﻿Superior,,﻿religious,﻿There are 20 professed sisters,﻿Sisters of Notre Dame,,1860,﻿,﻿,﻿Milwaukee,Milwaukee
﻿mil.wi.0259,﻿convent,﻿Convent of the Sisters of Notre Dame,English,﻿This is the mother house and novitiate of the Sisters of Notre Dame,,,,,,﻿Milwaukee,﻿WI,,43.04798,-87.906633,,,,,﻿Sister,﻿Mary Mechtildis,,﻿Assistant,,﻿student,﻿50 novices,﻿Sisters of Notre Dame,,1860,﻿,﻿,﻿Milwaukee,Milwaukee
﻿mil.wi.0259,﻿convent,﻿Convent of the Sisters of Notre Dame,English,﻿This is the mother house and novitiate of the Sisters of Notre Dame,,,,,,﻿Milwaukee,﻿WI,,43.04798,-87.906633,,,,,﻿Sister,﻿Mary Emanuela,,﻿Mistress of Novices,,﻿student,﻿and 41 candidates,﻿Sisters of Notre Dame,,1860,﻿,﻿,﻿Milwaukee,Milwaukee
﻿mil.wi.0442,﻿consecrated life institution,﻿House of the Sisters of the Third Order of St. Francis Seraph,English,,,,﻿Milwaukee County,,﻿Nojoshing,,﻿WI,,,,,,,,,,,,,﻿religious,﻿There are 13 sisters,﻿Sisters of the Third Order of St. Francis Seraph,,1860,﻿,﻿,﻿Milwaukee,Milwaukee
﻿mil.wi.0442,﻿consecrated life institution,﻿House of the Sisters of the Third Order of St. Francis Seraph,English,,,,﻿Milwaukee County,,﻿Nojoshing,,﻿WI,,,,,,,,,,,,,﻿student,﻿3 postulants,﻿Sisters of the Third Order of St. Francis Seraph,,1860,﻿,﻿,﻿Milwaukee,Milwaukee
﻿mil.wi.0292_03,﻿female academy,﻿Santa Clara Female Academy,English,,,,﻿Lafayette County,,﻿Benton,,﻿WI,,42.567259,-90.378844,,,,,﻿Sister,﻿Mary Anne Clark,,﻿Superior,,,,﻿Conducted by Dominican Sisters,,1860,﻿,﻿,﻿Milwaukee,Milwaukee
﻿mil.wi.0480,﻿academy,﻿St. Mary's Academy,English,,,,,,﻿Prairie du Chien,,﻿WI,,,,,,,,,,,,,,,﻿Conducted by Sisters of the Order of St. Dominic,,1860,﻿,﻿,﻿Milwaukee,Milwaukee
﻿mil.wi.0458,﻿school,﻿St. Joseph's Female School,English,,,,,,﻿Milwaukee,,﻿WI,,,,,,,,,,,,,﻿student,﻿70 pupils,﻿Conducted by the Sisters of Charity,,1860,﻿,﻿,﻿Milwaukee,Milwaukee
﻿mil.wi.0262,﻿school,﻿St. Rosa's Free School,English,,,,,﻿Milwaukee County,﻿Milwaukee,,﻿WI,,43.042145,-87.90332,,,,,,,,,,﻿student,﻿pupils 160,﻿Under the Sisters of Charity,,1860,﻿,﻿,﻿Milwaukee,Milwaukee
﻿mil.wi.0010_02,"﻿school, academy, day school",﻿Academy and Day School of the Holy Angels,English,﻿for Young Ladies,,,,﻿Milwaukee County,,﻿Milwaukee,﻿WI,,43.047156,-87.907544,,,,,﻿Sister,﻿Mary Theophila,,﻿Directress,,﻿student,﻿pupils 200,﻿Conducted by the School Sisters of Notre Dame,,1860,﻿,﻿,﻿Milwaukee,Milwaukee
﻿mil.wi.0264,﻿school,﻿St. Mary's Day Schools,English,,,,,﻿Milwaukee County,,﻿Milwaukee,﻿WI,,43.042173,-87.907964,,,,,﻿Sister,﻿Mary Helena,,﻿Directress,﻿German,﻿student,﻿German scholars 125,﻿Under the charge of the Sisters of Notre Dame,,1860,﻿,﻿,﻿Milwaukee,Milwaukee
﻿mil.wi.0264,﻿school,﻿St. Mary's Day Schools,English,,,,,﻿Milwaukee County,,﻿Milwaukee,﻿WI,,43.042173,-87.907964,,,,,﻿Sister,﻿Mary Gregoria,,﻿Directress,﻿English,﻿student,"﻿English pupils, 32",﻿Under the charge of the Sisters of Notre Dame,,1860,﻿,﻿,﻿Milwaukee,Milwaukee
﻿mil.wi.0490,"﻿school, free school",﻿Free School,English,,,,,,,,﻿WI,,,,,,,,﻿Sister,﻿Mary Samnela,,﻿Sup.,,﻿student,﻿pupils 180,﻿by the Sisters of Notre Dame,,1860,﻿,﻿,﻿Milwaukee,Milwaukee
﻿mil.wi.0475,﻿school,﻿St. Anthony School,English,,﻿Town Eight,,,,﻿Town Eight,,﻿WI,,,,,,,,﻿Sister,﻿Mary Antonia,,﻿Sup.,,﻿student,﻿100 pupils,,,1860,﻿,﻿,﻿Milwaukee,Milwaukee
﻿mil.wi.0271,﻿school,﻿Holy Trinity Day School,English,,,,,﻿Kenosha County,﻿Kenosha,﻿Kenosha,﻿WI,,42.56849,-87.825207,,,,,﻿Sister Sup'r,﻿Mary Joanna,,﻿Sister Sup'r,,﻿student,﻿pupils 120,,,1860,﻿,﻿,﻿Milwaukee,Milwaukee
﻿mil.wi.0287,﻿school,﻿St. Henry's Day School,English,,,,,﻿Dodge County,﻿Watertown,﻿Watertown,﻿WI,,43.196569,-88.720928,,,,,﻿Sister,﻿Mary Romualda,,﻿Sup,,﻿student,﻿pupils 100,,,1860,﻿,﻿,﻿Milwaukee,Milwaukee
﻿mil.wi.0269,﻿school,﻿St. Cecelia's Day School,English,,,,,,﻿Mt. Carmel,,﻿WI,,43.78444,-88.787868,,,,,﻿Sister,﻿Mary Petra,,﻿Superior,,﻿student,﻿pupils 120,,,1860,﻿,﻿,﻿Milwaukee,Milwaukee
﻿mil.wi.0491,"﻿school, day school",﻿Day School,English,,﻿Town 12,,,,﻿Town 12,,﻿WI,,,,,,,,﻿Sister Sup'r,﻿Mary Laurentia,,﻿Sister Sup'r,,﻿student,﻿pupils 100,,,1860,﻿,﻿,﻿Milwaukee,Milwaukee
﻿mil.wi.0492,"﻿school, day school",﻿St. John's Day School,English,,,,,,﻿Calumet,,﻿WI,,,,,,,,﻿Sister Sup'r,﻿Mary Caletta,,﻿Sister Sup'r,,﻿student,﻿pupils 130,,,1860,﻿,﻿,﻿Milwaukee,Milwaukee
﻿mil.wi.0193_02,"﻿school, day school",﻿St. Mary's Day School,English,,,,,﻿Sheboygan County,﻿Sheboygan,﻿Sheboygan,﻿WI,,43.760482,-87.71347,,,,,﻿Sister Sup'r,﻿Mary Zita,,﻿Sister Sup'r,,﻿student,﻿pupils 170,,,1860,﻿,﻿,﻿Milwaukee,Milwaukee
﻿lac.wi.0082,﻿school,﻿St. Mary's Day School,English,,,,,,﻿Lacrosse,﻿La Crosse,﻿WI,,43.805853,-91.236614,,,,,﻿Sister Sup'r,﻿M. Alexandria,,﻿Sister Sup'r,,﻿student,﻿pupils 210,,,1860,﻿,﻿,﻿Milwaukee,Milwaukee
﻿mil.wi.0115_02,"﻿school, day school",﻿St. George's Day School,English,,,,,,﻿Kenosha,,﻿WI,,42.581123,-87.872016,,,,,﻿Sister,﻿Mary Edmunda,,﻿Directress,,﻿student,﻿pupils 120,﻿Under the charge of the Sisters of Notre Dame,,1860,﻿,﻿,﻿Milwaukee,Milwaukee
﻿mil.wi.0457,﻿college,﻿Sinsinawa Mound College,English,,,,﻿Grant County,,﻿Sinsinawa,,﻿WI,,,,,,,﻿j_t_jarboe_003,﻿Very Rev.,﻿J. T Jarboe,﻿O.S.D.,﻿President,,,,,,1860,﻿,﻿,﻿Milwaukee,Milwaukee
﻿mil.wi.0319,﻿academy,﻿St. Aloysius Academy,English,,,,,,﻿Milwaukee,,﻿WI,,43.066124,-87.913974,,,,﻿f_x_de-coen_002,﻿Rev.,﻿F. X. De Coen,,﻿President,,,,﻿Under the direction of the Fathers of the Society of Jesus,,1860,﻿,﻿,﻿Milwaukee,Milwaukee
﻿mil.wi.0320,﻿hospital,﻿St. Mary's Hospital,English,,﻿North Point avenue,,,﻿Milwaukee County,﻿Milwaukee,﻿Milwaukee,﻿WI,,43.061037,-87.880421,,,,,﻿Sister,﻿Mary Vincent,,﻿Sister-servant,,,,﻿Under the charge of the Sisters of Charity,,1860,﻿,﻿,﻿Milwaukee,Milwaukee
﻿mil.wi.0322_01,"﻿asylum, orphanage",﻿St. Rosa's Orphan Asylum,English,,,,,﻿Milwaukee County,﻿Milwaukee City,﻿Milwaukee,﻿WI,,43.043037,-87.904857,,,,,﻿Sister,﻿Frances Agnes,,﻿Sister-servant,,﻿child,﻿number of orphans 85,﻿Under the charge of the Sisters of Charity,,1860,﻿,﻿,﻿Milwaukee,Milwaukee
﻿mil.wi.0321,﻿asylum,﻿St. Emelian's Male Orphan Asylum,English,,,,﻿Milwaukee County,,﻿Nojoshing,,﻿WI,,42.979754,-87.870546,,,,,﻿Sister,﻿Emiline,,﻿Directress,,﻿child,﻿number of orphans 53,﻿Under the care of the Sisters of the Third Order of St. Francis Assisium,,1860,﻿,﻿,﻿Milwaukee,Milwaukee
﻿mil.wi.0066_03,﻿asylum,﻿St. Mary's Orphan Asylum,﻿Germ.,,,,,﻿Waukesha County,﻿Elmgrove,﻿Elm Grove,﻿WI,,43.044445,-88.074792,,,,,﻿Sister Sup'r,﻿Mary Seraphine,,﻿Sister Sup'r,,﻿child,﻿orphans 25,,,1860,﻿,﻿,﻿Milwaukee,Milwaukee
