instID,church_type,instName,language,instNote,placeName,region,county_orig,county_reg,city_orig,city_reg,state_orig,state_reg,latitude,longitude,attendingInstID,attendingChurch,attendingChurchFrequency,persID,persTitle,persName,persSuffix,persRole,persNote,memberType,member,affiliated,order,year,attendingPersID,attendingChurchNote,diocese,diocese_reg
﻿mil.wi.0001,﻿cathedral,﻿St. John's Cathedral,English,,,,,﻿Milwaukee County,﻿Milwaukee,﻿Milwaukee,﻿WI,,43.041805,-87.904118,,,,﻿j_m_henni_001,﻿Rt. Rev.,﻿J. M. Henni,﻿D.D.,,,,,,,1860,﻿,﻿,﻿Milwaukee,Milwaukee
﻿mil.wi.0001,﻿cathedral,﻿St. John's Cathedral,English,,,,,﻿Milwaukee County,﻿Milwaukee,﻿Milwaukee,﻿WI,,43.041805,-87.904118,,,,﻿m_kundig_001,﻿Very Rev.,﻿M. Kundig,,,,,,,,1860,﻿,﻿,﻿Milwaukee,Milwaukee
﻿mil.wi.0001,﻿cathedral,﻿St. John's Cathedral,English,,,,,﻿Milwaukee County,﻿Milwaukee,﻿Milwaukee,﻿WI,,43.041805,-87.904118,,,,﻿p_j_donaghoe_001,﻿Rev.,﻿P. Donaghoe,,,,,,,,1860,﻿,﻿,﻿Milwaukee,Milwaukee
﻿mil.wi.0001,﻿cathedral,﻿St. John's Cathedral,English,,,,,﻿Milwaukee County,﻿Milwaukee,﻿Milwaukee,﻿WI,,43.041805,-87.904118,,,,,﻿Rev.,﻿P. O'Farrell,,,,,,,,1860,﻿,﻿,﻿Milwaukee,Milwaukee
﻿mil.wi.0002,﻿church,﻿St. Mary's,English,,,,,﻿Milwaukee County,﻿Milwaukee,﻿Milwaukee,﻿WI,,43.042173,-87.907964,,,,,﻿Rev.,﻿F. Etschmann,,,,,,,,1860,﻿,﻿,﻿Milwaukee,Milwaukee
﻿mil.wi.0003,﻿church,﻿St. Gall's,English,,,,,﻿Milwaukee County,﻿Milwaukee,﻿Milwaukee,﻿WI,,43.066124,-87.913974,,,,﻿f_x_de-coen_002,﻿Rev.,﻿F. X. De Coen,﻿S.J.,,,,,,,1860,﻿,﻿,﻿Milwaukee,Milwaukee
﻿mil.wi.0003,﻿church,﻿St. Gall's,English,,,,,﻿Milwaukee County,﻿Milwaukee,﻿Milwaukee,﻿WI,,43.066124,-87.913974,,,,﻿d_kenny_002,﻿Rev.,﻿D. Kenny,﻿S.J.,,,,,,,1860,﻿,﻿,﻿Milwaukee,Milwaukee
﻿mil.wi.0004,﻿church,﻿Holy Trinity,English,,,,,﻿Milwaukee County,﻿Milwaukee,﻿Milwaukee,﻿WI,,43.025057,-87.91582,,,,﻿j_conrad_001,﻿Rev.,﻿J. Conrad,,,,,,,,1860,﻿,﻿,﻿Milwaukee,Milwaukee
﻿mil.wi.0005,﻿church,﻿St. Joseph's,English,,,,,﻿Milwaukee County,﻿Milwaukee,﻿Milwaukee,﻿WI,,43.04987,-87.926109,,,,﻿j_holzhauer_001,﻿Rev.,﻿J. Holzhauer,,,,,,,,1860,﻿,﻿,﻿Milwaukee,Milwaukee
﻿mil.wi.0006,﻿church,﻿St. Peter's,English,,,,,﻿Milwaukee County,﻿Milwaukee,﻿Milwaukee,﻿WI,,43.044007,-87.905226,﻿mil.wi.0001,﻿Attended from the Cathedral,,,,,,,,,,,,1860,﻿,﻿,﻿Milwaukee,Milwaukee
﻿mil.wi.0010,﻿church,﻿St. Mary's of the Holy Angels,English,,,,,﻿Milwaukee County,﻿Milwaukee,﻿Milwaukee,﻿WI,,43.047156,-87.907544,,,,﻿f_x_krautbauer_001,﻿Rev.,﻿F. X. Krautbauer,,,,,,,,1860,﻿,﻿,﻿Milwaukee,Milwaukee
﻿mil.wi.0011,﻿church,﻿St. Patrick's,English,,,,﻿Sheboygan County,﻿Sheboygan County,﻿Abbottown,,﻿WI,,43.689523,-87.618638,,﻿Attended by Rev. F. Fusseder,,,﻿Rev.,﻿F. Fusseder,,,,,,,,1860,﻿,﻿,﻿Milwaukee,Milwaukee
﻿mil.wi.0013,﻿church,﻿St. Anthony's,English,,,,﻿Washington County,﻿Washington County,﻿Addison,﻿Addison,﻿WI,,43.442793,-88.340515,,,,﻿c_rehrl_001,﻿Rev.,﻿C. Rehrl,,,,,,,,1860,﻿,﻿,﻿Milwaukee,Milwaukee
﻿mil.wi.0014,﻿church,﻿SS. Peter and Paul,English,,,,﻿Washington County,﻿Washington County,﻿Addison,﻿Addison,﻿WI,,43.446284,-88.393623,,,,﻿c_rehrl_001,﻿Rev.,﻿C. Rehrl,,,,,,,,1860,﻿,﻿,﻿Milwaukee,Milwaukee
﻿mil.wi.0016,﻿church,﻿St. Martin's,English,,,,﻿Fond du Lac County,﻿Fond du Lac County,﻿Ashford,﻿Ashford,﻿WI,,43.586939,-88.370656,,,,﻿m_pickler_001,﻿Rev.,﻿M. Pickler,,,,,,,,1860,﻿,﻿,﻿Milwaukee,Milwaukee
﻿mil.wi.0465,﻿church,﻿St. Kilian's,English,,,,﻿Fond du Lac County,,﻿Ashford,,﻿WI,,,,,,,﻿m_pickler_001,﻿Rev.,﻿M. Pickler,,,,,,,,1860,﻿,﻿,﻿Milwaukee,Milwaukee
﻿mil.wi.0460,﻿church,﻿St. Joseph's,English,,,,﻿St. Croix County,,﻿Apple River,,﻿WI,,,,,﻿Attended by Rev. N. Mignault,,﻿n_mignault_002,﻿Rev.,﻿N. Mignault,,,,,,,,1860,﻿,﻿,﻿Milwaukee,Milwaukee
﻿mil.wi.0018,﻿church,﻿Immaculate Conception,English,,,,﻿Washington County,﻿Washington County,﻿Barton,﻿Barton,﻿WI,,43.460556,-88.236382,,,,﻿c_rehrl_001,﻿Rev.,﻿C. Rehrl,,,,,,,,1860,﻿,﻿,﻿Milwaukee,Milwaukee
﻿mil.wi.0018,﻿church,﻿St. Adelia's,English,,,,﻿Keewannee County,﻿Washington County,﻿Belgium,﻿Barton,﻿WI,,43.460556,-88.236382,,﻿Attended by Fathers of C.S.C.,,,,,,,,,,,,1860,﻿,﻿,﻿Milwaukee,Milwaukee
﻿mil.wi.0020,﻿church,﻿St. Thomas',English,,,,﻿Rock County,﻿Rock County,﻿Beloit,﻿Beloit,﻿WI,,42.499446,-89.027951,,,,﻿tho_smith_001,﻿Rev.,﻿Thomas Smith,,,,,,,,1860,﻿,﻿,﻿Milwaukee,Milwaukee
﻿mil.wi.0019,﻿church,﻿St. Mathias',English,,,,﻿Milwaukee County,﻿Milwaukee County,﻿Beloit Road,﻿West Milwaukee,﻿WI,,42.985763,-88.029982,,,,,﻿Rev.,﻿M. Polack,,,,,,,,1860,﻿,﻿,﻿Milwaukee,Milwaukee
﻿lac.wi.0005,﻿church,﻿St. Boniface's,English,,,,﻿La Crosse County,﻿La Crosse County,﻿Buchanan,﻿Washington,﻿WI,,43.813775,-91.251902,,﻿Attended by Rev. H. Tappert,,,﻿Rev.,﻿H. Tappert,,,,,,,,1860,﻿,﻿,﻿Milwaukee,Milwaukee
﻿mil.wi.0326,﻿church,﻿St. Pius',English,,,,﻿Columbia County,,﻿Briggsville,,﻿WI,,,,,,,,﻿Rev.,﻿M. Hobbs,,,,,,,,1860,﻿,﻿,﻿Milwaukee,Milwaukee
﻿mil.wi.0030,﻿church,﻿St. Sebastian's,English,,,,﻿Racine County,﻿Racine County,﻿Burlington,﻿Burlington,﻿WI,,42.675796,-88.281435,,,,﻿m_wisbauer_001,﻿Rev.,﻿M. Wisbauer,,,,,,,,1860,﻿,﻿,﻿Milwaukee,Milwaukee
﻿mil.wi.0031,﻿church,﻿St. Patrick's,English,,,,﻿Kenosha County,﻿Kenosha County,﻿Brighton,﻿Brighton,﻿WI,,42.627816,-88.100668,,,,,﻿Rev.,﻿M. Beiter,,,,,,,,1860,﻿,﻿,﻿Milwaukee,Milwaukee
﻿mil.wi.0033,﻿church,﻿St. Dominic's,English,,,,﻿Waukesha County,﻿Waukesha County,﻿Brookfield,﻿Brookfield,﻿WI,,43.060935,-88.126055,,﻿Attended by Rev. P. McGuerk,,,﻿Rev.,﻿P. McGuerk,,,,,,,,1860,﻿,﻿,﻿Milwaukee,Milwaukee
﻿mil.wi.0024,﻿church,﻿Holy Cross,English,,,,﻿Ozaukee County,﻿Ozaukee County,﻿Belgium,﻿Belgium,﻿WI,,43.47028,-87.89556,,,,﻿m_deisenrieder_001,﻿Rev.,﻿M. Deisenrieder,,,,,,,,1860,﻿,﻿,﻿Milwaukee,Milwaukee
﻿mil.wi.0025,﻿church,﻿St. Mary's,English,,,,﻿Ozaukee County,﻿Ozaukee County,﻿Belgium,﻿Belgium,﻿WI,,43.499721,-87.850367,,,,﻿m_deisenrieder_001,﻿Rev.,﻿M. Deisenrieder,,,,,,,,1860,﻿,﻿,﻿Milwaukee,Milwaukee
﻿mil.wi.0021,﻿church,﻿St. Peter's,English,,,,﻿Dodge County,﻿Dodge County,﻿Beaver Dam,﻿Beaver Dam,﻿WI,,43.451203,-88.836304,,,,,﻿Rev.,﻿Chs. Shraudenbach,,,,,,,,1860,﻿,﻿,﻿Milwaukee,Milwaukee
﻿mil.wi.0035,﻿church,﻿St. John's,English,,,,﻿Fond du Lac County,﻿Fond du Lac County,﻿Byron,﻿Byron,﻿WI,,43.674434,-88.450704,,﻿Attended by Rev. L. Dael,,,﻿Rev.,﻿L. Dael,,,,,,,,1860,﻿,﻿,﻿Milwaukee,Milwaukee
﻿gre.wi.0033,﻿church,﻿Exaltation of the Holy Cross,English,,,,﻿Brown County,,﻿Bay Settlement,,﻿WI,,,,,,,﻿e_daems_002,﻿Very Rev.,﻿E. Daems,﻿C.S.C.,,,,,,,1860,﻿,﻿,﻿Milwaukee,Milwaukee
﻿gre.wi.0033,﻿church,﻿Exaltation of the Holy Cross,English,,,,﻿Brown County,,﻿Bay Settlement,,﻿WI,,,,,,,﻿j_h_nuyts_001,﻿Rev.,﻿J. H. Nuyts,﻿C.S.C.,,,,,,,1860,﻿,﻿,﻿Milwaukee,Milwaukee
﻿gre.wi.0033,﻿church,﻿Exaltation of the Holy Cross,English,,,,﻿Brown County,,﻿Bay Settlement,,﻿WI,,,,,,,﻿w_c_verhoeff_001,﻿Rev.,﻿W. C. Verhoeff,﻿C.S.C.,,,,,,,1860,﻿,﻿,﻿Milwaukee,Milwaukee
﻿gre.wi.0033,﻿church,﻿Exaltation of the Holy Cross,English,,,,﻿Brown County,,﻿Bay Settlement,,﻿WI,,,,,,,﻿a_aarts_001,﻿Rev.,﻿A. Aarts,﻿C.S.C.,,,,,,,1860,﻿,﻿,﻿Milwaukee,Milwaukee
﻿mil.wi.0026,﻿church,﻿St. Patrick's,English,,,,﻿Lafayette County,﻿Lafayette County,﻿Benton,﻿Benton,﻿WI,,42.567763,-90.378652,,,,﻿s_mazzuchelli_001,﻿Rev.,﻿S. Mazzuchelli,﻿O.S.D.,,,,,,,1860,﻿,﻿,﻿Milwaukee,Milwaukee
﻿mil.wi.0027,﻿church,﻿St. Joseph's,English,,,,﻿Marquette County,﻿Green Lake County,﻿Berlin,﻿Berlin,﻿WI,,43.977705,-88.941571,,,,﻿e_gray_001,﻿Rev.,﻿E. Gray,,,,,,,,1860,﻿,﻿,﻿Milwaukee,Milwaukee
﻿lac.wi.0069,﻿church,﻿St. Mary's,English,,,,﻿La Crosse County,,﻿Boswick,,﻿WI,,,,,﻿Attended by Rev. H. Tappert,,,﻿Rev.,﻿H. Tappert,,,,,,,,1860,﻿,﻿,﻿Milwaukee,Milwaukee
﻿lac.wi.0005,﻿church,﻿St. Joseph's,English,,,,﻿La Crosse County,﻿La Crosse County,﻿Buchanan,﻿Washington,﻿WI,,43.813775,-91.251902,,﻿Attended from La Crosse,,,,,,,,,,,,1860,﻿,﻿,﻿Milwaukee,Milwaukee
﻿mil.wi.0036,﻿church,﻿St. Louis,English,,,,﻿Racine County,﻿Racine County,﻿Calledonia,﻿Caledonia,﻿WI,,42.807796,-87.924248,,﻿Attended from Laketown,,,,,,,,,,,,1860,﻿,﻿,﻿Milwaukee,Milwaukee
﻿mil.wi.0037,﻿church,﻿Holy Family,English,,,,﻿Racine County,﻿Racine County,﻿Calledonia,﻿Caledonia,﻿WI,,42.800861,-87.836661,,﻿Attended by F. X. Sailer,,,,﻿F. X. Sailer,,,,,,,,1860,﻿,﻿,﻿Milwaukee,Milwaukee
﻿mil.wi.0039,﻿church,﻿St. Mary's,English,,,,﻿Sheboygan County,﻿Sheboygan County,﻿Cascade,﻿Cascade,﻿WI,,43.658329,-88.007038,,,,,﻿Rev.,﻿F. Fusseder,,,,,,,,1860,﻿,﻿,﻿Milwaukee,Milwaukee
﻿mil.wi.0040,﻿church,﻿St. Charles,English,,,,﻿Grant County,﻿Grant County,﻿Cassville,﻿Cassville,﻿WI,,42.715431,-90.974686,,﻿Attended by Rev. M. W. Gibson,,﻿m_w_gibson_001,﻿Rev.,﻿M. W. Gibson,,,,,,,,1860,﻿,﻿,﻿Milwaukee,Milwaukee
﻿mil.wi.0041,﻿church,﻿St. Francis Borgia,English,,,,﻿Ozaukee County,﻿Ozaukee County,﻿Cedarsburgh,﻿Cedarburg,﻿WI,,43.325764,-88.006679,,,,﻿w_dougherty_001,﻿Rev.,﻿W. Dougherty,,,,,,,,1860,﻿,﻿,﻿Milwaukee,Milwaukee
﻿mil.wi.0134,﻿church,﻿St. Mary's,English,,,,﻿Calumet County,,﻿Calumet,,﻿WI,,,,,,,﻿j_stucky_001,﻿Rev.,﻿J. Stucky,,,,,,,,1860,﻿,﻿,﻿Milwaukee,Milwaukee
﻿gre.wi.0008,﻿church,﻿St. Maximilian's,English,,,,﻿Calumet County,﻿Calumet County,﻿Chilton,﻿Chilton,﻿WI,,44.028936,-88.166224,,,,,﻿Rev.,﻿J. McMahon,,,,,,,,1860,﻿,﻿,﻿Milwaukee,Milwaukee
﻿mil.wi.0047,﻿church,﻿St. Isidore's,English,,,,﻿Dodge County,﻿Dodge County,﻿Clyman,﻿Clyman,﻿WI,,43.308947,-88.718006,,﻿Attended by Rev. F. Uhlmeyer,,,﻿Rev.,﻿F. Uhlmeyer,,,,,,,,1860,﻿,﻿,﻿Milwaukee,Milwaukee
﻿lac.wi.0007,﻿church,﻿St. Mary's,English,,,,﻿Chippewa County,﻿Chippewa County,﻿Chippewa,﻿Chippewa Falls,﻿WI,,44.936905,-91.392935,,﻿Attended by Rev. A. Mignault,,,﻿Rev.,﻿A. Mignault,,,,,,,,1860,﻿,﻿,﻿Milwaukee,Milwaukee
﻿mil.wi.0334,﻿church,﻿Holy Family,English,,,,﻿Manitowoc County,,﻿Cooperstown,,﻿WI,,,,,﻿Attended by Rev. J. Maly,,﻿j_maly_002,﻿Rev.,﻿J. Maly,,,,,,,,1860,﻿,﻿,﻿Milwaukee,Milwaukee
﻿mil.wi.0051,﻿church,﻿St. Mary's,English,,,,﻿Dane County,﻿Dane County,﻿Cross Plains,﻿Cross Plains,﻿WI,,43.495559,-89.310633,,,,﻿mat_garnbauer_001,﻿Rev.,﻿Math. Gernbauer,,,,,,,,1860,﻿,﻿,﻿Milwaukee,Milwaukee
﻿lac.wi.0094,﻿church,﻿All Saints,English,,,,﻿Sauk County,,﻿Delona,,﻿WI,,43.595825,-89.934587,,﻿Attended by Rev. P. Montague,,﻿p_montague_002,﻿Rev.,﻿P. Montague,,,,,,,,1860,﻿,﻿,﻿Milwaukee,Milwaukee
﻿mil.wi.0056,﻿church,﻿St. Andrew's,English,﻿vacant,,,﻿Walworth County,﻿Walworth County,﻿Delavan,﻿Delavan,﻿WI,,42.637216,-88.639119,,,,,,,,,,,,,,1860,﻿,﻿,﻿Milwaukee,Milwaukee
﻿mil.wi.0057,﻿church,﻿St. Kieran's,English,,,,﻿Columbia County,﻿Columbia County,﻿Dekora,﻿Dekkora,﻿WI,,43.457484,-89.46762,,﻿Attended from Portage City,,,,,,,,,,,,1860,﻿,﻿,﻿Milwaukee,Milwaukee
﻿mil.wi.0337,﻿church,﻿St. Ignatius',English,,,,﻿Brown County,,﻿Depére,,﻿WI,,,,,﻿Attended from the Bay,,,,,,,,,,,,1860,﻿,﻿,﻿Milwaukee,Milwaukee
﻿mil.wi.0353,﻿church,﻿St. Charles,English,,,,﻿Winnebago County,,﻿Doty's Island,,﻿WI,,,,,,,,﻿Rev.,﻿S. Seif,,,,,,,,1860,﻿,﻿,﻿Milwaukee,Milwaukee
﻿mil.wi.0060,﻿church,﻿St. Thaddeus,English,﻿vacant,,,﻿Walworth County,﻿Walworth County,﻿East Troy,﻿East Troy,﻿WI,,42.785292,-88.405096,,,,,,,,,,,,,,1860,﻿,﻿,﻿Milwaukee,Milwaukee
﻿mil.wi.0062,﻿church,[Unnamed Institution],English,,,,﻿Waukesha County,﻿Waukesha County,﻿Eagle Centre,﻿Eagle,﻿WI,,43.00726,-88.323931,,﻿Attended by Rev. R. Dumphy,,,﻿Rev.,﻿R. Dumphy,,,,,,,,1860,﻿,﻿,﻿Milwaukee,Milwaukee
﻿lac.wi.0009,﻿church,﻿St. Peter's,English,,,,﻿Eau Claire County,﻿Eau Claire County,﻿Eau Claire,﻿Eau Claire,﻿WI,,44.811349,-91.498494,,﻿Attended by Rev. A. Mignault,,,﻿Rev.,﻿A. Mignault,,,,,,,,1860,﻿,﻿,﻿Milwaukee,Milwaukee
﻿mil.wi.0070,﻿church,﻿St. Columbkille,English,﻿vacant,,,﻿Dodge County,,﻿Elba,,﻿WI,,,,,,,,,,,,,,,,,1860,﻿,﻿,﻿Milwaukee,Milwaukee
﻿mil.wi.0069,﻿church,[Unnamed Institution],English,,,,﻿Fond du Lac County,﻿Fond du Lac County,﻿Eden,﻿Eden,﻿WI,,43.693603,-88.360936,,﻿Attended by Rev. L. Dael,,,﻿Rev.,﻿L. Dael,,,,,,,,1860,﻿,﻿,﻿Milwaukee,Milwaukee
