instID,church_type,instName,language,instNote,placeName,region,county_orig,county_reg,city_orig,city_reg,state_orig,state_reg,latitude,longitude,attendingInstID,attendingChurch,attendingChurchFrequency,persID,persTitle,persName,persSuffix,persRole,persNote,memberType,member,affiliated,order,year,attendingPersID,attendingChurchNote,diocese,diocese_reg
﻿mil.wi.0001,﻿cathedral,﻿St. John's Cathedral,English,"﻿Some members of St. John's Cathedral form the St. John's Orphan Association, on behalf of female orphans.  The St. Mary Martha's Society is held monthly by the ladies of the Cathedral congregation for the benefit of the poor.  There is an Altar Society consisting of ladies of the Cathedral congregation.",﻿Corner of Jackson and Oneida streets,,,﻿Milwaukee County,﻿Milwaukee,﻿Milwaukee,﻿WI,,43.041805,-87.904118,,,,﻿joh_m_henni_001,﻿Rt. Rev.,﻿J. M. Henni,﻿D.D.,,,,,,,1869,﻿,﻿,﻿Milwaukee,Milwaukee
﻿mil.wi.0001,﻿cathedral,﻿St. John's Cathedral,English,"﻿Some members of St. John's Cathedral form the St. John's Orphan Association, on behalf of female orphans.  The St. Mary Martha's Society is held monthly by the ladies of the Cathedral congregation for the benefit of the poor.  There is an Altar Society consisting of ladies of the Cathedral congregation.",﻿Corner of Jackson and Oneida streets,,,﻿Milwaukee County,﻿Milwaukee,﻿Milwaukee,﻿WI,,43.041805,-87.904118,,,,﻿mar_kundig_001,﻿Very Rev.,﻿M. Kundig,,,,,,,,1869,﻿,﻿,﻿Milwaukee,Milwaukee
﻿mil.wi.0001,﻿cathedral,﻿St. John's Cathedral,English,"﻿Some members of St. John's Cathedral form the St. John's Orphan Association, on behalf of female orphans.  The St. Mary Martha's Society is held monthly by the ladies of the Cathedral congregation for the benefit of the poor.  There is an Altar Society consisting of ladies of the Cathedral congregation.",﻿Corner of Jackson and Oneida streets,,,﻿Milwaukee County,﻿Milwaukee,﻿Milwaukee,﻿WI,,43.041805,-87.904118,,,,﻿p_j_donaghoe_001,﻿Rev.,﻿P. J. Donaghoe,,,,,,,,1869,﻿,﻿,﻿Milwaukee,Milwaukee
﻿mil.wi.0002,﻿church,﻿St. Mary's,English,,﻿Corner of Main and Biddle streets,,,﻿Milwaukee County,﻿Milwaukee,﻿Milwaukee,﻿WI,43.042173,43.042173,-87.907964,,,,﻿l_batz_001,﻿Rev.,﻿L. Batz,,,,,,,,1869,﻿,﻿,﻿Milwaukee,Milwaukee
﻿mil.wi.0003,﻿church,﻿St. Gall's,English,﻿Hibernian Benevolent Society for the benefit of the members and widows of deceased members of St. Gall's.  The St. Mary Martha's Society is held monthly by the ladies of St. Gall's for the benefit of the poor.,﻿Corner of Second and Sycamore streets,,,﻿Milwaukee County,﻿Milwaukee,﻿Milwaukee,﻿WI,,43.0372578,-87.91136058,,,,﻿sta_p_lalumiere_001,﻿Rev.,﻿Stanislaus P. Lalumiere,﻿S.J.,﻿Superior,,,,,,1869,﻿,﻿,﻿Milwaukee,Milwaukee
﻿mil.wi.0003,﻿church,﻿St. Gall's,English,﻿Hibernian Benevolent Society for the benefit of the members and widows of deceased members of St. Gall's.  The St. Mary Martha's Society is held monthly by the ladies of St. Gall's for the benefit of the poor.,﻿Corner of Second and Sycamore streets,,,﻿Milwaukee County,﻿Milwaukee,﻿Milwaukee,﻿WI,,43.0372578,-87.91136058,,,,﻿ign_maes_001,﻿Rev.,﻿Ignatius Maes,﻿S.J.,,,,,,,1869,﻿,﻿,﻿Milwaukee,Milwaukee
﻿mil.wi.0003,﻿church,﻿St. Gall's,English,﻿Hibernian Benevolent Society for the benefit of the members and widows of deceased members of St. Gall's.  The St. Mary Martha's Society is held monthly by the ladies of St. Gall's for the benefit of the poor.,﻿Corner of Second and Sycamore streets,,,﻿Milwaukee County,﻿Milwaukee,﻿Milwaukee,﻿WI,,43.0372578,-87.91136058,,,,﻿p_a_nogues_001,﻿Rev.,﻿P. A. Nogues,﻿S.J.,,,,,,,1869,﻿,﻿,﻿Milwaukee,Milwaukee
﻿mil.wi.0003,﻿church,﻿St. Gall's,English,﻿Hibernian Benevolent Society for the benefit of the members and widows of deceased members of St. Gall's.  The St. Mary Martha's Society is held monthly by the ladies of St. Gall's for the benefit of the poor.,﻿Corner of Second and Sycamore streets,,,﻿Milwaukee County,﻿Milwaukee,﻿Milwaukee,﻿WI,,43.0372578,-87.91136058,,,,﻿wm_schmidt_001,﻿Rev.,﻿W. Schmidt,﻿S.J.,,,,,,,1869,﻿,﻿,﻿Milwaukee,Milwaukee
﻿mil.wi.0003,﻿church,﻿St. Gall's,English,﻿Hibernian Benevolent Society for the benefit of the members and widows of deceased members of St. Gall's.  The St. Mary Martha's Society is held monthly by the ladies of St. Gall's for the benefit of the poor.,﻿Corner of Second and Sycamore streets,,,﻿Milwaukee County,﻿Milwaukee,﻿Milwaukee,﻿WI,,43.0372578,-87.91136058,,,,﻿f_p_garesche_001,﻿Rev.,﻿F. P. Garesche,﻿S.J.,,,,,,,1869,﻿,﻿,﻿Milwaukee,Milwaukee
﻿mil.wi.0004,﻿church,﻿Holy Trinity,English,,﻿Corner of Park and Greenbush streets,,,﻿Milwaukee County,﻿Milwaukee,﻿Milwaukee,﻿WI,,43.025057,-87.91582,,,,﻿l_conrad_001,﻿Rev.,﻿L. Conrad,,,,,,,,1869,﻿,﻿,﻿Milwaukee,Milwaukee
﻿mil.wi.0005,﻿church,﻿St. Joseph's,English,,﻿Corner of Eleventh and Lisbon streets,,,﻿Milwaukee County,﻿Milwaukee,﻿Milwaukee,﻿WI,,43.04987,-87.926109,,,,﻿jos_holzhauer_001,﻿Rev.,﻿Jos. Holzhauer,,,,,,,,1869,﻿,﻿,﻿Milwaukee,Milwaukee
﻿mil.wi.0006,﻿church,﻿St. Peter's,English,,﻿Corner of Martin and Jackson streets,,,﻿Milwaukee County,﻿Milwaukee,﻿Milwaukee,﻿WI,,43.044007,-87.905226,﻿mil.wi.0001,﻿Attended from the Cathedral,,,,,,,,,,,,1869,﻿,﻿,﻿Milwaukee,Milwaukee
﻿mil.wi.0007,﻿church,﻿St. Stanislaus',﻿Polish,,﻿Corner of Green and Grove streets,,,﻿Milwaukee County,﻿Milwaukee,﻿Milwaukee,﻿WI,,43.012529,-87.916966,,,,﻿j_jaster_001,﻿Rev.,﻿J. Jaster,,,,,,,,1869,﻿,﻿,﻿Milwaukee,Milwaukee
﻿mil.wi.0008,"﻿church, station",﻿St. John Nepomucene's,English,﻿Sclavonian missionary church and station,﻿Corner of Fourth and Cherry streets,,,﻿Milwaukee County,﻿Milwaukee,﻿Milwaukee,﻿WI,,43.05011,-87.915186,,,,﻿j_gartner_001,﻿Rev.,﻿J. Gartner,,,,,,,,1869,﻿,﻿,﻿Milwaukee,Milwaukee
﻿mil.wi.0008,"﻿church, station",﻿St. John Nepomucene's,English,﻿Sclavonian missionary church and station,﻿Corner of Fourth and Cherry streets,,,﻿Milwaukee County,﻿Milwaukee,﻿Milwaukee,﻿WI,,43.05011,-87.915186,,,,﻿a_lang_001,﻿Rev.,﻿A. Lang,,,,,,,,1869,﻿,﻿,﻿Milwaukee,Milwaukee
﻿mil.wi.0008,"﻿church, station",﻿St. John Nepomucene's,English,﻿Sclavonian missionary church and station,﻿Corner of Fourth and Cherry streets,,,﻿Milwaukee County,﻿Milwaukee,﻿Milwaukee,﻿WI,,43.05011,-87.915186,,,,,﻿Rev.,﻿- Heller,,,,,,,,1869,﻿,﻿,﻿Milwaukee,Milwaukee
﻿mil.wi.0009,"﻿church, convent",﻿Capuchin Convent of St. Francis of Assisi,English,,﻿Corner of Fourth and Karman streets,,,﻿Milwaukee County,﻿Milwaukee,﻿Milwaukee,﻿WI,,43.056055,-87.915994,,,,﻿p_ivo_001,﻿Rev.,﻿P. Ivo,﻿O.M.C.,﻿Prov.,,,,,,1869,﻿,﻿,﻿Milwaukee,Milwaukee
﻿mil.wi.0010,﻿church,﻿St. Mary's of the Holy Angels,English,,﻿Corner of Milwaukee and Knapp streets,,,﻿Milwaukee County,﻿Milwaukee,﻿Milwaukee,﻿WI,,43.047156,-87.907544,,,,﻿f_x_krautbauer_001,﻿Rev.,﻿F. X. Krautbauer,,﻿Chaplain,,,,,,1869,﻿,﻿,﻿Milwaukee,Milwaukee
﻿mil.wi.0011,﻿church,﻿St. Patrick's,English,,,,﻿Sheboygan County,﻿Sheboygan County,﻿Abbottown,,﻿WI,,43.61692068,-87.93144176,﻿mil.wi.0039,﻿Attended from Cascade,,,,,,,,,,,,1869,﻿,﻿,﻿Milwaukee,Milwaukee
﻿mil.wi.0012,﻿church,﻿St. Francis Xavier's,English,,,,﻿Green County,﻿Green County,﻿Adams,﻿Adams,﻿WI,,42.726975,-89.794289,﻿mil.wi.0145,﻿Attended by Rev. J. Casey,,﻿joh_casey_001,﻿Rev.,﻿J. Casey,,,,,,,,1869,﻿,﻿,﻿Milwaukee,Milwaukee
﻿mil.wi.0013,﻿church,﻿St. Anthony's,English,,,,﻿Washington County,﻿Washington County,﻿Addison,﻿Addison,﻿WI,,43.442793,-88.340515,,,,﻿w_engeln_001,﻿Rev.,﻿W. Engeln,,,,,,,,1869,﻿,﻿,﻿Milwaukee,Milwaukee
﻿mil.wi.0014,﻿church,﻿SS. Peter and Paul's,English,,,,﻿Washington County,﻿Washington County,﻿Addison,﻿Addison,﻿WI,,43.446284,-88.393623,,,,﻿w_engeln_001,﻿Rev.,﻿W. Engeln,,,,,,,,1869,﻿,﻿,﻿Milwaukee,Milwaukee
﻿mil.wi.0015,﻿church,﻿St. Francis of Sales,English,,,,﻿Green County,﻿Green County,﻿Albany,﻿Albany,﻿WI,,42.735501,-89.426929,﻿mil.wi.0028,﻿Attended by Rev. J. Kinsella,,﻿j_j_kinsella_001,﻿Rev.,﻿J. Kinsella,,,,,,,,1869,﻿,﻿,﻿Milwaukee,Milwaukee
﻿mil.wi.0016,﻿church,﻿St. Martin's,English,,,,﻿Fond du Lac County,﻿Fond du Lac County,﻿Ashford,﻿Ashford,﻿WI,,43.586939,-88.370656,,,,﻿a_michels_001,﻿Rev.,﻿A. Michels,,,,,,,,1869,﻿,﻿,﻿Milwaukee,Milwaukee
﻿mil.wi.0017,﻿church,﻿St. Matthias',English,,,,﻿Fond du Lac County,﻿Fond du Lac County,﻿Auburn,﻿Auburn,﻿WI,,43.585118,-88.20716,,﻿Attended by Rev. C. Rehrl,,﻿c_rehrl_001,﻿Rev.,﻿C. Rehrl,,,,,,,,1869,﻿,﻿,﻿Milwaukee,Milwaukee
﻿mil.wi.0018,﻿church,﻿Immaculate Conception,English,,,,﻿Washington County,﻿Washington County,﻿Barton,﻿Barton,﻿WI,,43.460556,-88.236382,,,,﻿j_reindl_001,﻿Rev.,﻿J. Reindl,,,,,,,,1869,﻿,﻿,﻿Milwaukee,Milwaukee
﻿mil.wi.0019,﻿church,﻿St. Matthias',English,,,,﻿Milwaukee County,﻿Milwaukee County,﻿Beloit Road,﻿West Milwaukee,﻿WI,,42.985763,-88.029982,,,,﻿h_j_muckerheide_001,﻿Rev.,﻿H. J. Muckerheide,,,,,,,,1869,﻿,﻿,﻿Milwaukee,Milwaukee
﻿mil.wi.0020,﻿church,﻿St. Thomas',English,,,,﻿Rock County,﻿Rock County,﻿Beloit,﻿Beloit,﻿WI,,42.499446,-89.027951,,,,﻿r_sullivan_001,﻿Rev.,﻿R. Sullivan,,,,,,,,1869,﻿,﻿,﻿Milwaukee,Milwaukee
﻿mil.wi.0021,﻿church,﻿St. Peter's,English,,,,﻿Dodge County,﻿Dodge County,﻿Beaver Dam,﻿Beaver Dam,﻿WI,,43.451203,-88.836304,,,,﻿f_fusseder_001,﻿Rev.,﻿F. Fusseder,,,,,,,,1869,﻿,﻿,﻿Milwaukee,Milwaukee
﻿mil.wi.0022,﻿church,﻿St. Mary's,English,,,,﻿Dodge County,﻿Dodge County,﻿Beaver Dam,﻿Beaver Dam,﻿WI,,43.443629,-88.858722,,,,﻿f_fusseder_001,﻿Rev.,﻿F. Fusseder,,,,,,,,1869,﻿,﻿,﻿Milwaukee,Milwaukee
﻿mil.wi.0023,﻿church,﻿St. Patrick's,English,,,,﻿Dodge County,﻿Dodge County,﻿Beaver Dam,﻿Beaver Dam,﻿WI,,43.439298,-88.842518,,,,﻿j_e_allen_001,﻿Rev.,﻿J. E. Allen,,,,,,,,1869,﻿,﻿,﻿Milwaukee,Milwaukee
﻿mil.wi.0024,﻿church,﻿Holy Cross,English,,,,﻿Ozaukee County,﻿Ozaukee County,﻿Belgium,﻿Belgium,﻿WI,,43.47028,-87.89556,,,,﻿j_welter_001,﻿Rev.,﻿J. Welter,,,,,,,,1869,﻿,﻿,﻿Milwaukee,Milwaukee
﻿mil.wi.0025,﻿church,﻿St. Mary's,English,,,,﻿Ozaukee County,﻿Ozaukee County,﻿Belgium,﻿Belgium,﻿WI,,43.499721,-87.850367,,,,﻿fre_friedinger_001,﻿Rev.,﻿Fred. Friedinger,,,,,,,,1869,﻿,﻿,﻿Milwaukee,Milwaukee
﻿mil.wi.0026,﻿church,﻿St. Patrick's,English,,,,﻿Lafayette County,﻿Lafayette County,﻿Benton,﻿Benton,﻿WI,,42.567763,-90.378652,,,,﻿g_prendergast_001,﻿Rev.,﻿G. Prendergast,,,,,,,,1869,﻿,﻿,﻿Milwaukee,Milwaukee
﻿mil.wi.0027,﻿church,﻿St. Joseph's,English,,,,﻿Green Lake County,﻿Green Lake County,﻿Berlin,﻿Berlin,﻿WI,,43.977705,-88.941571,,,,﻿e_dael_001,﻿Rev.,﻿E. Dael,,,,,,,,1869,﻿,﻿,﻿Milwaukee,Milwaukee
﻿mil.wi.0028,﻿church,﻿St. Rosa's,English,,,,﻿Green County,﻿Green County,﻿Broadhead,﻿Brodhead,﻿WI,,42.618342,-89.376228,,,,﻿j_j_kinsella_001,﻿Rev.,﻿J. Kinsella,,,,,,,,1869,﻿,﻿,﻿Milwaukee,Milwaukee
﻿mil.wi.0029,﻿church,﻿St. Charles Borromeo's,English,,,,﻿Calumet County,﻿Calumet County,﻿Brothertown,﻿Brothertown,﻿WI,,43.978368,-88.275314,﻿mil.wi.0134,﻿Attended from Marytown,,,,,,,,,,,,1869,﻿,﻿,﻿Milwaukee,Milwaukee
﻿mil.wi.0030,﻿church,﻿Immaculate Conception,English,,,,﻿Racine County,﻿Racine County,﻿Burlington,﻿Burlington,﻿WI,,42.675796,-88.281435,,,,﻿m_wissbauer_001,﻿Rev.,﻿M. Wissbauer,,,,,,,,1869,﻿,﻿,﻿Milwaukee,Milwaukee
﻿mil.wi.0031,﻿church,﻿St. Patrick's,English,,,,﻿Kenosha County,﻿Kenosha County,﻿Brighton,﻿Brighton,﻿WI,,42.6278164,-88.10066777,,,,﻿h_weinhardt_001,﻿Rev.,﻿H. Weinhardt,,,,,,,,1869,﻿,﻿,﻿Milwaukee,Milwaukee
﻿mil.wi.0032,﻿church,﻿St. Michael's,English,,,,﻿Kenosha County,﻿Kenosha County,﻿Bristol,﻿Bristol,﻿WI,,42.558751,-88.050448,﻿mil.wi.0220,﻿Attended from Wilmont,,,,,,,,,,,,1869,﻿,﻿,﻿Milwaukee,Milwaukee
﻿mil.wi.0033,﻿church,﻿St. Dominic's,English,,,,﻿Waukesha County,﻿Waukesha County,﻿Brookfield,﻿Brookfield,﻿WI,,43.060935,-88.126055,﻿mil.wi.0138,﻿Attended by Rev. J. Fitzgibbon,,﻿j_fitzgibbon_001,﻿Rev.,﻿J. Fitzgibbon,,,,,,,,1869,﻿,﻿,﻿Milwaukee,Milwaukee
﻿mil.wi.0035,﻿church,﻿St. John's,English,,,,﻿Fond du Lac County,﻿Fond du Lac County,﻿Byron,﻿Byron,﻿WI,,43.674434,-88.450704,,,,﻿e_a_graves_001,﻿Rev.,﻿E. A. Graves,,,,,,,,1869,﻿,﻿,﻿Milwaukee,Milwaukee
﻿mil.wi.0036,﻿church,﻿St. Louis',English,,,,﻿Racine County,﻿Racine County,﻿Caledonia,﻿Caledonia,﻿WI,,42.807796,-87.924248,,,,﻿s_woelfle_001,﻿Rev.,﻿S. Woelfle,,,,,,,,1869,﻿,﻿,﻿Milwaukee,Milwaukee
﻿mil.wi.0037,﻿church,﻿Holy Family,English,,,,﻿Racine County,﻿Racine County,﻿Caledonia,﻿Caledonia,﻿WI,,42.800861,-87.836661,,,,﻿s_woelfle_001,﻿Rev.,﻿S. Woelfle,,,,,,,,1869,﻿,﻿,﻿Milwaukee,Milwaukee
﻿mil.wi.0038,﻿church,﻿St. Mary's Visitation,English,,,,﻿Columbia County,﻿Columbia County,﻿Cambria,﻿Cambria,﻿WI,,43.542207,-89.107336,﻿mil.wi.0079,﻿Attended from Fox Lake,,,,,,,,,,,,1869,﻿,﻿,﻿Milwaukee,Milwaukee
﻿mil.wi.0039,﻿church,﻿St. Mary's,English,,,,﻿Sheboygan County,﻿Sheboygan County,﻿Cascade,﻿Cascade,﻿WI,,43.658329,-88.007038,,,,﻿t_tiernan_001,﻿Rev.,﻿T. Tiernan,,,,,,,,1869,﻿,﻿,﻿Milwaukee,Milwaukee
﻿mil.wi.0040,﻿church,﻿St. Charles',English,,,,﻿Grant County,﻿Grant County,﻿Cassville,﻿Cassville,﻿WI,,42.715431,-90.974686,,,,﻿h_j_albers_001,﻿Rev.,﻿H. J. Albers,,,,,,,,1869,﻿,﻿,﻿Milwaukee,Milwaukee
﻿mil.wi.0041,﻿church,﻿St. Francis Borgia's,English,,,,﻿Ozaukee County,﻿Ozaukee County,﻿Cedarburgh,﻿Cedarburg,﻿WI,,43.325764,-88.006679,,,,﻿hug_mcmahon_001,﻿Rev.,﻿H. McMahon,,,,,,,,1869,﻿,﻿,﻿Milwaukee,Milwaukee
﻿mil.wi.0042,﻿church,﻿St. George's,English,,,,﻿Manitowoc County,﻿Manitowoc County,﻿Centreville,﻿Centerville,﻿WI,,43.950138,-87.746807,,,,﻿f_zuber_001,﻿Rev.,﻿F. Zuber,,,,,,,,1869,﻿,﻿,﻿Milwaukee,Milwaukee
﻿mil.wi.0043,﻿church,﻿St. Wendelin's,English,,,,﻿Manitowoc County,﻿Manitowoc County,﻿Centreville,﻿Centerville,﻿WI,,43.950138,-87.746807,,,,﻿f_zuber_001,﻿Rev.,﻿F. Zuber,,,,,,,,1869,﻿,﻿,﻿Milwaukee,Milwaukee
﻿mil.wi.0044,﻿church,﻿St. Martin's,English,,,,﻿Calumet County,﻿Calumet County,﻿Charleston,﻿Charlestown,﻿WI,,44.023369,-88.109612,,﻿Attended by Rev. A. Andolshek,,﻿a_andolshek_001,﻿Rev.,﻿A. Andolshek,,,,,,,,1869,﻿,﻿,﻿Milwaukee,Milwaukee
﻿mil.wi.0045,﻿church,﻿St. Malachi's,English,,,,﻿Iowa County,﻿Iowa County,﻿Clydetown,﻿Clyde,﻿WI,,43.103282,-90.24941,﻿mil.wi.0104,﻿Attended from Highland,,,,,,,,,,,,1869,﻿,﻿,﻿Milwaukee,Milwaukee
﻿mil.wi.0046,﻿church,﻿Holy Assumption,English,,,,﻿Dodge County,﻿Dodge County,﻿Clyman,﻿Clyman,﻿WI,,43.304494,-88.704125,﻿mil.wi.0181,﻿Attended by Rev. H. Roche,,﻿h_roche_001,﻿Rev.,﻿H. Roche,,,,,,,,1869,﻿,﻿,﻿Milwaukee,Milwaukee
﻿mil.wi.0047,﻿church,﻿St. Isidore's,﻿German,﻿Each of the German Catholic churches has its benevolent society for the poor.,,,﻿Dodge County,﻿Dodge County,﻿Clyman,﻿Clyman,﻿WI,,43.308947,-88.718006,﻿mil.wi.0209,﻿Attended by Rev. M. Minderer,,﻿m_minderer_001,﻿Rev.,﻿M. Minderer,,,,,,,,1869,﻿,﻿,﻿Milwaukee,Milwaukee
﻿mil.wi.0048,﻿church,﻿St. Jerome's,English,,,,﻿Columbia County,﻿Columbia County,﻿Columbus,﻿Columbus,﻿WI,,43.323503,-89.020849,,,,﻿j_okeefe_001,﻿Rev.,﻿J. O'Keefe,,,,,,,,1869,﻿,﻿,﻿Milwaukee,Milwaukee
﻿mil.wi.0049,﻿church,﻿St. Mary's of Help,English,,,,﻿Jefferson County,﻿Jefferson County,﻿Concord,﻿Concord,﻿WI,,43.06945,-88.598712,﻿mil.wi.0164,﻿Attended from Ottawa,,,,,,,,,,,,1869,﻿,﻿,﻿Milwaukee,Milwaukee
﻿mil.wi.0050,﻿church,﻿St. Francis Xavier's,English,,,,﻿Dane County,﻿Dane County,﻿Cross Plains,﻿Cross Plains,﻿WI,,43.119824,-89.634631,,,,﻿f_jansen_001,﻿Rev.,﻿F. Jansen,,,,,,,,1869,﻿,﻿,﻿Milwaukee,Milwaukee
﻿mil.wi.0051,﻿church,﻿St. Mary's,English,,,,﻿Dane County,﻿Dane County,﻿Cross Plains,﻿Cross Plains,﻿WI,,43.495559,-89.310633,,,,﻿j_hamm_001,﻿Rev.,﻿J. Hamm,,,,,,,,1869,﻿,﻿,﻿Milwaukee,Milwaukee
﻿mil.wi.0052,﻿church,﻿St. Mary's,English,,,,﻿Columbia County,﻿Columbia County,﻿Courtland,﻿Courtland,﻿WI,,43.495505,-89.039176,﻿mil.wi.0079,﻿Attended from Fox Lake,,,,,,,,,,,,1869,﻿,﻿,﻿Milwaukee,Milwaukee
﻿mil.wi.0053,﻿church,﻿Holy Rosary,English,,,,﻿La Fayette County,﻿Lafayette County,﻿Darlington,﻿Darlington,﻿WI,,42.683031,-90.117512,,,,﻿e_m_mcginnity_001,﻿Rev.,﻿E. McGinnity,,,,,,,,1869,﻿,﻿,﻿Milwaukee,Milwaukee
﻿mil.wi.0053,﻿church,﻿Holy Rosary,English,,,,﻿La Fayette County,﻿Lafayette County,﻿Darlington,﻿Darlington,﻿WI,,42.683031,-90.117512,,,,﻿d_mcginnity_001,﻿Rev.,﻿D. McGinnity,,,,,,,,1869,﻿,﻿,﻿Milwaukee,Milwaukee
﻿mil.wi.0054,﻿church,﻿St. James',English,,,,﻿Green County,﻿Green County,﻿Dayton,﻿Exeter,﻿WI,,42.790559,-89.583177,﻿mil.wi.0074,﻿Attended by Rev. J. O'Farrell,,﻿j_ofarrell_001,﻿Rev.,﻿J. O'Farrell,,,,,,,,1869,﻿,﻿,﻿Milwaukee,Milwaukee
﻿mil.wi.0055,﻿church,﻿St. Anne's,English,,,,﻿Dane County,﻿Dane County,﻿Deerfield,﻿Deerfield,﻿WI,,43.08213,-89.083051,﻿mil.wi.0214,﻿Attended by Rev. M. Hobbs,,﻿m_hobbs_001,﻿Rev.,﻿M. Hobbs,,,,,,,,1869,﻿,﻿,﻿Milwaukee,Milwaukee
﻿mil.wi.0056,﻿church,﻿St. Andrew's,English,,,,﻿Walworth County,﻿Walworth County,﻿Delavan,﻿Delavan,﻿WI,,42.637216,-88.639119,,,,﻿r_dunphy_001,﻿Rev.,﻿R. Dunphy,,,,,,,,1869,﻿,﻿,﻿Milwaukee,Milwaukee
﻿mil.wi.0057,﻿church,﻿St. Kiernan's,English,,,,﻿Columbia County,﻿Columbia County,﻿Dekora,﻿Dekkora,﻿WI,,43.457484,-89.46762,,﻿Attended by Rev. Thos. Keenan,,﻿tho_keenan_001,﻿Rev.,﻿Thos. Keenan,,,,,,,,1869,﻿,﻿,﻿Milwaukee,Milwaukee
﻿mil.wi.0058,﻿church,﻿St. Peter's,English,,,,﻿Iowa County,﻿Iowa County,﻿Dodgeville,﻿Dodgeville,﻿WI,,42.960274,-90.130124,﻿mil.wi.0104,﻿Attended from Highland,,,,,,,,,,,,1869,﻿,﻿,﻿Milwaukee,Milwaukee
﻿mil.wi.0059,﻿church,﻿St. Mary's,English,,,,﻿Racine County,﻿Racine County,﻿Dover,﻿Dover,﻿WI,,42.712631,-88.114767,,,,﻿tho_corry_001,﻿Rev.,﻿Thos. Corry,,,,,,,,1869,﻿,﻿,﻿Milwaukee,Milwaukee
﻿mil.wi.0060,﻿church,﻿St. Thaddeus',English,,,,﻿Walworth County,﻿Walworth County,﻿East Troy,﻿East Troy,﻿WI,,42.785292,-88.405096,,,,﻿h_f_fairbanks_001,﻿Rev.,﻿H. F. Fairbanks,,,,,,,,1869,﻿,﻿,﻿Milwaukee,Milwaukee
﻿mil.wi.0061,﻿church,﻿St. Gregory Naz,English,,,,﻿Manitowoc County,﻿Manitowoc County,﻿Eaton,﻿Eaton,﻿WI,,44.021373,-87.992268,,,,﻿a_oschwald_001,﻿Rev.,﻿A. Oschwald,,,,,,,,1869,﻿,﻿,﻿Milwaukee,Milwaukee
﻿mil.wi.0062,﻿church,﻿St. Theresa's,English,,,,﻿Waukesha County,﻿Waukesha County,﻿Eagle Centre,﻿Eagle,﻿WI,,43.00726,-88.323931,,,,﻿f_spath_001,﻿Rev.,﻿F. Spath,,,,,,,,1869,﻿,﻿,﻿Milwaukee,Milwaukee
﻿mil.wi.0063,﻿church,﻿St. Mary's,English,,,,﻿Fond du Lac County,﻿Fond du Lac County,﻿Eldorado,﻿Eldorado,﻿WI,,43.824708,-88.621776,﻿mil.wi.0075,﻿Attended from Fond du Lac,,,,,,,,,,,,1869,﻿,﻿,﻿Milwaukee,Milwaukee
﻿mil.wi.0064,﻿church,﻿St. Peter's,English,,,,﻿Lafayette County,﻿Lafayette County,﻿Elk Grove,﻿Elk Grove,﻿WI,,42.653341,-90.331538,﻿mil.wi.0170,﻿Attended by Rev. Philip Albrecht,,﻿phi_albrecht_002,﻿Rev.,﻿Philip Albrecht,,,,,,,,1869,﻿,﻿,﻿Milwaukee,Milwaukee
﻿mil.wi.0065,﻿church,﻿St. Rosa's,English,,,,﻿Lafayette County,﻿Lafayette County,﻿Elk Grove,﻿Elk Grove,﻿WI,,42.671664,-90.390961,﻿mil.wi.0100,﻿Attended by Rev. Jos. Kleiber,,﻿jos_kleiber_001,﻿Rev.,﻿Jos. Kleiber,,,,,,,,1869,﻿,﻿,﻿Milwaukee,Milwaukee
﻿mil.wi.0066,﻿church,﻿Visitation BVM,English,,,,﻿Waukesha County,﻿Waukesha County,﻿Elm Grove,﻿Elm Grove,﻿WI,,43.044445,-88.074792,,,,﻿k_c_flasch_001,﻿Rev.,﻿K. C. Flasch,,,,,,,,1869,﻿,﻿,﻿Milwaukee,Milwaukee
﻿mil.wi.0067,﻿church,﻿St. Lawrence's,English,,,,﻿Walworth County,﻿Walworth County,﻿Elkhorn,﻿Elkhorn,﻿WI,,42.672793,-88.544545,﻿mil.wi.0056,﻿Visited by Rev. R. Dunphy,,﻿r_dunphy_001,﻿Rev.,﻿R. Dunphy,,,,,,,,1869,﻿,﻿,﻿Milwaukee,Milwaukee
﻿mil.wi.0068,﻿church,﻿St. Joseph's,English,,,,﻿Rock County,﻿Rock County,﻿Edgerton,﻿Edgerton,﻿WI,,42.844951,-89.064887,﻿mil.wi.0175,﻿Attended by Rev. Chas. Farrelly,,﻿cha_farrelly_001,﻿Rev.,﻿Chas. Farrelly,,,,,,,,1869,﻿,﻿,﻿Milwaukee,Milwaukee
﻿mil.wi.0069,﻿church,﻿St. James',English,,,,﻿Fond du Lac County,﻿Fond du Lac County,﻿Eden,﻿Eden,﻿WI,,43.693603,-88.360936,﻿mil.wi.0035,﻿Attended by Rev. E. A. Graves,,﻿e_a_graves_001,﻿Rev.,﻿E. A. Graves,,,,,,,,1869,﻿,﻿,﻿Milwaukee,Milwaukee
﻿mil.wi.0070,﻿church,﻿St. Columbkille's,English,,,,﻿Dodge County,﻿Dodge County,﻿Elba,﻿Elba,﻿WI,,43.307257,-88.928573,,,,﻿h_obrien_001,﻿Rev.,﻿H. O'Brien,,,,,,,,1869,﻿,﻿,﻿Milwaukee,Milwaukee
﻿mil.wi.0071,﻿church,﻿St. Patrick's,English,,,,﻿Washington County,﻿Washington County,﻿Erin,﻿Erin,﻿WI,,43.22085,-88.343362,﻿mil.wi.0099,﻿Attended by Rev. S. St. Muench,,﻿f_st-muench_001,﻿Rev.,﻿S. St. Muench,,,,,,,,1869,﻿,﻿,﻿Milwaukee,Milwaukee
﻿mil.wi.0072,﻿church,﻿St. John of God,English,,,,﻿Washington County,﻿Washington County,﻿Farming,﻿Farmington,﻿WI,,43.513052,-88.110006,,﻿Visited by Rev. C. Rehrl,,﻿c_rehrl_001,﻿Rev.,﻿C. Rehrl,,,,,,,,1869,﻿,﻿,﻿Milwaukee,Milwaukee
﻿mil.wi.0073,﻿church,﻿St. Peter's,English,,,,﻿Washington County,﻿Washington County,﻿Farming,﻿Farmington,﻿WI,,43.487414,-88.109612,,﻿Visited by Rev. C. Rehrl,,﻿c_rehrl_001,﻿Rev.,﻿C. Rehrl,,,,,,,,1869,﻿,﻿,﻿Milwaukee,Milwaukee
﻿mil.wi.0074,﻿church,﻿Holy Mother of Consolation,English,,,,﻿Dane County,﻿Dane County,﻿Fitzburg,﻿Fitchburg,﻿WI,,42.951169,-89.402893,,,,﻿j_ofarrell_001,﻿Rev.,﻿J. O'Farrell,,,,,,,,1869,﻿,﻿,﻿Milwaukee,Milwaukee
﻿mil.wi.0075,﻿church,﻿St. Lewis's,English,,,,﻿Fond du Lac County,﻿Fond du Lac County,﻿Fond du Lac,﻿Fond du Lac,﻿WI,,43.771582,-88.449415,,,,﻿j_c_perrodin_001,﻿Rev.,﻿J. C. Perrodin,,,,,,,,1869,﻿,﻿,﻿Milwaukee,Milwaukee
﻿mil.wi.0076,﻿church,﻿St. Patrick's,English,,,,﻿Fond du Lac County,﻿Fond du Lac County,﻿Fond du Lac,﻿Fond du Lac,﻿WI,,43.784721,-88.446755,,,,﻿j_colton_001,﻿Rev.,﻿J. Colton,,,,,,,,1869,﻿,﻿,﻿Milwaukee,Milwaukee
﻿mil.wi.0077,﻿church,﻿St. Mary's,English,,,,﻿Fond du Lac County,﻿Fond du Lac County,﻿Fond du Lac,﻿Fond du Lac,﻿WI,,43.781355,-88.444253,,,,﻿n_pickel_001,﻿Rev.,﻿N. Pickel,,,,,,,,1869,﻿,﻿,﻿Milwaukee,Milwaukee
﻿mil.wi.0078,﻿church,﻿St. Augustine's,English,,,,﻿Rock County,﻿Rock County,﻿Footville,﻿Footville,﻿WI,,42.675329,-89.20531,﻿mil.wi.0028,﻿Attended from Broadhead,,,,,,,,,,,,1869,﻿,﻿,﻿Milwaukee,Milwaukee
﻿mil.wi.0079,﻿church,﻿Immaculate Conception,English,,,,﻿Dodge County,﻿Dodge County,﻿Fox Lake,﻿Fox Lake,﻿WI,,43.565543,-88.906498,,,,﻿w_dougherty_001,﻿Rev.,﻿W. Dougherty,,,,,,,,1869,﻿,﻿,﻿Milwaukee,Milwaukee
﻿mil.wi.0080,﻿church,﻿St. Michael's,English,,,,﻿Fond du Lac County,﻿Fond du Lac County,﻿Foresttown,﻿Forest,﻿WI,,43.757996,-88.226643,,,,﻿n_stehle_001,﻿Rev.,﻿N. Stehle,,,,,,,,1869,﻿,﻿,﻿Milwaukee,Milwaukee
﻿mil.wi.0081,﻿church,﻿Assumption of the Blessed Virgin Mary,English,,,,﻿Milwaukee County,﻿Milwaukee County,﻿Franklin,﻿Franklin,﻿WI,,42.888627,-88.038419,,,,﻿ed_oconnor_001,﻿Rev.,﻿Ed. O'Connor,,,,,,,,1869,﻿,﻿,﻿Milwaukee,Milwaukee
﻿mil.wi.0082,﻿church,﻿Sacred Heart of Jesus and Mary,English,,,,﻿Milwaukee County,﻿Milwaukee County,﻿Franklin,﻿Franklin,﻿WI,,43.072467,-87.618638,,,,﻿w_bonenkamp_001,﻿Rev.,﻿W. Bonenkamp,,,,,,,,1869,﻿,﻿,﻿Milwaukee,Milwaukee
﻿mil.wi.0083,﻿church,﻿St. Nicholas',English,,,,﻿Ozaukee County,﻿Ozaukee County,﻿Fredonia,﻿Fredonia,﻿WI,,43.470555,-87.950646,,,,﻿p_schwaiger_001,﻿Rev.,﻿P. Schwaiger,,,,,,,,1869,﻿,﻿,﻿Milwaukee,Milwaukee
﻿mil.wi.0084,﻿church,﻿Mother of Dolors,English,,,,﻿Ozaukee County,﻿Ozaukee County,﻿Fredonia,﻿Fredonia,﻿WI,,42.670842,-89.209004,﻿mil.wi.0024,﻿Attended by Rev. J. Welter,,﻿j_welter_001,﻿Rev.,﻿J. Welter,,,,,,,,1869,﻿,﻿,﻿Milwaukee,Milwaukee
﻿mil.wi.0085,﻿church,﻿St. Anthony's,English,,,,﻿Waukesha County,﻿Waukesha County,﻿Fussville,﻿Menomonee Falls,﻿WI,,43.152723,-88.079012,,,,﻿l_m_mueller_001,﻿Rev.,﻿L. M. Mueller,,,,,,,,1869,﻿,﻿,﻿Milwaukee,Milwaukee
﻿mil.wi.0086,﻿church,﻿St. Paul's,English,,,,﻿Waukesha County,﻿Waukesha County,﻿Genesee,﻿Genesee,﻿WI,,42.974661,-88.377606,﻿mil.wi.0211,﻿Attended by Rev. P. Deberge,,﻿f_deberge_001,﻿Rev.,﻿P. Deberge,,,,,,,,1869,﻿,﻿,﻿Milwaukee,Milwaukee
﻿mil.wi.0087,﻿church,﻿St. Francis of Sales,English,,,,﻿Walworth County,﻿Walworth County,﻿Geneva,﻿Geneva,﻿WI,,42.638605,-88.459767,,,,﻿j_b_smeddink_001,﻿Rev.,﻿B. Smeddink,,,,,,,,1869,﻿,﻿,﻿Milwaukee,Milwaukee
﻿mil.wi.0088,﻿church,﻿St. Boniface's,English,,,,﻿Washington County,﻿Washington County,﻿Germantown,﻿Germantown,﻿WI,,43.234715,-88.161571,,,,﻿j_gamber_001,﻿Rev.,﻿J. Gamber,,,,,,,,1869,﻿,﻿,﻿Milwaukee,Milwaukee
﻿mil.wi.0089,﻿church,﻿St. Michael's,English,,,,﻿Milwaukee County,﻿Milwaukee County,﻿Granville,﻿Granville,﻿WI,,43.177508,-88.043978,,,,﻿cha_schilling_001,﻿Rev.,﻿Chas. Schilling,,,,,,,,1869,﻿,﻿,﻿Milwaukee,Milwaukee
﻿mil.wi.0090,﻿church,﻿St. Catharine's,English,,,,﻿Milwaukee County,﻿Milwaukee County,﻿Granville,﻿Granville,﻿WI,,43.177508,-88.043978,,,,﻿cha_schilling_001,﻿Rev.,﻿Chas. Schilling,,,,,,,,1869,﻿,﻿,﻿Milwaukee,Milwaukee
﻿mil.wi.0091,﻿church,﻿St. Martin's,English,,,,﻿Milwaukee County,﻿Milwaukee County,﻿Granville,﻿Granville,﻿WI,,43.177508,-88.043978,,,,﻿cha_schilling_001,﻿Rev.,﻿Chas. Schilling,,,,,,,,1869,﻿,﻿,﻿Milwaukee,Milwaukee
﻿mil.wi.0092,﻿church,﻿St. Fridolin's,English,﻿vacant,,,﻿Sheboygan County,﻿Sheboygan County,﻿Glenbulah,﻿Glenbeulah,﻿WI,,43.79895,-88.046291,,,﻿Vacant,,,,,,,,,,,1869,﻿,﻿,﻿Milwaukee,Milwaukee
﻿mil.wi.0093,﻿church,﻿St. Sebastian's,English,,,,﻿Grant County,﻿Grant County,﻿Glenhaven,﻿Glen Haven,﻿WI,,42.827199,-91.071848,﻿mil.wi.0040,﻿Attended from Cassville,,,,,,,,,,,,1869,﻿,﻿,﻿Milwaukee,Milwaukee
﻿mil.wi.0094,﻿church,﻿St. Joseph's,English,,,,﻿Ozaukee County,﻿Ozaukee County,﻿Grafton,﻿Grafton,﻿WI,,43.319503,-87.946456,,,,﻿n_moës_001,﻿Rev.,﻿N. Moës,,,,,,,,1869,﻿,﻿,﻿Milwaukee,Milwaukee
﻿mil.wi.0095,﻿church,﻿St. Francis Xavier's,English,,,,﻿Ozaukee County,﻿Ozaukee County,﻿Grafton,﻿Grafton,﻿WI,,43.352328,-87.969748,,,,﻿n_moës_001,﻿Rev.,﻿N. Moës,,,,,,,,1869,﻿,﻿,﻿Milwaukee,Milwaukee
﻿mil.wi.0096,﻿church,﻿St. Mary's,English,,,,﻿Milwaukee County,﻿Milwaukee County,﻿Greenfield,﻿Greenfield,﻿WI,,42.961404,-88.012586,﻿mil.wi.0081,﻿Attended by Rev. E. O'Connor,,﻿ed_oconnor_001,﻿Rev.,﻿E. O'Connor,,,,,,,,1869,﻿,﻿,﻿Milwaukee,Milwaukee
﻿mil.wi.0097,﻿church,﻿Holy Sacrament,﻿German,﻿Each of the German Catholic churches has its benevolent society for the poor.,,,﻿Milwaukee County,﻿Milwaukee County,﻿Greenfield,﻿Greenfield,﻿WI,,42.970611,-88.05414,﻿mil.wi.0019,﻿Attended by Rev. H. Muckerheide,,﻿h_j_muckerheide_001,﻿Rev.,﻿H. Muckerheide,,,,,,,,1869,﻿,﻿,﻿Milwaukee,Milwaukee
﻿mil.wi.0098,﻿church,﻿St. Lawrence's,English,,,,﻿Washington County,﻿Washington County,﻿Hartford,﻿Hartford,﻿WI,,43.354195,-88.348337,,,,﻿m_weiss_001,﻿Rev.,﻿M. Weis,,,,,,,,1869,﻿,﻿,﻿Milwaukee,Milwaukee
﻿mil.wi.0099,﻿church,﻿St. Killian's,English,,,,﻿Washington County,﻿Washington County,﻿Hartford,﻿Hartford,﻿WI,,43.322406,-88.382373,,,,﻿f_st-muench_001,﻿Rev.,﻿F. St. Muench,,,,,,,,1869,﻿,﻿,﻿Milwaukee,Milwaukee
﻿mil.wi.0100,﻿church,﻿St. Francis',English,,,,﻿Grant County,﻿Grant County,﻿Hazel Green,﻿Hazel Green,﻿WI,,42.536699,-90.435959,,,,﻿jos_kleiber_001,﻿Rev.,﻿Jos. Kleiber,,,,,,,,1869,﻿,﻿,﻿Milwaukee,Milwaukee
﻿mil.wi.0101,﻿church,﻿St. John's,English,,,,﻿Dodge County,﻿Dodge County,﻿Herman,﻿Herman,﻿WI,,43.375995,-88.480937,﻿mil.wi.0112,﻿Attended by Rev. J. Friedl,,﻿j_friedl_001,﻿Rev.,﻿J. Friedl,,,,,,,,1869,﻿,﻿,﻿Milwaukee,Milwaukee
﻿mil.wi.0102,﻿church,﻿St. Joseph's,English,,,,﻿Sheboygan County,﻿Sheboygan County,﻿Herman,﻿Herman,﻿WI,,43.600762,-87.992268,,﻿Attended by Rev. J. Lutz,,﻿r_lutz_001,﻿Rev.,﻿Lutz,,,,,,,,1869,﻿,﻿,﻿Milwaukee,Milwaukee
﻿mil.wi.0103,﻿church,﻿St. Fideli's,English,,,,﻿Sheboygan County,﻿Sheboygan County,﻿Herman,﻿Herman,﻿WI,,43.866723,-87.874615,﻿mil.wi.0042,﻿Attended by Rev. A. Zuber,,﻿f_zuber_001,﻿Rev.,﻿A. Zuber,,,,,,,,1869,﻿,﻿,﻿Milwaukee,Milwaukee
﻿mil.wi.0104,﻿church,﻿St. Philip's,English,,,,﻿Iowa County,﻿Iowa County,﻿Highland,﻿Highland,﻿WI,,43.046303,-90.382599,,,,﻿s_trant_001,﻿Rev.,﻿S. Trant,,,,,,,,1869,﻿,﻿,﻿Milwaukee,Milwaukee
﻿mil.wi.0105,﻿church,﻿St. John Nepomucene's,English,,,,﻿Iowa County,﻿Iowa County,﻿Highland,﻿Highland,﻿WI,,43.056902,-90.498795,,,,﻿f_x_weinhart_001,﻿Rev.,﻿F. X. Weinhart,,,,,,,,1869,﻿,﻿,﻿Milwaukee,Milwaukee
﻿mil.wi.0106,﻿church,﻿St. Malachy's,English,,,,﻿Dodge County,﻿Dodge County,﻿Horicon,﻿Horicon,﻿WI,,43.444012,-88.633196,﻿mil.wi.0021,﻿Attended from Beaver Dam,,,,,,,,,,,,1869,﻿,﻿,﻿Milwaukee,Milwaukee
﻿mil.wi.0107,﻿church,﻿St. Anne's,English,,,,﻿Calumet County,﻿Calumet County,﻿Holstein,﻿New Holstein,﻿WI,,43.896117,-88.123037,,,,﻿j_stehle_001,﻿Rev.,﻿J. Stehle,,,,,,,,1869,﻿,﻿,﻿Milwaukee,Milwaukee
﻿mil.wi.0108,﻿church,﻿St. Kilian's,English,,,,﻿Walworth County,,﻿Hudson,,﻿WI,,42.588688,-88.359873,﻿mil.wi.0087,﻿Attended by Rev. B. Smeddink,,﻿j_b_smeddink_001,﻿Rev.,﻿B. Smeddink,,,,,,,,1869,﻿,﻿,﻿Milwaukee,Milwaukee
﻿mil.wi.0109,﻿church,﻿St. Augustine's,English,,,,﻿Ozaukee County,﻿Washington County,﻿Jackson,﻿Jackson,﻿WI,,43.384316,-88.041167,﻿mil.wi.0152,﻿Attended by Rev. M. Wenker,,﻿m_wenker_001,﻿Rev.,﻿M. Wenker,,,,,,,,1869,﻿,﻿,﻿Milwaukee,Milwaukee
﻿mil.wi.0110,﻿church,"﻿St. Mary's, Immaculate Conception",English,,,,﻿Ozaukee County,﻿Washington County,﻿Jackson,﻿Jackson,﻿WI,,43.38195,-87.618638,﻿mil.wi.0041,﻿Attended by Rev. H. McMahon,,﻿hug_mcmahon_001,﻿Rev.,﻿H. McMahon,,,,,,,,1869,﻿,﻿,﻿Milwaukee,Milwaukee
﻿mil.wi.0111,﻿church,﻿St. Patrick's,English,,,,﻿Rock County,﻿Rock County,﻿Janesville,﻿Janesville,﻿WI,,42.676364,-89.025287,,,,﻿jam_doyle_001,﻿Rev.,﻿James Doyle,,,,,,,,1869,﻿,﻿,﻿Milwaukee,Milwaukee
﻿mil.wi.0112,﻿church,﻿St. John Baptist's,English,,,,﻿Jefferson County,﻿Jefferson County,﻿Jefferson,﻿Jefferson,﻿WI,,43.006946,-88.80221,,,,﻿j_friedl_001,﻿Rev.,﻿J. Friedl,,,,,,,,1869,﻿,﻿,﻿Milwaukee,Milwaukee
﻿mil.wi.0113,﻿church,﻿St. Lawrence's,English,,,,﻿Jefferson County,﻿Jefferson County,﻿Jefferson,﻿Jefferson,﻿WI,,43.004965,-88.779191,,,,﻿f_x_obermueller_001,﻿Rev.,﻿F. X. Obermueller,,,,,,,,1869,﻿,﻿,﻿Milwaukee,Milwaukee
﻿mil.wi.0114,﻿church,﻿St. Mark's,English,,,,﻿Kenosha County,﻿Kenosha County,﻿Kenosha,﻿Kenosha,﻿WI,,42.568136,-87.824919,,,,﻿e_mcguirk_001,﻿Rev.,﻿E. McGuirk,,,,,,,,1869,﻿,﻿,﻿Milwaukee,Milwaukee
﻿mil.wi.0115,﻿church,﻿St. George's,﻿German,﻿Each of the German Catholic churches has its benevolent society for the poor.,,,﻿Kenosha County,﻿Kenosha County,﻿Kenosha,﻿Kenosha,﻿WI,,42.581123,-87.872016,,,,﻿m_beiter_001,﻿Rev.,﻿M. Beiter,,,,,,,,1869,﻿,﻿,﻿Milwaukee,Milwaukee
﻿mil.wi.0116,﻿church,﻿St. Pius',English,,,,﻿Lafayette County,﻿Lafayette County,﻿Kendaltown,﻿Kendall,﻿WI,,42.765975,-90.243231,﻿mil.wi.0053,﻿Attended by Rev. E. McGinnity,,﻿e_m_mcginnity_001,﻿Rev.,﻿E. McGinnity,,,,,,,,1869,﻿,﻿,﻿Milwaukee,Milwaukee
﻿mil.wi.0117,﻿church,﻿St. Bridget's,English,,,,﻿Washington County,﻿Washington County,﻿Kewaskee,﻿Kewaskum,﻿WI,,43.78444,-88.787868,,,,﻿m_ruckengruber_001,﻿Rev.,﻿M. Ruckengruber,,,,,,,,1869,﻿,﻿,﻿Milwaukee,Milwaukee
﻿mil.wi.0118,﻿church,﻿St. Michael's,English,,,,﻿Washington County,﻿Washington County,﻿Kewaskum,﻿Kewaskum,﻿WI,,43.52083,-88.228985,,,,﻿m_ruckengruber_001,﻿Rev.,﻿M. Ruckengruber,,,,,,,,1869,﻿,﻿,﻿Milwaukee,Milwaukee
﻿mil.wi.0119,﻿church,﻿Holy Trinity,English,,,,﻿Washington County,﻿Washington County,﻿Kewaskum,﻿Kewaskum,﻿WI,,43.52083,-88.228985,,,,﻿m_ruckengruber_001,﻿Rev.,﻿M. Ruckengruber,,,,,,,,1869,﻿,﻿,﻿Milwaukee,Milwaukee
﻿mil.wi.0120,﻿church,﻿St. James',English,,,,﻿Milwaukee County,﻿Milwaukee County,﻿Lake Town,﻿Lake,﻿WI,,43.04848,-88.000907,﻿mil.wi.0155,﻿Attended from New-Koeln,,,,,,,,,,,,1869,﻿,﻿,﻿Milwaukee,Milwaukee
﻿mil.wi.0121,﻿church,﻿St. Mary's ad fontam,English,,,,﻿Marquette County,,﻿La Cote St. Marie,,﻿WI,,43.876085,-89.110883,﻿mil.wi.0027,﻿Attended by Rev. E. Dael,,﻿e_dael_001,﻿Rev.,﻿E. Dael,,,,,,,,1869,﻿,﻿,﻿Milwaukee,Milwaukee
﻿mil.wi.0122,﻿church,﻿St. Columban's,English,,,,﻿Waukesha County,﻿Waukesha County,﻿Lake Five,﻿Lake Five,﻿WI,,43.192506,-88.270927,﻿mil.wi.0144,﻿Attended by Rev. M. Hannan,,﻿m_hannan_001,﻿Rev.,﻿M. Hannan,,,,,,,,1869,﻿,﻿,﻿Milwaukee,Milwaukee
﻿mil.wi.0123,﻿church,﻿St. Clement's,English,,,,﻿Grant County,﻿Grant County,﻿Lancaster,﻿Lancaster,﻿WI,,42.847491,-90.710682,﻿mil.wi.0173,﻿Attended from Potosi,,,,,,,,,,,,1869,﻿,﻿,﻿Milwaukee,Milwaukee
﻿mil.wi.0124,﻿church,﻿St. Rosa's,English,,,,﻿Sheboygan County,﻿Sheboygan County,﻿Lima,﻿Lima,﻿WI,,43.675386,-87.874615,﻿mil.wi.0221,﻿Visited by Rev. J. A. Mueller,,﻿j_a_mueller_001,﻿Rev.,﻿J. A. Mueller,,,,,,,,1869,﻿,﻿,﻿Milwaukee,Milwaukee
﻿mil.wi.0125,﻿church,﻿St. John Baptist's,English,,,,﻿Fond du Lac County,﻿Fond du Lac County,﻿Lamartine,﻿Lamartine,﻿WI,,43.733321,-88.568719,,﻿Attended from Fond du Lac City,,﻿e_m_mcginnity_001,﻿Rev.,﻿E. McGinnity,,,,,,,,1869,﻿,﻿,﻿Milwaukee,Milwaukee
﻿mil.wi.0126,﻿church,﻿St. Andrew's,English,,,,﻿Dodge County,﻿Dodge County,﻿Loomara,﻿Lomira,﻿WI,,43.573118,-88.550108,,,,﻿mic_deisenrieder_001,﻿Rev.,﻿M. Deisenrieder,,,,,,,,1869,﻿,﻿,﻿Milwaukee,Milwaukee
﻿mil.wi.0127,﻿church,﻿St. Benedict's,English,,,,﻿Walworth County,﻿Walworth County,﻿Lyons,﻿Lyons,﻿WI,,42.651128,-88.358428,﻿mil.wi.0087,﻿Attended by Rev. B. Smeddink,,﻿j_b_smeddink_001,﻿Rev.,﻿B. Smeddink,,,,,,,,1869,﻿,﻿,﻿Milwaukee,Milwaukee
﻿mil.wi.0128,﻿church,﻿St. Raphael's,English,,,,﻿Dane County,﻿Dane County,﻿Madison,﻿Madison,﻿WI,,43.072394,-89.386004,,,,﻿jos_smith_001,﻿Rev.,﻿Jos. Smith,,,,,,,,1869,﻿,﻿,﻿Milwaukee,Milwaukee
﻿mil.wi.0129,﻿church,﻿Holy Redeemer,﻿German,﻿Each of the German Catholic churches has its benevolent society for the poor.,,,﻿Dane County,﻿Dane County,﻿Madison,﻿Madison,﻿WI,,43.075608,-89.389217,,,,﻿m_obermueller_001,﻿Rev.,﻿M. Obermueller,,,,,,,,1869,﻿,﻿,﻿Milwaukee,Milwaukee
﻿mil.wi.0130,﻿church,﻿St. Boniface's,English,,,,﻿Manitowoc County,﻿Manitowoc County,﻿Manitowoc,﻿Manitowoc,﻿WI,,44.088606,-87.657584,,,,﻿jos_faessler_001,﻿Rev.,﻿Jos. Faessler,,,,,,,,1869,﻿,﻿,﻿Milwaukee,Milwaukee
﻿mil.wi.0131,﻿church,﻿St. Catharine's,English,,,,﻿Waukesha County,﻿Waukesha County,﻿Mapleton,﻿Oconomowoc,﻿WI,,43.17481,-88.458349,,,,﻿w_vahey_001,﻿Rev.,﻿I. W. Vahey,,,,,,,,1869,﻿,﻿,﻿Milwaukee,Milwaukee
﻿mil.wi.0132,﻿church,﻿Holy Cross,English,﻿Convent of the Capuchin Fathers of Calvary,,,﻿Fond du Lac County,﻿Fond du Lac County,﻿Marshfield,﻿Marshfield,﻿WI,,43.8721,-88.187668,,,,,,,,,,,,,,1869,﻿,﻿,﻿Milwaukee,Milwaukee
﻿mil.wi.0133,﻿church,﻿St. Joseph's,English,,,,﻿Fond du Lac County,﻿Fond du Lac County,﻿Marshfield,﻿Marshfield,﻿WI,,43.855266,-88.190077,﻿mil.wi.0257,﻿Attended from Calvary,,,,,,,,,,,,1869,﻿,﻿,﻿Milwaukee,Milwaukee
﻿mil.wi.0134,﻿church,﻿Visitation B.V.M.,English,,,,﻿Calumet County,﻿Fond du Lac County,﻿Marytown,﻿Marytown,﻿WI,,43.910993,-88.203431,,,,﻿cajetan_001,﻿Rev. Father,﻿Cajetan,﻿O.M.C.,,,,,,,1869,﻿,﻿,﻿Milwaukee,Milwaukee
﻿mil.wi.0135,﻿church,﻿St. Mary's,English,﻿vacant,,,﻿Dodge County,﻿Dodge County,﻿Mayville,﻿Mayville,﻿WI,,43.492936,-88.540727,,,﻿Vacant,,,,,,,,,,,1869,﻿,﻿,﻿Milwaukee,Milwaukee
﻿mil.wi.0136,﻿church,﻿St. Isidore's,English,,,,﻿Manitowoc County,﻿Manitowoc County,﻿Meeme,﻿Meeme,﻿WI,,43.920549,-87.831478,,,,﻿l_kenny_001,﻿Rev.,﻿L. Kenny,,,,,,,,1869,﻿,﻿,﻿Milwaukee,Milwaukee
﻿mil.wi.0137,﻿church,﻿St. Mary's Immaculate Conception,English,,,,﻿Grant County,﻿Grant County,﻿Menomonee,﻿Hazel Green,﻿WI,,42.511189,-90.63192,,,,﻿p_oeshger_001,﻿Rev.,﻿P. Oeshger,,,,,,,,1869,﻿,﻿,﻿Milwaukee,Milwaukee
﻿mil.wi.0138,﻿church,﻿St. James',English,,,,﻿Waukesha County,﻿Waukesha County,﻿Menomonee,﻿Menomonee Falls,﻿WI,,43.136322,-88.18306,,,,﻿j_fitzgibbon_001,﻿Rev.,﻿J. Fitzgibbon,,,,,,,,1869,﻿,﻿,﻿Milwaukee,Milwaukee
﻿mil.wi.0138,﻿church,﻿St. James',English,,,,﻿Waukesha County,﻿Waukesha County,﻿Menomonee,﻿Menomonee Falls,﻿WI,,43.136322,-88.18306,,,,﻿jam_f_morris_001,﻿Rev.,﻿James F. Morris,,,,,,,,1869,﻿,﻿,﻿Milwaukee,Milwaukee
﻿mil.wi.0139,﻿church,﻿St. James',English,,,,﻿Ozaukee County,﻿Washington County,﻿Megnon,﻿Mequon,﻿WI,,43.38195,-87.618638,﻿mil.wi.0094,﻿Attended by N. Moës,,﻿n_moës_001,﻿Rev.,﻿N. Moës,,,,,,,,1869,﻿,﻿,﻿Milwaukee,Milwaukee
﻿mil.wi.0140,﻿church,﻿St. John Baptist's,English,,,,﻿Grant County,﻿Iowa County,﻿Miffin,﻿Miffin,﻿WI,,42.871105,-90.354015,﻿mil.wi.0148,﻿Attended by M. Morris,,﻿m_morris_001,﻿Rev.,﻿M. Morris,,,,,,,,1869,﻿,﻿,﻿Milwaukee,Milwaukee
﻿mil.wi.0141,﻿church,﻿St. Malachy's,English,,,,﻿Jefferson County,﻿Jefferson County,﻿Milford,﻿Milford,﻿WI,,43.188369,-88.733814,﻿mil.wi.0181,﻿Attended by H. Roche,,﻿h_roche_001,﻿Rev.,﻿H. Roche,,,,,,,,1869,﻿,﻿,﻿Milwaukee,Milwaukee
﻿mil.wi.0142,﻿church,﻿St. Paul's,English,,,,﻿Iowa County,﻿Iowa County,﻿Mineral Point,﻿Mineral Point,﻿WI,,42.857093,-90.188688,,,,﻿f_mcgann_001,﻿Rev.,﻿F. McGann,,,,,,,,1869,﻿,﻿,﻿Milwaukee,Milwaukee
﻿mil.wi.0143,﻿church,﻿St. Michael's,English,,,,﻿Sheboygan County,﻿Sheboygan County,﻿Mitchell,﻿Mitchell,﻿WI,,43.67055182,-88.11119091,﻿mil.wi.0039,﻿Attended from Cascade,,,,,,,,,,,,1869,﻿,﻿,﻿Milwaukee,Milwaukee
﻿mil.wi.0144,﻿church,﻿St. John's,English,,,,﻿Waukesha County,﻿Waukesha County,﻿Monches,﻿Merton,﻿WI,,43.140603,-88.308192,,,,﻿m_hannan_001,﻿Rev.,﻿M. Hannan,,,,,,,,1869,﻿,﻿,﻿Milwaukee,Milwaukee
﻿mil.wi.0145,﻿church,﻿St. Victor's,English,,,,﻿Green County,﻿Green County,﻿Monroe,﻿Monroe,﻿WI,,42.598221,-89.635254,,,,﻿joh_casey_001,﻿Rev.,﻿John Casey,,,,,,,,1869,﻿,﻿,﻿Milwaukee,Milwaukee
﻿mil.wi.0146,﻿church,﻿St. Mary's,English,,,,﻿Green County,﻿Green County,﻿Monroe,﻿Monroe,﻿WI,,42.740609,-89.59576,,,,﻿joh_casey_001,﻿Rev.,﻿John Casey,,,,,,,,1869,﻿,﻿,﻿Milwaukee,Milwaukee
﻿mil.wi.0147,﻿church,﻿St. Lawrence O'Toole's,English,,,,﻿Grant County,﻿Grant County,﻿Mount Hope,﻿Mount Hope,﻿WI,,43.006918,-90.816792,,,,﻿tho_hadnett_001,﻿Rev.,﻿Thos. Hadnett,,,,,,,,1869,﻿,﻿,﻿Milwaukee,Milwaukee
﻿mil.wi.0148,﻿church,﻿St. Barnabas's,English,,,,﻿Dane County,﻿Dane County,﻿Mozzomanie,﻿Mazomanie,﻿WI,,43.172687,-89.791703,,,,﻿m_morris_001,﻿Rev.,﻿M. Morris,,,,,,,,1869,﻿,﻿,﻿Milwaukee,Milwaukee
﻿mil.wi.0149,﻿church,﻿St. Bartholomew's,English,,,,﻿Grant County,﻿Grant County,﻿Muscoda,﻿Muscoda,﻿WI,,43.184987,-90.443181,﻿mil.wi.0105,﻿Attended by Rev. F. X. Weinhart,,﻿f_x_weinhart_001,﻿Rev.,﻿F. X. Weinhart,,,,,,,,1869,﻿,﻿,﻿Milwaukee,Milwaukee
﻿mil.wi.0150,﻿church,﻿St. Matthew's,English,,,,﻿Dodge County,﻿Dodge County,﻿Neosha,﻿Neosho,﻿WI,,43.313008,-88.51959,,,,﻿d_thill_001,﻿Rev.,﻿D. Thill,,,,,,,,1869,﻿,﻿,﻿Milwaukee,Milwaukee
﻿mil.wi.0151,﻿church,﻿St. Valerius's,English,,,,﻿Waukesha County,﻿Waukesha County,﻿New Berlin,﻿New Berlin,﻿WI,,42.976455,-88.10839,,,,﻿m_seibold_001,﻿Rev.,﻿M. Seebold,,,,,,,,1869,﻿,﻿,﻿Milwaukee,Milwaukee
﻿mil.wi.0152,﻿church,﻿Holy Trinity,English,,,,﻿Washington County,﻿Washington County,﻿Newburgh,﻿Newburg,﻿WI,,43.431667,-88.046481,,,,﻿m_wenker_001,﻿Rev.,﻿M. Wenker,,,,,,,,1869,﻿,﻿,﻿Milwaukee,Milwaukee
﻿mil.wi.0153,﻿church,﻿St. Matthew's,English,,,,﻿Fond du Lac County,﻿Fond du Lac County,﻿New Castle,﻿Campbellsport,﻿WI,,43.598841,-88.275532,﻿mil.wi.0016,﻿Attended from Ashford,,,,,,,,,,,,1869,﻿,﻿,﻿Milwaukee,Milwaukee
﻿mil.wi.0154,﻿church,﻿St. Augustine's,English,,,,﻿Lafayette County,﻿Lafayette County,﻿New Diggings,﻿New Diggings,﻿WI,,42.534075,-90.334564,﻿mil.wi.0026,﻿Attended by Rev. G. Prendergast,,﻿g_prendergast_001,﻿Rev.,﻿G. Prendergast,,,,,,,,1869,﻿,﻿,﻿Milwaukee,Milwaukee
﻿mil.wi.0155,﻿church,﻿St. Stephens's,English,,,,﻿Milwaukee County,﻿Milwaukee County,﻿New Koeln,﻿Milwaukee,﻿WI,,43.019554,-87.916512,,,,﻿ths_bruhin_001,﻿Rev.,﻿Ths. Bruhin,,,,,,,,1869,﻿,﻿,﻿Milwaukee,Milwaukee
﻿mil.wi.0156,﻿church,﻿St. Casimir's,English,,,,﻿Manitowoc County,﻿Manitowoc County,﻿Newtown,﻿Newtown,﻿WI,,43.993743,-87.726333,,,,﻿bon_buezynski_001,﻿Rev.,﻿B. Buetzinski,,,,,,,,1869,﻿,﻿,﻿Milwaukee,Milwaukee
﻿mil.wi.0157,﻿church,﻿St. Peter's,English,,,,﻿Manitowoc County,﻿Manitowoc County,﻿Newtown,﻿Newtown,﻿WI,,43.993743,-87.726333,﻿mil.wi.0130,﻿Attended from Manitowoc,,,,,,,,,,,,1869,﻿,﻿,﻿Milwaukee,Milwaukee
﻿mil.wi.0158,﻿church,﻿St. Matthews's,English,,,,﻿Milwaukee County,﻿Milwaukee County,﻿Oak Creek,﻿Oak Creek,﻿WI,,42.874655,-87.86136,,﻿Attended by Rev. S. Woefle,,﻿s_woefle_001,﻿Rev.,﻿S. Woefle,,,,,,,,1869,﻿,﻿,﻿Milwaukee,Milwaukee
﻿mil.wi.0159,﻿church,﻿St. Jerome's,English,,,,﻿Waukesha County,﻿Waukesha County,﻿Oconomowoc,﻿Oconomowoc,﻿WI,,43.097305,-88.493677,﻿mil.wi.0131,﻿Visited by Rev. J. W. Vahey,,﻿w_vahey_001,﻿Rev.,﻿J. W. Vahey,,,,,,,,1869,﻿,﻿,﻿Milwaukee,Milwaukee
﻿mil.wi.0160,﻿church,﻿St. Matthew's,English,,,,﻿Fond du Lac County,﻿Fond du Lac County,﻿Osceola,﻿Osceola,﻿WI,,43.681371,-88.226643,﻿mil.wi.0080,﻿Attended by Rev. N. Stehle,,﻿n_stehle_001,﻿Rev.,﻿N. Stehle,,,,,,,,1869,﻿,﻿,﻿Milwaukee,Milwaukee
﻿mil.wi.0161,﻿church,﻿St. Mary's,English,,,,﻿Winnebago County,﻿Winnebago County,﻿Omro,﻿Omro,﻿WI,,44.03365,-88.742185,﻿mil.wi.0162,﻿Visited by Rev. M. Marco,,﻿m_m_marco_001,﻿Rev.,﻿M. Marco,,,,,,,,1869,﻿,﻿,﻿Milwaukee,Milwaukee
﻿mil.wi.0162,﻿church,﻿St. Vincent de Paul's,English,,,,﻿— County,﻿Winnebago County,﻿Oshkosh (South),﻿Oshkosh,﻿WI,,44.048403,-88.543971,,,,﻿m_m_marco_001,﻿Rev.,﻿M. Marco,,,,,,,,1869,﻿,﻿,﻿Milwaukee,Milwaukee
﻿mil.wi.0163,﻿church,﻿St. Patrick's,English,,,,﻿Columbia County,﻿Columbia County,﻿Ostego,﻿Otsego,﻿WI,,43.40221,-89.166225,﻿mil.wi.0048,﻿Attended by Rev. J. C. Keefe,,﻿j_okeefe_001,﻿Rev.,﻿J. C. Keefe,,,,,,,,1869,﻿,﻿,﻿Milwaukee,Milwaukee
﻿mil.wi.0164,﻿church,﻿St. Bruno's,English,,,,﻿Waukesha County,﻿Waukesha County,﻿Ottawa,﻿Ottawa,﻿WI,,42.993896,-88.512589,,,,﻿f_spath_001,﻿Rev.,﻿S. Spath,,,,,,,,1869,﻿,﻿,﻿Milwaukee,Milwaukee
﻿mil.wi.0165,﻿church,﻿St. John Baptist's,English,,,,﻿Kenosha County,﻿Kenosha County,﻿Paris,﻿Paris,﻿WI,,42.63363,-88.051473,,﻿Attended by Rev. H. Reinhart,,﻿h_reinhardt_001,﻿Rev.,﻿H. Reinhart,,,,,,,,1869,﻿,﻿,﻿Milwaukee,Milwaukee
﻿mil.wi.0166,﻿church,﻿St. John's,English,,,,﻿Grant County,﻿Grant County,﻿Patchgrove,﻿Patch Grove,﻿WI,,42.940289,-90.974463,﻿mil.wi.0173,﻿Visited by Rev. T. P. Hodnett,,﻿tho_p_hodnett_001,﻿Rev.,﻿T. P. Hodnett,,,,,,,,1869,﻿,﻿,﻿Milwaukee,Milwaukee
﻿mil.wi.0167,﻿church,﻿St. Salvador's,English,,,,﻿Dane County,﻿Dane County,﻿Perry,﻿Perry,﻿WI,,42.916955,-89.385547,﻿mil.wi.0051,﻿Visited by J. Hamm,,﻿j_hamm_001,﻿Rev.,﻿J. Hamm,,,,,,,,1869,﻿,﻿,﻿Milwaukee,Milwaukee
﻿mil.wi.0168,﻿church,﻿SS. Peter and Paul's,English,,,,﻿Waukesha County,﻿Waukesha County,﻿Pewaukee,﻿Pewaukee,﻿WI,,43.065463,-88.205804,﻿mil.wi.0211,﻿Attended by Rev. P. Deberge,,﻿f_deberge_001,﻿Rev.,﻿P. Deberge,,,,,,,,1869,﻿,﻿,﻿Milwaukee,Milwaukee
﻿mil.wi.0169,﻿church,﻿St. Bernard's,English,,,,﻿Dane County,﻿Dane County,﻿Piola,﻿Paoli,﻿WI,,42.929444,-89.523732,﻿mil.wi.0129,﻿Attended by Rev. M. Obermueller,,﻿m_obermueller_001,﻿Rev.,﻿M. Obermueller,,,,,,,,1869,﻿,﻿,﻿Milwaukee,Milwaukee
﻿mil.wi.0170,﻿church,﻿St. Mary's,English,,,,﻿Grant County,﻿Grant County,﻿Platteville,﻿Platteville,﻿WI,,42.737178,-90.47859,,,,﻿phi_albrecht_002,﻿Rev.,﻿Ph. Albrecht,,,,,,,,1869,﻿,﻿,﻿Milwaukee,Milwaukee
﻿mil.wi.0171,﻿church,﻿St. John's,English,,,,﻿Sheboygan County,﻿Sheboygan County,﻿Plymouth,﻿Plymouth,﻿WI,,43.749426,-87.977756,﻿mil.wi.0193,﻿Visited by Rev. M. Haider,,﻿m_haider_001,﻿Rev.,﻿M. Haider,,,,,,,,1869,﻿,﻿,﻿Milwaukee,Milwaukee
﻿mil.wi.0172,﻿church,﻿St. Mary's,English,,,,﻿Ozaukee County,﻿Ozaukee County,﻿Port Washington,﻿Port Washington,﻿WI,,43.391873,-87.868991,,,,﻿a_durst_001,﻿Rev.,﻿A. Durst,,,,,,,,1869,﻿,﻿,﻿Milwaukee,Milwaukee
﻿mil.wi.0173,﻿church,﻿St. Thomas's,English,,,,﻿Grant County,﻿Grant County,﻿Potosi,﻿Potosi,﻿WI,,42.686562,-90.714447,,,,﻿tho_p_hodnett_001,﻿Rev.,﻿T. Hodnett,,,,,,,,1869,﻿,﻿,﻿Milwaukee,Milwaukee
﻿mil.wi.0174,﻿church,﻿St. Andrew's,﻿German,﻿Each of the German Catholic churches has its benevolent society for the poor.,,,﻿Grant County,﻿Grant County,﻿Potosi,﻿Potosi,﻿WI,,42.689439,-90.712071,,,,﻿max_de-becke_001,﻿Rev.,﻿M. De Becke,,,,,,,,1869,﻿,﻿,﻿Milwaukee,Milwaukee
﻿mil.wi.0175,﻿church,﻿St. Michael's,English,,,,﻿Rock County,,﻿Pottertown,,﻿WI,,42.817871,-89.180321,,,,﻿chs_farrelly_001,﻿Rev.,﻿Chs. Farrelly,,,,,,,,1869,﻿,﻿,﻿Milwaukee,Milwaukee
﻿mil.wi.0176,﻿church,﻿St. Patrick's,English,,,,﻿Racine County,﻿Racine County,﻿Racine,﻿Racine,﻿WI,,42.734386,-87.787466,,,,﻿g_w_matthews_001,﻿Rev.,﻿G. W. Matthews,,,,,,,,1869,﻿,﻿,﻿Milwaukee,Milwaukee
﻿mil.wi.0177,﻿church,﻿St. Mary's,﻿German,﻿Each of the German Catholic churches has its benevolent society for the poor.,,,﻿Racine County,﻿Racine County,﻿Racine,﻿Racine,﻿WI,,42.724484,-87.78494,,,,﻿fra_etschmann_001,﻿Rev.,﻿F. Etschmann,,,,,,,,1869,﻿,﻿,﻿Milwaukee,Milwaukee
﻿mil.wi.0178,﻿church,﻿St. Hubert's,English,,,,﻿Washington County,﻿Washington County,﻿Richfield,﻿Richfield,﻿WI,,43.232498,-88.215765,﻿mil.wi.0088,﻿Attended by Rev. Gamber,,﻿j_gamber_001,﻿Rev.,﻿Gamber,,,,,,,,1869,﻿,﻿,﻿Milwaukee,Milwaukee
﻿mil.wi.0179,﻿church,﻿Holy Maternity,English,,,,﻿Washington County,﻿Washington County,﻿Richfield,﻿Richfield,﻿WI,,43.25622,-88.194365,﻿mil.wi.0088,﻿Attended by Rev. Gamber,,﻿j_gamber_001,﻿Rev.,﻿Gamber,,,,,,,,1869,﻿,﻿,﻿Milwaukee,Milwaukee
﻿mil.wi.0180,﻿church,﻿St. Augustine's,English,,,,﻿Washington County,﻿Washington County,﻿Richfield,﻿Richfield,﻿WI,,43.219106,-88.226643,﻿mil.wi.0088,﻿Attended by Rev. Gamber,,﻿j_gamber_001,﻿Rev.,﻿Gamber,,,,,,,,1869,﻿,﻿,﻿Milwaukee,Milwaukee
﻿mil.wi.0181,﻿church,﻿St. Joseph's,English,,,,﻿Jefferson County,﻿Dodge County,﻿Richwood,﻿Richwood,﻿WI,,43.241389,-88.783056,,,,﻿h_roche_001,﻿Rev.,﻿H. Roche,,,,,,,,1869,﻿,﻿,﻿Milwaukee,Milwaukee
﻿mil.wi.0182,﻿church,﻿St. Bridget's,English,,,,﻿Iowa County,﻿Iowa County,﻿Ridgeway,﻿Ridgeway,﻿WI,,42.997718,-89.995869,﻿mil.wi.0142,﻿Attended by F. McGann,,﻿f_mcgann_001,﻿Rev.,﻿F. McGann,,,,,,,,1869,﻿,﻿,﻿Milwaukee,Milwaukee
﻿mil.wi.0183,﻿church,﻿St. Patrick's,English,,,,﻿Fond du Lac County,﻿Fond du Lac County,﻿Ripon,﻿Ripon,﻿WI,,43.784721,-88.446755,,,,﻿e_gray_001,﻿Rev.,﻿E. Gray,,,,,,,,1869,﻿,﻿,﻿Milwaukee,Milwaukee
﻿mil.wi.0184,﻿church,﻿St. Norbert's,English,,,,﻿Dane County,﻿Dane County,﻿Roxbury,﻿Roxbury,﻿WI,,43.250644,-89.677281,,,,﻿a_inama_001,﻿Rev.,﻿A. Inama,﻿O.P.,,,,,,,1869,﻿,﻿,﻿Milwaukee,Milwaukee
﻿mil.wi.0185,﻿church,﻿St. Andrew's,English,,,,﻿Sheboygan County,﻿Sheboygan County,﻿Rhine,﻿Rhine,﻿WI,,43.816254,-88.007253,﻿mil.wi.0193,﻿Attended by Rev. M. Haider,,﻿m_haider_001,﻿Rev.,﻿M. Haider,,,,,,,,1869,﻿,﻿,﻿Milwaukee,Milwaukee
﻿mil.wi.0186,﻿church,[Unnamed Institution],English,,,,﻿Milwaukee County,,﻿St. Francis Station,,﻿WI,,42.982992,-87.870593,,,,﻿jos_rainer_001,﻿Rev.,﻿Joseph Rainer,,,,,,,,1869,﻿,﻿,﻿Milwaukee,Milwaukee
﻿mil.wi.0187,﻿church,﻿St. Martin's,English,,,,﻿Dane County,﻿Dane County,﻿Springfield,﻿Springfield,﻿WI,,43.180678,-89.589689,,,,﻿a_zitterl_001,﻿Rev.,﻿A. Zitterl,,,,,,,,1869,﻿,﻿,﻿Milwaukee,Milwaukee
﻿mil.wi.0188,﻿church,﻿St. Peter's,English,,,,﻿Dane County,﻿Dane County,﻿Springfield,﻿Springfield,﻿WI,,43.139502,-89.540955,,,,﻿f_x_sailer_001,﻿Rev.,﻿F. Sailer,,,,,,,,1869,﻿,﻿,﻿Milwaukee,Milwaukee
﻿mil.wi.0189,﻿church,﻿St. Mary's Immaculate Conception,English,,,,﻿Ozaukee County,﻿Ozaukee County,﻿Saukville,﻿Saukville,﻿WI,,43.380143,-87.94336,,,,﻿f_vaissem_001,﻿Rev.,﻿F. Vaissem,,,,,,,,1869,﻿,﻿,﻿Milwaukee,Milwaukee
﻿mil.wi.0190,﻿church,﻿St. Finbar's,English,,,,﻿Ozaukee County,﻿Ozaukee County,﻿Saukville,﻿Saukville,﻿WI,,43.441187,-88.000675,﻿mil.wi.0152,﻿Attended by Rev. M. Wenker,,﻿m_wenker_001,﻿Rev.,﻿M. Wenker,,,,,,,,1869,﻿,﻿,﻿Milwaukee,Milwaukee
﻿mil.wi.0191,﻿church,﻿St. Peter's,English,,,,﻿Washington County,﻿Washington County,﻿Schleisingerville,﻿Slinger,﻿WI,,43.333613,-88.286206,﻿mil.wi.0098,﻿Attended by Rev. M. Weis,,﻿m_weiss_001,﻿Rev.,﻿M. Weis,,,,,,,,1869,﻿,﻿,﻿Milwaukee,Milwaukee
﻿mil.wi.0191,﻿church,﻿St. Peter's,English,,,,﻿Manitowoc County,﻿Manitowoc County,﻿Schleswig,﻿Slinger,﻿WI,,43.333613,-88.286206,﻿mil.wi.0107,﻿Attended by Rev. J. Stehle,,﻿j_stehle_001,﻿Rev.,﻿J. Stehle,,,,,,,,1869,﻿,﻿,﻿Milwaukee,Milwaukee
﻿mil.wi.0192,﻿church,﻿Our Lady of Hope,English,,,,﻿Lafayette County,﻿Lafayette County,﻿Seymour,﻿Seymour,﻿WI,,42.652415,-90.249469,﻿mil.wi.0053,﻿Attended by Rev. E. McGinnity,,﻿e_m_mcginnity_001,﻿Rev.,﻿E. McGinnity,,,,,,,,1869,﻿,﻿,﻿Milwaukee,Milwaukee
﻿mil.wi.0193,﻿church,﻿St. Magdalene's,English,,,,﻿Sheboygan County,﻿Sheboygan County,﻿Sheboygan,﻿Sheboygan,﻿WI,,43.76048158,-87.7134702,,,,﻿m_haider_001,﻿Rev.,﻿M. Haider,,,,,,,,1869,﻿,﻿,﻿Milwaukee,Milwaukee
﻿mil.wi.0194,﻿church,﻿St. Mary's,English,,,,﻿Sheboygan County,﻿Sheboygan County,﻿Silver Creek,﻿Sherman,﻿WI,,43.600762,-87.992268,﻿mil.wi.0039,﻿Attended by Rev. T. Tiernan,,﻿t_tiernan_001,﻿Rev.,﻿T. Tiernan,,,,,,,,1869,﻿,﻿,﻿Milwaukee,Milwaukee
﻿mil.wi.0195,﻿church,﻿St. Dominic's,English,,,,﻿Grant County,﻿Grant County,﻿Sinsinawa,﻿Sinsinawa,﻿WI,,42.520811,-90.53856,,,,﻿l_power_001,﻿Rev.,﻿L. Power,﻿O.P.,,,,,,,1869,﻿,﻿,﻿Milwaukee,Milwaukee
﻿mil.wi.0196,﻿church,﻿St. Matthew's,English,,,,﻿Lafayette County,﻿Lafayette County,﻿Shullsburgh,﻿Shullsburg,﻿WI,,42.574395,-90.230549,,,,﻿j_j_kinsella_001,﻿Rev.,﻿J. J. Kinsella,,,,,,,,1869,﻿,﻿,﻿Milwaukee,Milwaukee
﻿mil.wi.0197,﻿church,﻿Holy Mary of Help,English,,,,﻿Fond du Lac County,﻿Fond du Lac County,﻿Springvale,﻿Springvale,﻿WI,,43.764244,-88.691631,﻿mil.wi.0183,﻿Visited by Rev. E. Gray,,﻿e_gray_001,﻿Rev.,﻿E. Gray,,,,,,,,1869,﻿,﻿,﻿Milwaukee,Milwaukee
﻿mil.wi.0198,﻿church,﻿St. Joseph's,English,,,,﻿Dane County,﻿Dane County,﻿Sun Prairie,﻿Sun Prairie,﻿WI,,43.267928,-89.153749,,,,﻿a_faeckler_001,﻿Rev.,﻿A. Faeckler,,,,,,,,1869,﻿,﻿,﻿Milwaukee,Milwaukee
﻿mil.wi.0199,﻿church,﻿Sacred Hearts of Jesus and Mary,English,,,,﻿Dane County,﻿Dane County,﻿Sun Prairie,﻿Sun Prairie,﻿WI,,43.186216,-89.210166,,,,﻿h_wilmes_001,﻿Rev.,﻿H. Wilmes,,,,,,,,1869,﻿,﻿,﻿Milwaukee,Milwaukee
﻿mil.wi.0200,﻿church,﻿St. John the Baptist's,English,,,,﻿Fond du Lac County,﻿Fond du Lac County,﻿Taycheda,﻿Taycheeda,﻿WI,,43.808879,-88.395106,,,,﻿a_kieser_001,﻿Rev.,﻿A. Kieser,,,,,,,,1869,﻿,﻿,﻿Milwaukee,Milwaukee
﻿mil.wi.0201,﻿church,﻿St. Peter's,English,,,,﻿Fond du Lac County,﻿Fond du Lac County,﻿Taycheda,﻿Taycheeda,﻿WI,,43.808879,-88.395106,﻿mil.wi.0257,﻿Attended from Calvary,,,,,,,,,,,,1869,﻿,﻿,﻿Milwaukee,Milwaukee
﻿mil.wi.0202,﻿church,﻿St. Theresa's,English,,,,﻿Dodge County,﻿Dodge County,﻿Teresa,﻿Theresa,﻿WI,,43.51810698,-88.45321523,,,,﻿geo_strickner_001,﻿Rev.,﻿G. Strickner,,,,,,,,1869,﻿,﻿,﻿Milwaukee,Milwaukee
﻿mil.wi.0203,﻿church,﻿St. Simon's,English,,,,﻿Dane County,﻿Dane County,﻿Vermont,﻿Vermont,﻿WI,,43.077571,-89.794289,﻿mil.wi.0148,﻿Attended by Rev. M. Morris,,﻿m_morris_001,﻿Rev.,﻿M. Morris,,,,,,,,1869,﻿,﻿,﻿Milwaukee,Milwaukee
﻿mil.wi.0204,﻿church,﻿St. Margaret's,English,,,,﻿Dane County,﻿Dane County,﻿Vienna,﻿Vienna,﻿WI,,43.018607,-89.549763,﻿mil.wi.0128,﻿Attended from Madison,,,,,,,,,,,,1869,﻿,﻿,﻿Milwaukee,Milwaukee
﻿mil.wi.0205,﻿church,﻿St. Philomena's,English,,,,﻿Lafayette County,﻿Lafayette County,﻿Viota,﻿Viota,﻿WI,,4.437323,-74.521815,﻿mil.wi.0053,﻿Attended from Darlington,,,,,,,,,,,,1869,﻿,﻿,﻿Milwaukee,Milwaukee
﻿mil.wi.0206,﻿church,﻿St. Thomas Aquinas',English,,,,﻿Racine County,﻿Racine County,﻿Waterford,﻿Waterford,﻿WI,,42.760776,-88.212041,,,,﻿m_j_joerger_001,﻿Rev.,﻿M. J. Joerger,,,,,,,,1869,﻿,﻿,﻿Milwaukee,Milwaukee
﻿mil.wi.0207,﻿church,﻿St. Winceslaus',English,,,,﻿Jefferson County,﻿Jefferson County,﻿Waterloo,﻿Waterloo,﻿WI,,43.161085,-88.921266,﻿mil.wi.0112,﻿Attended by Rev. F. Friedl,,﻿j_friedl_001,﻿Rev.,﻿F. Friedl,,,,,,,,1869,﻿,﻿,﻿Milwaukee,Milwaukee
﻿mil.wi.0208,﻿church,﻿St. Bernard's,English,,,,﻿Jefferson County,﻿Jefferson County,﻿Watertown,﻿Watertown,﻿WI,,43.193918,-88.729292,,,,﻿p_f_petit_001,﻿Rev.,﻿P. F. Petit,,,,,,,,1869,﻿,﻿,﻿Milwaukee,Milwaukee
﻿mil.wi.0209,﻿church,﻿St. Henry's,﻿German,﻿Each of the German Catholic churches has its benevolent society for the poor.,,,﻿Jefferson County,﻿Jefferson County,﻿Watertown,﻿Watertown,﻿WI,,43.196569,-88.720928,,,,﻿m_minderer_001,﻿Rev.,﻿M. Minderer,,,,,,,,1869,﻿,﻿,﻿Milwaukee,Milwaukee
﻿mil.wi.0210,﻿church,﻿St. Joseph's,English,,,,﻿Dodge County,﻿Dodge County,﻿Waupun,﻿Waupun,﻿WI,,43.633481,-88.737722,,,,﻿g_l_willard_001,﻿Rev.,﻿G. L. Willard,,,,,,,,1869,﻿,﻿,﻿Milwaukee,Milwaukee
﻿mil.wi.0211,﻿church,﻿St. Joseph's,English,,,,﻿Waukesha County,﻿Waukesha County,﻿Waukesha,﻿Waukesha,﻿WI,,43.011854,-88.226756,,,,﻿f_deberge_001,﻿Rev.,﻿F. Deberge,,,,,,,,1869,﻿,﻿,﻿Milwaukee,Milwaukee
﻿mil.wi.0212,﻿church,﻿Holy Angels',English,,,,﻿Washington County,﻿Washington County,﻿West Bend,﻿West Bend,﻿WI,,43.423965,-88.186686,,,,﻿j_reindl_001,﻿Rev.,﻿J. Reindl,,,,,,,,1869,﻿,﻿,﻿Milwaukee,Milwaukee
﻿mil.wi.0213,﻿church,﻿St. Matthias',English,,,,﻿Washington County,﻿Washington County,﻿West Bend,﻿West Bend,﻿WI,,43.420725,-88.271444,,﻿Visited by Rev. C. Rehrl,,﻿c_rehrl_001,﻿Rev.,﻿C. Rehrl,,,,,,,,1869,﻿,﻿,﻿Milwaukee,Milwaukee
﻿mil.wi.0214,﻿church,﻿St. Mary's ad Lacum,English,,,,﻿Dane County,﻿Dane County,﻿Westport,﻿Westport,﻿WI,,43.018607,-89.549763,,,,﻿m_hobbs_001,﻿Rev.,﻿M. Hobbs,,,,,,,,1869,﻿,﻿,﻿Milwaukee,Milwaukee
﻿mil.wi.0215,﻿church,﻿Holy Trinity,English,,,,﻿— County,﻿Calumet County,﻿West Brotherton,﻿Brothertown,﻿WI,,43.78444,-88.787868,﻿mil.wi.0134,﻿Attended from Marytown,,,,,,,,,,,,1869,﻿,﻿,﻿Milwaukee,Milwaukee
﻿mil.wi.0216,﻿church,﻿St. Patrick's,English,,,,﻿Iowa County,﻿Iowa County,﻿Walwick,﻿Waldwick,﻿WI,,42.825555,-90.039847,﻿mil.wi.0142,﻿Attended by Rev. F. McGann,,﻿f_mcgann_001,﻿Rev.,﻿F. McGann,,,,,,,,1869,﻿,﻿,﻿Milwaukee,Milwaukee
﻿mil.wi.0217,﻿church,﻿St. Alphonsus',English,,,,﻿Kenosha County,﻿Kenosha County,﻿Wheatland,﻿Wheatland,﻿WI,,42.580476,-88.226719,,,,﻿j_h_korphage_001,﻿Rev.,﻿J. H. Korphage,,,,,,,,1869,﻿,﻿,﻿Milwaukee,Milwaukee
﻿mil.wi.0218,﻿church,﻿St. Patrick's,English,,,,﻿Walworth County,﻿Walworth County,﻿Whitewater,﻿Whitewater,﻿WI,,42.833958,-88.753497,,,,﻿d_t_kirwan_001,﻿Rev.,﻿D. T. Kirwan,,,,,,,,1869,﻿,﻿,﻿Milwaukee,Milwaukee
﻿mil.wi.0219,﻿church,﻿Holy Assumption,English,,,,﻿Lafayette County,﻿Lafayette County,﻿Willow Springs,﻿Willow Springs,﻿WI,,42.748242,-90.131799,﻿mil.wi.0053,﻿Attended by Rev. E. McGinnity,,﻿e_m_mcginnity_001,﻿Rev.,﻿E. McGinnity,,,,,,,,1869,﻿,﻿,﻿Milwaukee,Milwaukee
﻿mil.wi.0220,﻿church,﻿Holy Name of Jesus,English,,,,﻿Kenosha County,﻿Kenosha County,﻿Wilmot,﻿Wilmont,﻿WI,,42.513043,-88.182513,,,,﻿w_fitzhenry_001,﻿Rev.,﻿W. Fitzhenry,,,,,,,,1869,﻿,﻿,﻿Milwaukee,Milwaukee
﻿mil.wi.0221,﻿church,﻿St. George's,English,,,,﻿Sheboygan County,﻿Sheboygan County,﻿Wilson,﻿Wilson,﻿WI,,43.669865,-87.799943,,,,﻿j_a_mueller_001,﻿Rev.,﻿J. A. Mueller,,,,,,,,1869,﻿,﻿,﻿Milwaukee,Milwaukee
﻿mil.wi.0222,﻿church,﻿St. Mary's Annunciation,English,,,,﻿Dodge County,﻿Dodge County,﻿Woodland,﻿Woodland,﻿WI,,43.377519,-88.521188,﻿mil.wi.0150,﻿Attended from Neosha,,,,,,,,,,,,1869,﻿,﻿,﻿Milwaukee,Milwaukee
﻿mil.wi.0223,﻿church,﻿St. Augustine's,English,,,,﻿Columbia County,﻿Columbia County,﻿Wyocena,﻿Wyocena,﻿WI,,43.495817,-89.308451,﻿mil.wi.0048,﻿Attended by Rev. J. O'Keefe,,﻿j_okeefe_001,﻿Rev.,﻿J. O'Keefe,,,,,,,,1869,﻿,﻿,﻿Milwaukee,Milwaukee
﻿mil.wi.0224,﻿station,[Unnamed Institution],English,,,,﻿Columbia County,﻿Columbia County,﻿Marcello,﻿Marcellon,﻿WI,,43.568594,-89.265672,,,,,,,,,,,,,,1869,﻿,﻿,﻿Milwaukee,Milwaukee
﻿mil.wi.0225,﻿station,[Unnamed Institution],English,,,,﻿Columbia County,﻿Columbia County,﻿Caledonia,﻿Caledonia,﻿WI,,43.463521,-89.53089,,,,,,,,,,,,,,1869,﻿,﻿,﻿Milwaukee,Milwaukee
﻿mil.wi.0226,﻿station,[Unnamed Institution],English,,,,﻿Columbia County,﻿Columbia County,﻿Prairie,﻿Prairie,﻿WI,,43.404663,-89.322695,,,,,,,,,,,,,,1869,﻿,﻿,﻿Milwaukee,Milwaukee
﻿mil.wi.0227,﻿station,[Unnamed Institution],English,,,,﻿Dane County,﻿Dane County,﻿Cottage Grove,﻿Cottage Grove,﻿WI,,43.076108,-89.199559,,,,,,,,,,,,,,1869,﻿,﻿,﻿Milwaukee,Milwaukee
﻿mil.wi.0228,﻿station,[Unnamed Institution],English,,,,﻿Dane County,﻿Dane County,﻿Dane,﻿Dane,﻿WI,,43.250547,-89.501509,,,,,,,,,,,,,,1869,﻿,﻿,﻿Milwaukee,Milwaukee
﻿mil.wi.0229,﻿station,[Unnamed Institution],English,,,,﻿Dodge County,﻿Dodge County,﻿Lebanon,﻿Lebanon,﻿WI,,43.255277,-88.626768,,,,,,,,,,,,,,1869,﻿,﻿,﻿Milwaukee,Milwaukee
﻿mil.wi.0230,﻿station,[Unnamed Institution],English,,,,﻿Dodge County,﻿Dodge County,﻿Lamira,﻿Lamira,﻿WI,,43.591382,-88.443713,,,,,,,,,,,,,,1869,﻿,﻿,﻿Milwaukee,Milwaukee
﻿mil.wi.0231,﻿station,[Unnamed Institution],English,,,,﻿Dodge County,﻿Dodge County,﻿Iron Ridge,﻿Iron Ridge,﻿WI,,43.39972,-88.532601,,,,,,,,,,,,,,1869,﻿,﻿,﻿Milwaukee,Milwaukee
﻿mil.wi.0232,﻿station,[Unnamed Institution],English,,,,﻿Dodge County,﻿Dodge County,﻿Lowell,﻿Lowell,﻿WI,,43.340272,-88.81705,,,,,,,,,,,,,,1869,﻿,﻿,﻿Milwaukee,Milwaukee
﻿mil.wi.0233,﻿station,[Unnamed Institution],English,,,,﻿Fond du Lac County,﻿Fond du Lac County,﻿Rosendale,﻿Rosendale,﻿WI,,43.807763,-88.674832,,,,,,,,,,,,,,1869,﻿,﻿,﻿Milwaukee,Milwaukee
﻿mil.wi.0234,﻿station,[Unnamed Institution],English,,,,﻿Fond du Lac County,﻿Fond du Lac County,﻿Brandon,﻿Brandon,﻿WI,,43.735262,-88.781221,,,,,,,,,,,,,,1869,﻿,﻿,﻿Milwaukee,Milwaukee
﻿mil.wi.0235,﻿station,[Unnamed Institution],English,,,,﻿Fond du Lac County,﻿Fond du Lac County,﻿Oakfield,﻿Oakfield,﻿WI,,43.686101,-88.546495,,,,,,,,,,,,,,1869,﻿,﻿,﻿Milwaukee,Milwaukee
﻿mil.wi.0236,﻿station,[Unnamed Institution],English,,,,﻿Grant County,﻿Grant County,﻿Beetown,﻿Beetown,﻿WI,,42.794991,-90.885405,,,,,,,,,,,,,,1869,﻿,﻿,﻿Milwaukee,Milwaukee
﻿mil.wi.0237,﻿station,[Unnamed Institution],English,,,,﻿Grant County,﻿Grant County,﻿Boscobel,﻿Boscobel,﻿WI,,43.134429,-90.705404,,,,,,,,,,,,,,1869,﻿,﻿,﻿Milwaukee,Milwaukee
﻿mil.wi.0238,﻿station,[Unnamed Institution],English,,,,﻿Grant County,﻿Grant County,﻿Liberty,﻿Liberty,﻿WI,,42.881601,-90.620416,,,,,,,,,,,,,,1869,﻿,﻿,﻿Milwaukee,Milwaukee
﻿mil.wi.0239,﻿station,[Unnamed Institution],English,,,,﻿Grant County,﻿Grant County,﻿Waterloo,﻿Waterloo,﻿WI,,42.724027,-90.848452,,,,,,,,,,,,,,1869,﻿,﻿,﻿Milwaukee,Milwaukee
﻿mil.wi.0240,﻿station,[Unnamed Institution],English,,,,﻿Green Lake County,﻿Green Lake County,﻿Princeton,﻿Princeton,﻿WI,,43.850813,-89.121783,,,,,,,,,,,,,,1869,﻿,﻿,﻿Milwaukee,Milwaukee
﻿mil.wi.0241,﻿station,[Unnamed Institution],English,,,,﻿Iowa County,﻿Iowa County,﻿Arina,﻿Arena,﻿WI,,43.165548,-89.912901,,,,,,,,,,,,,,1869,﻿,﻿,﻿Milwaukee,Milwaukee
﻿mil.wi.0242,﻿station,[Unnamed Institution],English,,,,﻿Iowa County,﻿Iowa County,﻿Avoca,﻿Avoca,﻿WI,,43.181933,-90.324569,,,,,,,,,,,,,,1869,﻿,﻿,﻿Milwaukee,Milwaukee
﻿mil.wi.0243,﻿station,[Unnamed Institution],English,,,,﻿Jefferson County,﻿Jefferson County,﻿Fort Atkinson,﻿Fort Atkinson,﻿WI,,42.928894,-88.837051,,,,,,,,,,,,,,1869,﻿,﻿,﻿Milwaukee,Milwaukee
﻿mil.wi.0244,﻿station,[Unnamed Institution],English,,,,﻿Jefferson County,,﻿Pearlunawee,,﻿WI,,43.089927,-88.710896,,,,,,,,,,,,,,1869,﻿,﻿,﻿Milwaukee,Milwaukee
﻿mil.wi.0245,﻿station,[Unnamed Institution],English,,,,﻿Jefferson County,﻿Jefferson County,﻿Waterloo,﻿Waterloo,﻿WI,,43.150281,-88.922228,,,,,,,,,,,,,,1869,﻿,﻿,﻿Milwaukee,Milwaukee
﻿mil.wi.0246,﻿station,[Unnamed Institution],English,,,,﻿Lafayette County,﻿Lafayette County,﻿Gratiot,﻿Gratiot,﻿WI,,42.578894,-90.022624,,,,,,,,,,,,,,1869,﻿,﻿,﻿Milwaukee,Milwaukee
﻿mil.wi.0247,﻿station,[Unnamed Institution],English,,,,﻿Lafayette County,﻿Lafayette County,﻿Yellowstone,﻿Yellowstone,﻿WI,,42.79833,-89.97028,,,,,,,,,,,,,,1869,﻿,﻿,﻿Milwaukee,Milwaukee
﻿mil.wi.0248,﻿station,[Unnamed Institution],English,,,,﻿Racine County,﻿Racine County,﻿Rochester,﻿Rochester,﻿WI,,42.741406,-88.224256,,,,,,,,,,,,,,1869,﻿,﻿,﻿Milwaukee,Milwaukee
﻿mil.wi.0249,﻿station,[Unnamed Institution],English,,,,﻿Racine County,﻿Racine County,﻿Yorkville,﻿Yorkville,﻿WI,,42.741963,-88.026751,,,,,,,,,,,,,,1869,﻿,﻿,﻿Milwaukee,Milwaukee
﻿mil.wi.0250,﻿station,[Unnamed Institution],English,,,,﻿Rock County,﻿Rock County,﻿Fulton,﻿Fulton,﻿WI,,42.808062,-89.127614,,,,,,,,,,,,,,1869,﻿,﻿,﻿Milwaukee,Milwaukee
﻿mil.wi.0251,﻿station,[Unnamed Institution],English,,,,﻿Rock County,﻿Rock County,﻿Milton,﻿Milton,﻿WI,,42.775565,-88.943999,,,,,,,,,,,,,,1869,﻿,﻿,﻿Milwaukee,Milwaukee
﻿mil.wi.0252,﻿station,[Unnamed Institution],English,,,,﻿Rock County,﻿Rock County,﻿Spring Valley,﻿Spring Valley,﻿WI,,42.658342,-89.308449,,,,,,,,,,,,,,1869,﻿,﻿,﻿Milwaukee,Milwaukee
﻿mil.wi.0253,﻿station,[Unnamed Institution],English,,,,﻿Rock County,,﻿Sugar River,﻿Brodhead,﻿WI,,42.636197,-89.386535,,,,,,,,,,,,,,1869,﻿,﻿,﻿Milwaukee,Milwaukee
﻿mil.wi.0254,﻿station,[Unnamed Institution],English,,,,﻿Waukesha County,﻿Waukesha County,﻿Delafield,﻿Delafield,﻿WI,,43.059973,-88.404176,,,,,,,,,,,,,,1869,﻿,﻿,﻿Milwaukee,Milwaukee
﻿mil.wi.0255,﻿station,[Unnamed Institution],English,,,,﻿Waukesha County,﻿Waukesha County,﻿Muchwanago,﻿Mukwonago,﻿WI,,42.863112,-88.332347,,,,,,,,,,,,,,1869,﻿,﻿,﻿Milwaukee,Milwaukee
﻿mil.wi.0256,﻿station,[Unnamed Institution],English,,,,﻿Waukesha County,﻿Waukesha County,﻿Pewaukee,﻿Pewaukee,﻿WI,,43.065463,-88.205804,,,,,,,,,,,,,,1869,﻿,﻿,﻿Milwaukee,Milwaukee
﻿mil.wi.0257,﻿convent,﻿Capuchin Convent of Calvary,English,"﻿There are also a number of clerics, novices, and lay brothers.",﻿P.O. Calvary,,﻿Fond du Lac County,﻿Fond du Lac County,,﻿Calvary,﻿WI,,43.824287,-88.249763,,,,﻿fra_haas_001,﻿Very Rev.,﻿Francis Haas,﻿O.M.Cp.,﻿Comm. General and Guardian,,,,,,1869,﻿,﻿,﻿Milwaukee,Milwaukee
﻿mil.wi.0257,﻿convent,﻿Capuchin Convent of Calvary,English,﻿Stations visited every Sunday from the Convent: St. Joseph's and St. Peter's,﻿P.O. Calvary,,﻿Fond du Lac County,﻿Fond du Lac County,,﻿Calvary,﻿WI,,43.824287,-88.249763,,,,﻿sol_feddermann_001,﻿Rev.,﻿Solanus Feddermann,﻿O.M.Cp.,,,,,,,1869,﻿,﻿,﻿Milwaukee,Milwaukee
﻿mil.wi.0257,﻿convent,﻿Capuchin Convent of Calvary,English,"﻿Rev. Cajetanus Krauthahn, O.M.Cp., residing in St. Mary's, Marystown, Calumet County",﻿P.O. Calvary,,﻿Fond du Lac County,﻿Fond du Lac County,,﻿Calvary,﻿WI,,43.824287,-88.249763,,,,﻿ant_rottensteiner_001,﻿Rev.,﻿Antonius Rottensteiner,﻿O.M.Cp.,﻿Lector,,,,,,1869,﻿,﻿,﻿Milwaukee,Milwaukee
﻿mil.wi.0257,﻿convent,﻿Capuchin Convent of Calvary,English,"﻿Rev. Cajetanus Krauthahn, O.M.Cp., residing in St. Mary's, Marystown, Calumet County",﻿P.O. Calvary,,﻿Fond du Lac County,﻿Fond du Lac County,,﻿Calvary,﻿WI,,43.824287,-88.249763,,,,﻿lau_vorwerk_001,﻿Rev.,﻿Laurentius Vorwerk,﻿O.M.Cp.,﻿Master of Novices,,,,,,1869,﻿,﻿,﻿Milwaukee,Milwaukee
﻿mil.wi.0257,﻿convent,﻿Capuchin Convent of Calvary,English,"﻿Rev. Cajetanus Krauthahn, O.M.Cp., residing in St. Mary's, Marystown, Calumet County",﻿P.O. Calvary,,﻿Fond du Lac County,﻿Fond du Lac County,,﻿Calvary,﻿WI,,43.824287,-88.249763,,,,﻿pas_straub_001,﻿Rev.,﻿Paschalis Straub,﻿O.M.Cp.,,,,,,,1869,﻿,﻿,﻿Milwaukee,Milwaukee
﻿mil.wi.0257,﻿convent,﻿Capuchin Convent of Calvary,English,"﻿Rev. Cajetanus Krauthahn, O.M.Cp., residing in St. Mary's, Marystown, Calumet County",﻿P.O. Calvary,,﻿Fond du Lac County,﻿Fond du Lac County,,﻿Calvary,﻿WI,,43.824287,-88.249763,,,,﻿did_wendel_001,﻿Rev.,﻿Didacus Wendel,﻿O.M.Cp.,,,,,,,1869,﻿,﻿,﻿Milwaukee,Milwaukee
﻿mil.wi.0257,﻿convent,﻿Capuchin Convent of Calvary,English,"﻿Rev. Cajetanus Krauthahn, O.M.Cp., residing in St. Mary's, Marystown, Calumet County",﻿P.O. Calvary,,﻿Fond du Lac County,﻿Fond du Lac County,,﻿Calvary,﻿WI,,43.824287,-88.249763,,,,﻿dom_mersmann_001,﻿Rev.,﻿Dominicus Mersmann,﻿O.M.Cp.,,,,,,,1869,﻿,﻿,﻿Milwaukee,Milwaukee
﻿mil.wi.0257,﻿convent,﻿Capuchin Convent of Calvary,English,"﻿Rev. Cajetanus Krauthahn, O.M.Cp., residing in St. Mary's, Marystown, Calumet County",﻿P.O. Calvary,,﻿Fond du Lac County,﻿Fond du Lac County,,﻿Calvary,﻿WI,,43.824287,-88.249763,,,,﻿car_brandstetter_001,﻿Rev.,﻿Carolus Brandstetter,﻿O.M.Cp.,,,,,,,1869,﻿,﻿,﻿Milwaukee,Milwaukee
﻿mil.wi.0258,﻿college,﻿Ecclesiastical College of St. Lawrence of Brundusium,English,﻿All the classic and modern branches are taught.,﻿P. O. Calvary,,﻿Fond du Lac County,,,,﻿WI,,43.78444,-88.787868,,,,﻿did_wendel_001,﻿Rev.,﻿Didacus Wendel,﻿O.M.Cp.,﻿Rector,,,,﻿Conducted by the Capuchin Fathers of Calvary Convent (P.O. Calvary),,1869,﻿,﻿,﻿Milwaukee,Milwaukee
﻿mil.wi.0258,﻿college,﻿Ecclesiastical College of St. Lawrence of Brundusium,English,﻿Accomodation for 25 boarders. Letters should be addressed to the Rev. Rector.,﻿P. O. Calvary,,﻿,,,,﻿WI,,43.78444,-88.787868,,,,,,,,,,,,﻿Conducted by the Capuchin Fathers of Calvary Convent (P.O. Calvary),,1869,﻿,﻿,﻿Milwaukee,Milwaukee
﻿mil.wi.0259,"﻿convent, house, novitiate",﻿Convent of the School Sisters of Notre Dame,English,"﻿74 mission houses.  With 610 Sisters having under their charge throughout the United States 23,600 parish school children, over 1262 orphans, and 600 boarders.","﻿Mother House and Novitiate, Corner of Milwaukee and Knapp streets",,,,,,﻿WI,,43.04798,-87.906633,,,,﻿m-caroline_mil.wi_001,﻿Sister,﻿Mary Caroline,,﻿Superior,,﻿religious,﻿62 religious,﻿Under the charge of the School Sisters of Notre Dame,,1869,﻿,﻿,﻿Milwaukee,Milwaukee
﻿mil.wi.0259,"﻿convent, house, novitiate",﻿Convent of the School Sisters of Notre Dame,English,"﻿74 mission houses.  With 610 Sisters having under their charge throughout the United States 23,600 parish school children, over 1262 orphans, and 600 boarders.","﻿Mother House and Novitiate, Corner of Milwaukee and Knapp streets",,﻿,,,,﻿WI,,43.04798,-87.906633,,,,,,,,,,﻿religious,﻿78 novices,﻿Under the charge of the School Sisters of Notre Dame,,1869,﻿,﻿,﻿Milwaukee,Milwaukee
﻿mil.wi.0259,"﻿convent, house, novitiate",﻿Convent of the School Sisters of Notre Dame,English,"﻿74 mission houses.  With 610 Sisters having under their charge throughout the United States 23,600 parish school children, over 1262 orphans, and 600 boarders.","﻿Mother House and Novitiate, Corner of Milwaukee and Knapp streets",,﻿,,,,﻿WI,,43.04798,-87.906633,,,,,,,,,,﻿religious,﻿77 postulants,﻿Under the charge of the School Sisters of Notre Dame,,1869,﻿,﻿,﻿Milwaukee,Milwaukee
﻿mil.wi.0010_03,﻿school,﻿St. Mary's Institute,English,﻿This is a boarding school for young ladies.,﻿Corner of Milwaukee and Knapp streets,,,﻿Milwaukee County,﻿Milwaukee,﻿Milwaukee,﻿WI,,43.047156,-87.907544,,,,﻿m-seraphica_mil.wi_001,﻿Sister,﻿Mary Seraphica,,﻿Directress,,﻿student,﻿100 pupils,﻿Under the charge of the School Sisters of Notre Dame,,1869,﻿,﻿,﻿Milwaukee,Milwaukee
﻿mil.wi.0261,﻿school,﻿St. Rosa's Select School,English,,"﻿On Van Buren, between Biddle and Oneida streets",,,﻿Milwaukee County,﻿Milwaukee,﻿Milwaukee,﻿WI,,43.042145,-87.90332,,,,﻿camilla_mil.wi_001,﻿Sister,﻿Camilla,,﻿Sister-Servant,,﻿student,﻿69 pupils,﻿Conducted by the Daughters of Charity,,1869,﻿,﻿,﻿Milwaukee,Milwaukee
﻿mil.wi.0262,﻿school,﻿St. Rosa's Free School,English,,"﻿On Van Buren, between Biddle and Oneida streets",,﻿,﻿Milwaukee County,﻿Milwaukee,﻿Milwaukee,﻿WI,,43.042145,-87.90332,,,,,,,,,,﻿student,﻿84 pupils,﻿Conducted by the Daughters of Charity,,1869,﻿,﻿,﻿Milwaukee,Milwaukee
﻿mil.wi.0010_02,﻿school,﻿Day School of St. Mary's of the Holy Angels,English,,﻿Corner of Milwaukee and Ogden streets,,,﻿Milwaukee County,﻿Milwaukee,﻿Milwaukee,﻿WI,,43.047156,-87.907544,,,,﻿m-ernesta_mil.wi_001,﻿Sister,﻿Mary Ernesta,,﻿Directress,,﻿religious,﻿12 Sisters employed in teaching,﻿Conducted by the School Sisters of Notre Dame,,1869,﻿,﻿,﻿Milwaukee,Milwaukee
﻿mil.wi.0010_02,﻿school,﻿Day School of St. Mary's of the Holy Angels,English,,﻿Corner of Milwaukee and Ogden streets,,,﻿Milwaukee County,﻿Milwaukee,﻿Milwaukee,﻿WI,,43.047156,-87.907544,,,,,,,,,,﻿student,﻿460 pupils,﻿Conducted by the School Sisters of Notre Dame,,1869,﻿,﻿,﻿Milwaukee,Milwaukee
﻿mil.wi.0264,﻿school,﻿St. Mary's Parish School,"﻿German, English",,,,,﻿Milwaukee County,﻿Milwaukee,﻿Milwaukee,﻿WI,,43.042173,-87.907964,,,,﻿m-philippa_mil.wi_001,﻿Sister,﻿Mary Philippa,,﻿Directress,,﻿religious,﻿5 Sisters,﻿Conducted by the School Sisters of Notre Dame,,1869,﻿,﻿,﻿Milwaukee,Milwaukee
﻿mil.wi.0264,﻿school,﻿St. Mary's Parish School,"﻿German, English",,,,,﻿Milwaukee County,﻿Milwaukee,﻿Milwaukee,﻿WI,,43.042173,-87.907964,,,,,,,,,,﻿student,﻿560 pupils,﻿Conducted by the School Sisters of Notre Dame,,1869,﻿,﻿,﻿Milwaukee,Milwaukee
﻿mil.wi.0265,﻿school,﻿Holy Trinity Parish School,English,,,,﻿,﻿Milwaukee County,﻿Milwaukee,﻿Milwaukee,﻿WI,,43.025057,-87.91582,,,,﻿m-adelberta_mil.wi_001,﻿Sister,﻿Mary Adelberta,,﻿Directress,,﻿religious,﻿3 Sisters,﻿Conducted by the School Sisters of Notre Dame,,1869,﻿,﻿,﻿Milwaukee,Milwaukee
﻿mil.wi.0265,﻿school,﻿Holy Trinity Parish School,English,,,,﻿,﻿Milwaukee County,﻿Milwaukee,﻿Milwaukee,﻿WI,,43.025057,-87.91582,,,,,,,,,,﻿student,﻿350 pupils,﻿Conducted by the School Sisters of Notre Dame,,1869,﻿,﻿,﻿Milwaukee,Milwaukee
﻿mil.wi.0266,﻿school,﻿St. Joseph's Parish School,English,,,,﻿,﻿Milwaukee County,﻿Milwaukee,﻿Milwaukee,﻿WI,,43.04987,-87.926109,,,,﻿m-francis_xavier_mil.wi_001,﻿Sister,﻿Mary Francis Xavier,,﻿Directress,,﻿religious,﻿5 Sisters,﻿Conducted by the School Sisters of Notre Dame,,1869,﻿,﻿,﻿Milwaukee,Milwaukee
﻿mil.wi.0266,﻿school,﻿St. Joseph's Parish School,English,,,,﻿,﻿Milwaukee County,﻿Milwaukee,﻿Milwaukee,﻿WI,,43.04987,-87.926109,,,,,,,,,,﻿student,﻿600 pupils,﻿Conducted by the School Sisters of Notre Dame,,1869,﻿,﻿,﻿Milwaukee,Milwaukee
﻿mil.wi.0267,﻿school,﻿St. Stanislaus' Parish School,﻿Polish,,,,,﻿Milwaukee County,﻿Milwaukee,﻿Milwaukee,﻿WI,,43.012529,-87.916966,,,,﻿m-tita_mil.wi_001,﻿Sister,﻿Mary Tita,,﻿Directress,,﻿student,﻿50 pupils,﻿Conducted by the School Sisters of Notre Dame,,1869,﻿,﻿,﻿Milwaukee,Milwaukee
﻿mil.wi.0066_02,﻿school,﻿St. Mary's Parish School,English,,,,﻿Waukesha County,,﻿Elm Grove,﻿Elm Grove,﻿WI,,43.044445,-88.074792,,,,﻿m-romualda_mil.wi_001,﻿Sister,﻿Mary Romualda,,﻿Directress,,﻿student,﻿60 pupils,﻿Conducted by the School Sisters of Notre Dame,,1869,﻿,﻿,﻿Milwaukee,Milwaukee
﻿mil.wi.0269,﻿school,﻿St. Cecilia's Parish School,English,,,,﻿,,﻿Mount Carmel,,﻿WI,,43.78444,-88.787868,,,,﻿m-petra_fouria_mil.wi_001,﻿Sister,﻿Mary Petra Fouria,,﻿Directress,,﻿religious,﻿5 Sisters,﻿Conducted by the School Sisters of Notre Dame,,1869,﻿,﻿,﻿Milwaukee,Milwaukee
﻿mil.wi.0269,﻿school,﻿St. Cecilia's Parish School,English,,,,﻿,,﻿Mount Carmel,,﻿WI,,43.78444,-88.787868,,,,,,,,,,﻿student,﻿210 pupils,﻿Conducted by the School Sisters of Notre Dame,,1869,﻿,﻿,﻿Milwaukee,Milwaukee
﻿mil.wi.0269,﻿school,﻿St. Cecilia's Parish School,English,,,,﻿,,﻿Mount Carmel,,﻿WI,,43.78444,-88.787868,,,,,,,,,,﻿student,﻿12 boarders,﻿Conducted by the School Sisters of Notre Dame,,1869,﻿,﻿,﻿Milwaukee,Milwaukee
﻿mil.wi.0270,﻿school,﻿St. Bernard's Parish School,English,,,,﻿,﻿Dodge County,﻿Watertown,﻿Watertown,﻿WI,,43.193918,-88.729292,,,,﻿m-patritia_mil.wi_001,﻿Sister,﻿Mary Patritia,,﻿Directress,,﻿religious,﻿3 Sisters,﻿Conducted by the School Sisters of Notre Dame,,1869,﻿,﻿,﻿Milwaukee,Milwaukee
﻿mil.wi.0270,﻿school,﻿St. Bernard's Parish School,English,,,,﻿,﻿Dodge County,﻿Watertown,﻿Watertown,﻿WI,,43.193918,-88.729292,,,,,,,,,,﻿student,﻿260 pupils,﻿Conducted by the School Sisters of Notre Dame,,1869,﻿,﻿,﻿Milwaukee,Milwaukee
﻿mil.wi.0271,﻿school,﻿Holy Trinity Parish School,English,,,,﻿,﻿Kenosha County,﻿Kenosha,﻿Kenosha,﻿WI,,42.56849,-87.825207,,,,﻿m-verena_mil.wi_001,﻿Sister,﻿Mary Verena,,﻿Directress,,﻿religious,﻿3 Sisters,﻿Conducted by the School Sisters of Notre Dame,,1869,﻿,﻿,﻿Milwaukee,Milwaukee
﻿mil.wi.0271,﻿school,﻿Holy Trinity Parish School,English,,,,﻿,﻿Kenosha County,﻿Kenosha,﻿Kenosha,﻿WI,,42.56849,-87.825207,,,,,,,,,,﻿student,﻿250 pupils,﻿Conducted by the School Sisters of Notre Dame,,1869,﻿,﻿,﻿Milwaukee,Milwaukee
﻿mil.wi.0193_02,﻿school,﻿St. Mary's Parish School,English,,,,﻿,﻿Sheboygan County,﻿Sheboygan,﻿Sheboygan,﻿WI,,43.76048158,-87.7134702,,,,﻿m-gerhardine_mil.wi_001,﻿Sister,﻿Mary Gerhardine,,﻿Directress,,﻿religious,﻿3 Sisters,﻿Conducted by the School Sisters of Notre Dame,,1869,﻿,﻿,﻿Milwaukee,Milwaukee
﻿mil.wi.0193_02,﻿school,﻿St. Mary's Parish School,English,,,,﻿,﻿Sheboygan County,﻿Sheboygan,﻿Sheboygan,﻿WI,,43.76048158,-87.7134702,,,,,,,,,,﻿student,﻿200 pupils,﻿Conducted by the School Sisters of Notre Dame,,1869,﻿,﻿,﻿Milwaukee,Milwaukee
﻿mil.wi.0030_02,﻿school,﻿St. Mary's Parish School,English,,,,﻿,﻿Racine County,﻿Burlington,﻿Burlington,﻿WI,,42.675796,-88.281435,,,,﻿m-calasanctia_mil.wi_001,﻿Sister,﻿Mary Calasanctia,,﻿Directress,,﻿religious,﻿4 Sisters,﻿Conducted by the School Sisters of Notre Dame,,1869,﻿,﻿,﻿Milwaukee,Milwaukee
﻿mil.wi.0030_02,﻿school,﻿St. Mary's Parish School,English,,,,﻿,﻿Racine County,﻿Burlington,﻿Burlington,﻿WI,,42.675796,-88.281435,,,,,,,,,,﻿student,﻿300 pupils,﻿Conducted by the School Sisters of Notre Dame,,1869,﻿,﻿,﻿Milwaukee,Milwaukee
﻿mil.wi.0274,﻿school,﻿St. Mary's School,English,,,,﻿,﻿Dodge County,﻿Beaver Dam,﻿Beaver Dam,﻿WI,,43.443629,-88.858722,,,,﻿m-leopoldina_mil.wi_001,﻿Sister,﻿Mary Leopoldina,,﻿Directress,,﻿religious,﻿3 Sisters,﻿Conducted by the School Sisters of Notre Dame,,1869,﻿,﻿,﻿Milwaukee,Milwaukee
﻿mil.wi.0274,﻿school,﻿St. Mary's School,English,,,,﻿,﻿Dodge County,﻿Beaver Dam,﻿Beaver Dam,﻿WI,,43.443629,-88.858722,,,,,,,,,,﻿student,﻿250 pupils,﻿Conducted by the School Sisters of Notre Dame,,1869,﻿,﻿,﻿Milwaukee,Milwaukee
﻿mil.wi.0275,﻿school,﻿Holy Redeemer's Parish School,English,,,,﻿,﻿Dane County,﻿Madison,﻿Madison,﻿WI,,43.075608,-89.389217,,,,﻿m-joachima_mil.wi_001,﻿Sister,﻿Mary Joachima,,﻿Directress,,﻿religious,﻿3 Sisters,﻿Conducted by the School Sisters of Notre Dame,,1869,﻿,﻿,﻿Milwaukee,Milwaukee
﻿mil.wi.0275,﻿school,﻿Holy Redeemer's Parish School,English,,,,﻿,﻿Dane County,﻿Madison,﻿Madison,﻿WI,,43.075608,-89.389217,,,,,,,,,,﻿student,﻿250 pupils,﻿Conducted by the School Sisters of Notre Dame,,1869,﻿,﻿,﻿Milwaukee,Milwaukee
﻿mil.wi.0276,﻿school,﻿St. Raphael's Parish School,English,,,,﻿,﻿Dane County,﻿Madison,﻿Madison,﻿WI,,43.072394,-89.386004,,,,﻿m-venantia_mil.wi_001,﻿Sister,﻿Mary Venantia,,﻿Directress,,﻿religious,﻿3 Sisters,﻿Conducted by the School Sisters of Notre Dame,,1869,﻿,﻿,﻿Milwaukee,Milwaukee
﻿mil.wi.0276,﻿school,﻿St. Raphael's Parish School,English,,,,﻿,﻿Dane County,﻿Madison,﻿Madison,﻿WI,,43.072394,-89.386004,,,,,,,,,,﻿student,﻿230 pupils,﻿Conducted by the School Sisters of Notre Dame,,1869,﻿,﻿,﻿Milwaukee,Milwaukee
﻿mil.wi.0277,﻿school,﻿St. Boniface's Parish School,English,,,,﻿,﻿Kenosha County,﻿Brighton,﻿Brighton,﻿WI,,42.6278164,-88.10066777,,,,﻿m-chrysantha_mil.wi_001,﻿Sister,﻿Mary Chrysantha,,﻿Directress,,﻿religious,﻿2 Sisters,﻿Conducted by the School Sisters of Notre Dame,,1869,﻿,﻿,﻿Milwaukee,Milwaukee
﻿mil.wi.0277,﻿school,﻿St. Boniface's Parish School,English,,,,﻿,﻿Kenosha County,﻿Brighton,﻿Brighton,﻿WI,,42.6278164,-88.10066777,,,,,,,,,,﻿student,﻿120 pupils,﻿Conducted by the School Sisters of Notre Dame,,1869,﻿,﻿,﻿Milwaukee,Milwaukee
﻿mil.wi.0278,﻿school,﻿St. Thomas of Aquin's Parish School,English,,,,﻿,﻿Racine County,﻿Waterford,﻿Waterford,﻿WI,,42.760776,-88.212041,,,,﻿m-ægidia_mil.wi_001,﻿Sister,﻿Mary Ægidia,,﻿Directress,,﻿religious,﻿2 Sisters,﻿Conducted by the School Sisters of Notre Dame,,1869,﻿,﻿,﻿Milwaukee,Milwaukee
﻿mil.wi.0278,﻿school,﻿St. Thomas of Aquin's Parish School,English,,,,﻿,﻿Racine County,﻿Waterford,﻿Waterford,﻿WI,,42.760776,-88.212041,,,,,,,,,,﻿student,﻿130 pupils,﻿Conducted by the School Sisters of Notre Dame,,1869,﻿,﻿,﻿Milwaukee,Milwaukee
﻿mil.wi.0279,﻿school,﻿St. Francis Xavier's Parish School,English,,,,﻿,﻿Dane County,﻿Cross Plains,﻿Cross Plains,﻿WI,,43.119824,-89.634631,,,,﻿m-andrea_mil.wi_001,﻿Sister,﻿Mary Andrea,,﻿Directress,,﻿religious,﻿2 Sisters,﻿Conducted by the School Sisters of Notre Dame,,1869,﻿,﻿,﻿Milwaukee,Milwaukee
﻿mil.wi.0279,﻿school,﻿St. Francis Xavier's Parish School,English,,,,﻿,﻿Dane County,﻿Cross Plains,﻿Cross Plains,﻿WI,,43.119824,-89.634631,,,,,,,,,,﻿student,﻿160 pupils,﻿Conducted by the School Sisters of Notre Dame,,1869,﻿,﻿,﻿Milwaukee,Milwaukee
﻿mil.wi.0280,﻿school,﻿St. Kilian's Parish School,English,,,,﻿,﻿Dodge County,﻿Teresaville,﻿St. Kilian's,﻿WI,,43.54639256,-88.36007238,,,,﻿m-laurentia_mil.wi_001,﻿Sister,﻿Mary Laurentia,,﻿Directress,,﻿religious,﻿2 Sisters,﻿Conducted by the School Sisters of Notre Dame,,1869,﻿,﻿,﻿Milwaukee,Milwaukee
﻿mil.wi.0280,﻿school,﻿St. Kilian's Parish School,English,,,,﻿,﻿Dodge County,﻿Teresaville,﻿St. Kilian's,﻿WI,,43.54639256,-88.36007238,,,,,,,,,,﻿student,﻿180 pupils,﻿Conducted by the School Sisters of Notre Dame,,1869,﻿,﻿,﻿Milwaukee,Milwaukee
﻿mil.wi.0281,﻿school,﻿St. Thomas's Parish School,English,,,,﻿,﻿Rock County,﻿Beloit,﻿Beloit,﻿WI,,42.499446,-89.027951,,,,﻿m-lydia_mil.wi_001,﻿Sister,﻿Mary Lydia,,﻿Directress,,﻿religious,﻿2 Sisters,﻿Conducted by the School Sisters of Notre Dame,,1869,﻿,﻿,﻿Milwaukee,Milwaukee
﻿mil.wi.0281,﻿school,﻿St. Thomas's Parish School,English,,,,﻿,﻿Rock County,﻿Beloit,﻿Beloit,﻿WI,,42.499446,-89.027951,,,,,,,,,,﻿student,﻿150 pupils,﻿Conducted by the School Sisters of Notre Dame,,1869,﻿,﻿,﻿Milwaukee,Milwaukee
﻿mil.wi.0282,"﻿house, novitiate",﻿Sisters of the Third Order of St. Francis Seraph,English,"﻿Mother House & Novitiate, Dedicated to Blessed Caleta.  Sisters of the same Community continue at St. Francis, near Milwaukee","﻿Near Jefferson, Jefferson Co.",,﻿,﻿Jefferson County,﻿Jefferson,﻿Jefferson,﻿WI,,43.002448,-88.780225,,,,﻿antonia_mil.wi_001,﻿Mother,﻿Antonia,,﻿Superior,,﻿religious,﻿52 Professed Sisters,,,1869,﻿,﻿,﻿Milwaukee,Milwaukee
﻿mil.wi.0282,"﻿house, novitiate",﻿Sisters of the Third Order of St. Francis Seraph,English,"﻿Mother House & Novitiate, Dedicated to Blessed Caleta.  Sisters of the same Community continue at St. Francis, near Milwaukee","﻿Near Jefferson, Jefferson Co.",,﻿,﻿Jefferson County,﻿Jefferson,﻿Jefferson,﻿WI,,43.002448,-88.780225,,,,﻿rosa_mil.wi_001,﻿Sister,﻿Rosa,,﻿Superior,,﻿religious,﻿37 novices,,,1869,﻿,﻿,﻿Milwaukee,Milwaukee
﻿mil.wi.0282,"﻿house, novitiate",﻿Sisters of the Third Order of St. Francis Seraph,English,"﻿Mother House & Novitiate, Dedicated to Blessed Caleta.  Sisters of the same Community continue at St. Francis, near Milwaukee","﻿Near Jefferson, Jefferson Co.",,﻿,﻿Jefferson County,﻿Jefferson,﻿Jefferson,﻿WI,,43.002448,-88.780225,,,,,,,,,,﻿religious,﻿16 postulants,,,1869,﻿,﻿,﻿Milwaukee,Milwaukee
﻿mil.wi.0283,﻿school,﻿St. Lawrence's,English,,﻿Near Jefferson,,﻿,,,,﻿WI,,43.004965,-88.779191,,,,﻿agnes_mil.wi_001,﻿Sister,﻿Agnes,,﻿Directress,,﻿religious,﻿2 Sisters,﻿Conducted by the Sisters of the Third Order of St. Francis Seraph,,1869,﻿,﻿,﻿Milwaukee,Milwaukee
﻿mil.wi.0283,﻿school,﻿St. Lawrence's,English,,﻿Near Jefferson,,﻿,,,,﻿WI,,43.004965,-88.779191,,,,,,,,,,﻿child,﻿About 130 children,﻿Conducted by the Sisters of the Third Order of St. Francis Seraph,,1869,﻿,﻿,﻿Milwaukee,Milwaukee
﻿mil.wi.0284,﻿school,﻿St. Patrick's,English,,,,﻿,﻿Rock County,﻿Janesville,﻿Janesville,﻿WI,,42.676364,-89.025287,,,,﻿anastasia_mil.wi_001,﻿Sister,﻿Anastasia,,﻿Directress,,﻿religious,﻿5 Sisters,﻿Conducted by the Sisters of the Third Order of St. Francis Seraph,,1869,﻿,﻿,﻿Milwaukee,Milwaukee
﻿mil.wi.0284,﻿school,﻿St. Patrick's,English,,,,﻿,﻿Rock County,﻿Janesville,﻿Janesville,﻿WI,,42.676364,-89.025287,,,,,,,,,,﻿child,﻿About 300 children,﻿Conducted by the Sisters of the Third Order of St. Francis Seraph,,1869,﻿,﻿,﻿Milwaukee,Milwaukee
﻿mil.wi.0285,﻿school,﻿St. Anthony's,English,,,,﻿,﻿Waukesha County,﻿Fussville,﻿Menomonee Falls,﻿WI,,43.152723,-88.079012,,,,﻿lucia_mil.wi_001,﻿Sister,﻿Lucia,,﻿Directress,,﻿religious,﻿3 Sisters,﻿Conducted by the Sisters of the Third Order of St. Francis Seraph,,1869,﻿,﻿,﻿Milwaukee,Milwaukee
﻿mil.wi.0285,﻿school,﻿St. Anthony's,English,,,,﻿,﻿Waukesha County,﻿Fussville,﻿Menomonee Falls,﻿WI,,43.152723,-88.079012,,,,,,,,,,﻿child,﻿About 160 children,﻿Conducted by the Sisters of the Third Order of St. Francis Seraph,,1869,﻿,﻿,﻿Milwaukee,Milwaukee
﻿mil.wi.0286,﻿school,﻿St. Mary's,English,,,,﻿,,﻿Franklin,,﻿WI,,42.910856,-88.044131,,,,﻿hyacintha_mil.wi_001,﻿Sister,﻿Hyacintha,,﻿Directress,,﻿religious,﻿3 Sisters,﻿Conducted by the Sisters of the Third Order of St. Francis Seraph,,1869,﻿,﻿,﻿Milwaukee,Milwaukee
﻿mil.wi.0286,﻿school,﻿St. Mary's,English,,,,﻿,,﻿Franklin,,﻿WI,,42.910856,-88.044131,,,,,,,,,,﻿child,﻿About 150 children,﻿Conducted by the Sisters of the Third Order of St. Francis Seraph,,1869,﻿,﻿,﻿Milwaukee,Milwaukee
﻿mil.wi.0287,﻿school,﻿St. Henry's,English,,,,﻿,﻿Dodge County,﻿Watertown,﻿Watertown,﻿WI,,43.196569,-88.720928,,,,﻿kiliana_mil.wi_001,﻿Sister,﻿Kiliana,,﻿Directress,,﻿religious,﻿4 Sisters,﻿Conducted by the Sisters of the Third Order of St. Francis Seraph,,1869,﻿,﻿,﻿Milwaukee,Milwaukee
﻿mil.wi.0287,﻿school,﻿St. Henry's,English,,,,﻿,﻿Dodge County,﻿Watertown,﻿Watertown,﻿WI,,43.196569,-88.720928,,,,,,,,,,﻿child,﻿About 180 children,﻿Conducted by the Sisters of the Third Order of St. Francis Seraph,,1869,﻿,﻿,﻿Milwaukee,Milwaukee
﻿mil.wi.0288,﻿school,﻿St. Bruno's,English,,,,﻿,﻿Waukesha County,﻿Ottawa,﻿Ottawa,﻿WI,,42.993896,-88.512589,,,,﻿xaveria_mil.wi_001,﻿Sister,﻿Xaveria,,﻿Directress,,﻿religious,﻿2 Sisters,﻿Conducted by the Sisters of the Third Order of St. Francis Seraph,,1869,﻿,﻿,﻿Milwaukee,Milwaukee
﻿mil.wi.0288,﻿school,﻿St. Bruno's,English,,,,﻿,﻿Waukesha County,﻿Ottawa,﻿Ottawa,﻿WI,,42.993896,-88.512589,,,,,,,,,,﻿child,﻿About 60 children,﻿Conducted by the Sisters of the Third Order of St. Francis Seraph,,1869,﻿,﻿,﻿Milwaukee,Milwaukee
﻿mil.wi.0289,﻿school,﻿St. Mary's,English,,,,﻿,,﻿Goldenlake,﻿Golden Lake,﻿WI,,43.034676,-88.536382,,,,﻿ludwina_mil.wi_001,﻿Sister,﻿Ludwina,,﻿Directress,,﻿religious,﻿2 Sisters,﻿Conducted by the Sisters of the Third Order of St. Francis Seraph,,1869,﻿,﻿,﻿Milwaukee,Milwaukee
﻿mil.wi.0289,﻿school,﻿St. Mary's,English,,,,﻿,,﻿Goldenlake,﻿Golden Lake,﻿WI,,43.034676,-88.536382,,,,,,,,,,﻿child,﻿About 70 children,﻿Conducted by the Sisters of the Third Order of St. Francis Seraph,,1869,﻿,﻿,﻿Milwaukee,Milwaukee
﻿mil.wi.0290,﻿school,﻿St. Mary's Immaculate,English,,,,,﻿Ozaukee County,﻿Saukville,﻿Saukville,﻿WI,,43.380143,-87.94336,,,,﻿carolina_mil.wi_001,﻿Sister,﻿Carolina,,﻿Directress,,﻿religious,﻿3 Sisters,﻿Conducted by the Sisters of the Third Order of St. Francis Seraph,,1869,﻿,﻿,﻿Milwaukee,Milwaukee
﻿mil.wi.0290,﻿school,﻿St. Mary's Immaculate,English,,,,﻿,﻿Ozaukee County,﻿Saukville,﻿Saukville,﻿WI,,43.380143,-87.94336,,,,,,,,,,﻿child,﻿About 130 children,﻿Conducted by the Sisters of the Third Order of St. Francis Seraph,,1869,﻿,﻿,﻿Milwaukee,Milwaukee
﻿mil.wi.0291,"﻿school, asylum",﻿St. Emilian's Male Orphan Asylum,English,,﻿Near Milwaukee,,﻿,,﻿St. Francis Station,,﻿WI,,42.982992,-87.870593,,,,﻿mary_mil.wi_001,﻿Sister,﻿Mary,,﻿Superior,,﻿child,﻿About 60 orphans,﻿Conducted by the Sisters of the Third Order of St. Francis Seraph,,1869,﻿,﻿,﻿Milwaukee,Milwaukee
﻿mil.wi.0292,﻿convent,﻿Convent of the Dominican Sisters,English,"﻿Mother House and Novitiate, connected immediately with this is a parochial school.",,,,﻿Lafayette County,﻿Benton,﻿Benton,﻿WI,,42.567259,-90.378844,,,,﻿m-emily_mil.wi_001,﻿Sister,﻿M. Emily,,﻿Superior,,﻿student,﻿125 pupils,,,1869,﻿,﻿,﻿Milwaukee,Milwaukee
﻿mil.wi.0292,﻿convent,﻿Convent of the Dominican Sisters,English,"﻿Mother House and Novitiate, connected immediately with this is a parochial school.",,,﻿,﻿Lafayette County,﻿Benton,﻿Benton,﻿WI,,42.567259,-90.378844,,,,,,,,,,﻿religious,﻿55 Sisters,,,1869,﻿,﻿,﻿Milwaukee,Milwaukee
﻿mil.wi.0292,﻿convent,﻿Convent of the Dominican Sisters,English,"﻿Mother House and Novitiate, connected immediately with this is a parochial school.",,,﻿,﻿Lafayette County,﻿Benton,﻿Benton,﻿WI,,42.567259,-90.378844,,,,,,,,,,﻿religious,﻿12 novices,,,1869,﻿,﻿,﻿Milwaukee,Milwaukee
﻿mil.wi.0292_03,﻿academy,﻿St. Clara's Academy,English,﻿Apart from this is a day school.,﻿Twelve miles from the Mother House in Benton,,,﻿Grant County,﻿Sinsinawa Mound,﻿Sinsinawa,﻿WI,,42.567259,-90.378844,,,,,,,,,,﻿religious,﻿30 Sisters,﻿Conducted by the Dominican Sisters,,1869,﻿,﻿,﻿Milwaukee,Milwaukee
﻿mil.wi.0292_03,﻿academy,﻿St. Clara's Academy,English,﻿Apart from this is a day school.,﻿Twelve miles from the Mother House in Benton,,﻿,﻿Grant County,﻿Sinsinawa Mound,﻿Sinsinawa,﻿WI,,42.567259,-90.378844,,,,,,,,,,﻿student,﻿130 boarders,﻿Conducted by the Dominican Sisters,,1869,﻿,﻿,﻿Milwaukee,Milwaukee
﻿mil.wi.0292_03,﻿academy,﻿St. Clara's Academy,English,﻿Apart from this is a day school.,﻿Twelve miles from the Mother House in Benton,,﻿,﻿Grant County,﻿Sinsinawa Mound,﻿Sinsinawa,﻿WI,,42.567259,-90.378844,,,,,,,,,,﻿student,﻿100 pupils,﻿Conducted by the Dominican Sisters,,1869,﻿,﻿,﻿Milwaukee,Milwaukee
﻿mil.wi.0154_02,﻿school,﻿St. Mary's,English,,,,﻿,﻿Lafayette County,﻿New Diggings,﻿New Diggings,﻿WI,,42.534075,-90.334564,,,,,,,,,,﻿religious,﻿2 Sisters,﻿Conducted by the Dominican Sisters,,1869,﻿,﻿,﻿Milwaukee,Milwaukee
﻿mil.wi.0154_02,﻿school,﻿St. Mary's,English,,,,﻿,﻿Lafayette County,﻿New Diggings,﻿New Diggings,﻿WI,,42.534075,-90.334564,,,,,,,,,,﻿student,﻿160 pupils,﻿Conducted by the Dominican Sisters,,1869,﻿,﻿,﻿Milwaukee,Milwaukee
﻿mil.wi.0295,﻿school,﻿St. Rose of Lima,English,,,,﻿,﻿Lafayette County,﻿Shullsburgh,﻿Shullsburg,﻿WI,,42.574395,-90.230549,,,,,,,,,,﻿religious,﻿3 Sisters,﻿Conducted by the Dominican Sisters,,1869,﻿,﻿,﻿Milwaukee,Milwaukee
﻿mil.wi.0295,﻿school,﻿St. Rose of Lima,English,,,,﻿,﻿Lafayette County,﻿Shullsburgh,﻿Shullsburg,﻿WI,,42.574395,-90.230549,,,,,,,,,,﻿student,﻿75 pupils,﻿Conducted by the Dominican Sisters,,1869,﻿,﻿,﻿Milwaukee,Milwaukee
﻿mil.wi.0296,﻿school,﻿St. Joseph's,English,,,,﻿,﻿Iowa County,﻿Mineral Point,﻿Mineral Point,﻿WI,,42.857093,-90.188688,,,,,,,,,,﻿religious,﻿3 Sisters,﻿Conducted by the Dominican Sisters,,1869,﻿,﻿,﻿Milwaukee,Milwaukee
﻿mil.wi.0296,﻿school,﻿St. Joseph's,English,,,,﻿,﻿Iowa County,﻿Mineral Point,﻿Mineral Point,﻿WI,,42.857093,-90.188688,,,,,,,,,,﻿student,﻿130 pupils,﻿Conducted by the Dominican Sisters,,1869,﻿,﻿,﻿Milwaukee,Milwaukee
﻿mil.wi.0297,﻿school,﻿St. Agnes',English,,,,﻿,﻿Winnebago County,﻿Oshkosh,﻿Oshkosh,﻿WI,,44.048403,-88.543971,,,,,,,,,,﻿religious,﻿3 Sisters,﻿Conducted by the Dominican Sisters,,1869,﻿,﻿,﻿Milwaukee,Milwaukee
﻿mil.wi.0297,﻿school,﻿St. Agnes',English,,,,﻿,﻿Winnebago County,﻿Oshkosh,﻿Oshkosh,﻿WI,,44.048403,-88.543971,,,,,,,,,,﻿student,﻿230 pupils,﻿Conducted by the Dominican Sisters,,1869,﻿,﻿,﻿Milwaukee,Milwaukee
﻿mil.wi.0298,﻿school,﻿St. Mary's of the Lake,English,,,,﻿,﻿Kenosha County,﻿Kenosha,﻿Kenosha,﻿WI,,42.581123,-87.872016,,,,,,,,,,﻿religious,﻿3 Sisters,﻿Conducted by the Dominican Sisters,,1869,﻿,﻿,﻿Milwaukee,Milwaukee
﻿mil.wi.0298,﻿school,﻿St. Mary's of the Lake,English,,,,﻿,﻿Kenosha County,﻿Kenosha,﻿Kenosha,﻿WI,,42.581123,-87.872016,,,,,,,,,,﻿student,﻿250 pupils,﻿Conducted by the Dominican Sisters,,1869,﻿,﻿,﻿Milwaukee,Milwaukee
﻿mil.wi.0299&0299_02,"﻿house, novitiate",﻿Convent of the Dominican Sisters,English,﻿Mother House and Novitiate,﻿Corner of Twelfth and Peal streets,,,﻿Racine County,﻿Racine,﻿Racine,﻿WI,,42.718221,-87.785523,,,,﻿m-hyacintha_mil.wi_001,﻿Mother,﻿Mary Hyacintha,,﻿Superior,,﻿religious,﻿19 Professed Sisters,,,1869,﻿,﻿,﻿Milwaukee,Milwaukee
﻿mil.wi.0299&0299_02,"﻿house, novitiate",﻿Convent of the Dominican Sisters,English,﻿Mother House and Novitiate,﻿Corner of Twelfth and Peal streets,,﻿,﻿Racine County,﻿Racine,﻿Racine,﻿WI,,42.718221,-87.785523,,,,﻿j_a_bichaensler_001,﻿Rev.,﻿J. A. Bichaensler,,﻿Chaplain,,﻿religious,﻿3 novices,,,1869,﻿,﻿,﻿Milwaukee,Milwaukee
﻿mil.wi.0299&0299_02,"﻿house, novitiate",﻿Convent of the Dominican Sisters,English,﻿Mother House and Novitiate,﻿Corner of Twelfth and Peal streets,,﻿,﻿Racine County,﻿Racine,﻿Racine,﻿WI,,42.718221,-87.785523,,,,,,,,,,﻿religious,﻿5 postulants,,,1869,﻿,﻿,﻿Milwaukee,Milwaukee
﻿mil.wi.0300,﻿academy,﻿Academy of St. Catharine de Sienna,English,,﻿Connected with the Convent,,﻿,﻿Racine County,,﻿Racine,﻿WI,,42.718221,-87.785523,,,,﻿m-rosa_mil.wi_001,﻿Sister,﻿Mary Rosa,,﻿Directress,,﻿student,﻿35 pupils,﻿Conducted by the Dominican Sisters,,1869,﻿,﻿,﻿Milwaukee,Milwaukee
﻿mil.wi.0301,﻿school,﻿St. Mary's Parish School,English,,,,﻿,﻿Racine County,﻿Racine,﻿Racine,﻿WI,,42.724484,-87.78494,,,,﻿m-augustina_mil.wi_001,﻿Sister,﻿Mary Augustina,,﻿Directress,,﻿religious,﻿3 Sisters,﻿Conducted by the Dominican Sisters,,1869,﻿,﻿,﻿Milwaukee,Milwaukee
﻿mil.wi.0301,﻿school,﻿St. Mary's Parish School,English,,,,﻿,﻿Racine County,﻿Racine,﻿Racine,﻿WI,,42.724484,-87.78494,,,,,,,,,,﻿student,﻿150 pupils,﻿Conducted by the Dominican Sisters,,1869,﻿,﻿,﻿Milwaukee,Milwaukee
﻿mil.wi.0302,﻿school,﻿St. Norbert's Parish School,English,,,,﻿,﻿Dane County,﻿Roxbury,﻿Roxbury,﻿WI,,43.250644,-89.677281,,,,﻿m-sybillina_mil.wi_001,﻿Sister,﻿Mary Sybillina,,﻿Directress,,﻿religious,﻿3 Sisters,﻿Conducted by the Dominican Sisters,,1869,﻿,﻿,﻿Milwaukee,Milwaukee
﻿mil.wi.0302,﻿school,﻿St. Norbert's Parish School,English,,,,﻿,﻿Dane County,﻿Roxbury,﻿Roxbury,﻿WI,,43.250644,-89.677281,,,,,,,,,,﻿student,﻿130 pupils,﻿Conducted by the Dominican Sisters,,1869,﻿,﻿,﻿Milwaukee,Milwaukee
﻿mil.wi.0303,﻿school,﻿St. John Nepomucene's Parish School,English,,,,﻿Iowa County,﻿Iowa County,﻿Highland,﻿Highland,﻿WI,,43.056902,-90.498795,,,,﻿m-seraphina_mil.wi_001,﻿Sister,﻿Mary Seraphina,,﻿Directress,,﻿religious,﻿3 Sisters,﻿Conducted by the Dominican Sisters,,1869,﻿,﻿,﻿Milwaukee,Milwaukee
﻿mil.wi.0303,﻿school,﻿St. John Nepomucene's Parish School,English,,,,﻿,﻿Iowa County,﻿Highland,﻿Highland,﻿WI,,43.056902,-90.498795,,,,,,,,,,﻿student,﻿150 pupils,﻿Conducted by the Dominican Sisters,,1869,﻿,﻿,﻿Milwaukee,Milwaukee
﻿mil.wi.0304,﻿school,﻿St. Andrew's Parish School,English,,,,﻿Dodge County,﻿Dodge County,﻿Loomara,﻿Lomira,﻿WI,,43.573118,-88.550108,,,,﻿m-dominica_mil.wi_001,﻿Sister,﻿Mary Dominica,,﻿Directress,,﻿religious,﻿3 Sisters,﻿Conducted by the Dominican Sisters,,1869,﻿,﻿,﻿Milwaukee,Milwaukee
﻿mil.wi.0305,"﻿house, convent",﻿St. Agnes Community,English,,,,﻿Washington County,﻿Washington County,﻿Barton,﻿Barton,﻿WI,,43.43789,-88.185299,,,,﻿m-agnes_mil.wi_001,﻿Sister,﻿Mary Agnes,,﻿Superior-General,,﻿religious,﻿33 Sisters,,,1869,﻿,﻿,﻿Milwaukee,Milwaukee
﻿mil.wi.0305,"﻿house, convent",﻿St. Agnes Community,English,,,,﻿Washington County,﻿Washington County,﻿Barton,﻿Barton,﻿WI,,43.43789,-88.185299,,,,﻿m-catharine_de-sienna_mil.wi_001,﻿Sister,﻿Mary Catharine de Sienna,,﻿Prefecta of the Mother House,,﻿religious,﻿7 novices,,,1869,﻿,﻿,﻿Milwaukee,Milwaukee
﻿mil.wi.0305,"﻿house, convent",﻿St. Agnes Community,English,,,,﻿Washington County,﻿Washington County,﻿Barton,﻿Barton,﻿WI,,43.43789,-88.185299,,,,,,,,,,﻿religious,﻿17 postulants,,,1869,﻿,﻿,﻿Milwaukee,Milwaukee
﻿mil.wi.0306,﻿school,﻿St. Agnes' Academy and Boarding School,English,,,,﻿Washington County,﻿Washington County,﻿Barton,﻿Barton,﻿WI,,43.43789,-88.185299,,,,,,,,,,,,﻿Conducted by the Sisters of St. Agnes Community,,1869,﻿,﻿,﻿Milwaukee,Milwaukee
﻿mil.wi.0307,﻿school,[Unnamed Institution],English,﻿Catholic School,,,﻿Washington County,﻿Washington County,﻿Hartford,﻿Hartford,﻿WI,,43.322406,-88.382373,,,,,,,,,,,,﻿Conducted by the Sisters of St. Agnes Community,,1869,﻿,﻿,﻿Milwaukee,Milwaukee
﻿mil.wi.0308,﻿school,[Unnamed Institution],English,﻿Catholic School,,,﻿Washington County,﻿Washington County,﻿Schleisingerville,﻿Slinger,﻿WI,,43.333613,-88.286206,,,,,,,,,,,,﻿Conducted by the Sisters of St. Agnes Community,,1869,﻿,﻿,﻿Milwaukee,Milwaukee
﻿mil.wi.0309,﻿school,﻿St. Anthony's,English,﻿The Sisters teach the public and Catholic schools.,,,,﻿Washington County,,,﻿WI,,43.442793,-88.340515,,,,,,,,,,,,﻿Conducted by the Sisters of St. Agnes Community,,1869,﻿,﻿,﻿Milwaukee,Milwaukee
﻿mil.wi.0014_02,﻿school,﻿SS. Peter and Paul's,English,﻿A Catholic School,,,,﻿Washington County,,,﻿WI,,43.446284,-88.393623,,,,,,,,,,,,﻿Conducted by the Sisters of St. Agnes Community,,1869,﻿,﻿,﻿Milwaukee,Milwaukee
﻿mil.wi.0311,﻿school,﻿St. John's of God,English,﻿Two large school-houses in one. Sisters teach public in the other Catholic school.,,,,﻿Ozaukee County,,,﻿WI,,43.513052,-88.110006,,,,,,,,,,,,﻿Conducted by the Sisters of St. Agnes Community,,1869,﻿,﻿,﻿Milwaukee,Milwaukee
﻿mil.wi.0312,﻿school,﻿St. Augustin's,English,﻿Public and Catholic school.,,,,﻿Ozaukee County,,,﻿WI,,43.384316,-88.041167,,,,,,,,,,,,﻿Conducted by the Sisters of St. Agnes Community,,1869,﻿,﻿,﻿Milwaukee,Milwaukee
﻿mil.wi.0213_02,﻿school,﻿St. Mathias's,English,﻿Public and Catholic school.,,,,﻿Fond du Lac County,,,﻿WI,,43.420725,-88.271444,,,,,,,,,,,,﻿Conducted by the Sisters of St. Agnes Community,,1869,﻿,﻿,﻿Milwaukee,Milwaukee
﻿mil.wi.0314,﻿school,﻿St. Francis Xavier's,English,﻿Public and Catholic school.,,,﻿Ozaukee County,,,,﻿WI,,43.352328,-87.969748,,,,,,,,,,,,﻿Conducted by the Sisters of St. Agnes Community,,1869,﻿,﻿,﻿Milwaukee,Milwaukee
﻿mil.wi.0315,﻿school,﻿St. Joseph's,English,﻿Catholic School,,,,﻿Milwaukee County,,,﻿WI,,43.319503,-87.946456,,,,,,,,,,,,﻿Conducted by the Sisters of St. Agnes Community,,1869,﻿,﻿,﻿Milwaukee,Milwaukee
﻿mil.wi.0316,﻿school,[Unnamed Institution],English,﻿Public and Catholic school.,﻿School,,﻿Fond du Lac County,,﻿Marytown,﻿Marytown,﻿WI,,43.911303,-88.203128,,,,,,,,,,,,﻿Conducted by the Sisters of St. Agnes Community,,1869,﻿,﻿,﻿Milwaukee,Milwaukee
﻿mil.wi.0317,﻿school,﻿St. Joseph's,English,"﻿A very large school-house, in which Sisters teach public and Catholic school.",,,﻿Dane County,,,,﻿WI,,43.267928,-89.153749,,,,,,,,,,,,﻿Conducted by the Sisters of St. Agnes Community,,1869,﻿,﻿,﻿Milwaukee,Milwaukee
﻿mil.wi.0318,﻿seminary,﻿Ecclesiastical Seminary of St. Francis 'de' Sales (Salesianum),English,,﻿P.O. St. Francis,,﻿Milwaukee County,,,,﻿WI,,42.979525,-87.867348,,,,﻿jos_salzmann_001,﻿Rev.,﻿Jos. Salzmann,﻿D.D.,"﻿Rector and Professor of Church History, Canon Law, and Scripture",,﻿student,"﻿202 students; of whom 18 are philosophers, 72 theologians, and the rest in the classical course",,,1869,﻿,﻿,﻿Milwaukee,Milwaukee
﻿mil.wi.0318,﻿seminary,﻿Ecclesiastical Seminary of St. Francis 'de' Sales (Salesianum),English,,﻿P.O. St. Francis,,﻿,,,,﻿WI,,42.979525,-87.867348,,,,﻿m_gernbauer_001,﻿Rev.,﻿M. Gernbauer,,﻿Professor of Classics,,﻿student,"﻿202 students; of whom 18 are philosophers, 72 theologians, and the rest in the classical course",,,1869,﻿,﻿,﻿Milwaukee,Milwaukee
﻿mil.wi.0318,﻿seminary,﻿Ecclesiastical Seminary of St. Francis 'de' Sales (Salesianum),English,,﻿P.O. St. Francis,,﻿,,,,﻿WI,,42.979525,-87.867348,,,,﻿ch_wapelhorst_001,﻿Rev.,﻿Ch. Wapelhorst,,﻿Procurator and Professor of Moral Theology and Liturgy,,﻿student,"﻿202 students; of whom 18 are philosophers, 72 theologians, and the rest in the classical course",,,1869,﻿,﻿,﻿Milwaukee,Milwaukee
﻿mil.wi.0318,﻿seminary,﻿Ecclesiastical Seminary of St. Francis 'de' Sales (Salesianum),English,,﻿P.O. St. Francis,,﻿,,,,﻿WI,,42.979525,-87.867348,,,,﻿alo_sigg_001,﻿Rev.,﻿Aloise Sigg,,﻿Professor of Latin,,﻿student,"﻿202 students; of whom 18 are philosophers, 72 theologians, and the rest in the classical course",,,1869,﻿,﻿,﻿Milwaukee,Milwaukee
﻿mil.wi.0318,﻿seminary,﻿Ecclesiastical Seminary of St. Francis 'de' Sales (Salesianum),English,,﻿P.O. St. Francis,,﻿,,,,﻿WI,,42.979525,-87.867348,,,,﻿fre_katzer_001,﻿Rev.,﻿Fred. Katzer,,"﻿Professor of Dogma and Philosophy, and Prefect of Studies",,﻿student,"﻿202 students; of whom 18 are philosophers, 72 theologians, and the rest in the classical course",,,1869,﻿,﻿,﻿Milwaukee,Milwaukee
﻿mil.wi.0318,﻿seminary,﻿Ecclesiastical Seminary of St. Francis 'de' Sales (Salesianum),English,,﻿P.O. St. Francis,,﻿,,,,﻿WI,,42.979525,-87.867348,,,,﻿jos_rainer_001,﻿Rev.,﻿Jos. Rainer,,"﻿Professor of Latin and Greek, and Disciplinarian",,﻿student,"﻿202 students; of whom 18 are philosophers, 72 theologians, and the rest in the classical course",,,1869,﻿,﻿,﻿Milwaukee,Milwaukee
﻿mil.wi.0318,﻿seminary,﻿Ecclesiastical Seminary of St. Francis 'de' Sales (Salesianum),English,,﻿P.O. St. Francis,,﻿,,,,﻿WI,,42.979525,-87.867348,,,,﻿joh_wiegers_001,﻿Rev.,﻿John Wiegers,,"﻿Professor of Christian Doctrine, German, and History",,﻿student,"﻿202 students; of whom 18 are philosophers, 72 theologians, and the rest in the classical course",,,1869,﻿,﻿,﻿Milwaukee,Milwaukee
﻿mil.wi.0318,﻿seminary,﻿Ecclesiastical Seminary of St. Francis 'de' Sales (Salesianum),English,,﻿P.O. St. Francis,,﻿,,,,﻿WI,,42.979525,-87.867348,,,,﻿tho_fagan_001,﻿Rev.,﻿Thomas Fagan,,﻿Professor of English,,﻿student,"﻿202 students; of whom 18 are philosophers, 72 theologians, and the rest in the classical course",,,1869,﻿,﻿,﻿Milwaukee,Milwaukee
﻿mil.wi.0318,﻿seminary,﻿Ecclesiastical Seminary of St. Francis 'de' Sales (Salesianum),English,,﻿P.O. St. Francis,,﻿,,,,﻿WI,,42.979525,-87.867348,,,,﻿aug_zeininger_001,﻿Rev.,﻿Aug. Zeininger,,﻿Professor of Mathematics and Natural Philosophy,,﻿student,"﻿202 students; of whom 18 are philosophers, 72 theologians, and the rest in the classical course",,,1869,﻿,﻿,﻿Milwaukee,Milwaukee
﻿mil.wi.0318,﻿seminary,﻿Ecclesiastical Seminary of St. Francis 'de' Sales (Salesianum),English,,﻿P.O. St. Francis,,﻿,,,,﻿WI,,42.979525,-87.867348,,,,﻿joh_g_gmeiner_001,﻿Rev.,﻿John Gmeiner,,"﻿Professor of Latin, History, Geography, and of German for the English",,﻿student,"﻿202 students; of whom 18 are philosophers, 72 theologians, and the rest in the classical course",,,1869,﻿,﻿,﻿Milwaukee,Milwaukee
﻿mil.wi.0319,﻿school,﻿St. Gall's School,English,,﻿P.O. St. Francis,,﻿,﻿Milwaukee County,﻿Milwaukee,﻿Milwaukee,﻿WI,,43.066124,-87.913974,,,,﻿wm_schmidt_001,﻿Rev.,﻿Wm. Schmidt,﻿S.J.,﻿Director,,,,,,1869,﻿,﻿,﻿Milwaukee,Milwaukee
﻿mil.wi.0319,﻿school,﻿St. Gall's School,English,,﻿P.O. St. Francis,,﻿,﻿Milwaukee County,﻿Milwaukee,﻿Milwaukee,﻿WI,,43.066124,-87.913974,,,,﻿p_a_nogues_001,﻿Rev.,﻿P. A. Nogues,﻿S.J.,﻿Teacher,,,,,,1869,﻿,﻿,﻿Milwaukee,Milwaukee
﻿mil.wi.0319,﻿school,﻿St. Gall's School,English,,﻿P.O. St. Francis,,﻿,﻿Milwaukee County,﻿Milwaukee,﻿Milwaukee,﻿WI,,43.066124,-87.913974,,,,﻿james_g_walsh_mil.wi_001,﻿Mr.,﻿James G. Walsh,﻿S.J.,﻿Teacher,,,,,,1869,﻿,﻿,﻿Milwaukee,Milwaukee
﻿mil.wi.0319,﻿school,﻿St. Gall's School,English,,﻿P.O. St. Francis,,﻿,﻿Milwaukee County,﻿Milwaukee,﻿Milwaukee,﻿WI,,43.066124,-87.913974,,,,﻿michael_connely_mil.wi_001,﻿Mr.,﻿Michael Connely,﻿S.J.,﻿Teacher,,,,,,1869,﻿,﻿,﻿Milwaukee,Milwaukee
﻿mil.wi.0319,﻿school,﻿St. Gall's School,English,,﻿P.O. St. Francis,,﻿,﻿Milwaukee County,﻿Milwaukee,﻿Milwaukee,﻿WI,,43.066124,-87.913974,,,,﻿j_c_callan_mil.wi_001,﻿Mr.,﻿J. C. Callan,,﻿Teacher,,,,,,1869,﻿,﻿,﻿Milwaukee,Milwaukee
﻿mil.wi.0319,﻿school,﻿St. Gall's School,English,,﻿P.O. St. Francis,,﻿,﻿Milwaukee County,﻿Milwaukee,﻿Milwaukee,﻿WI,,43.066124,-87.913974,,,,﻿d_b_corcoran_mil.wi_001,﻿Mr.,﻿D. B. Corcoran,,﻿Teacher,,,,,,1869,﻿,﻿,﻿Milwaukee,Milwaukee
﻿mil.wi.0319,﻿school,﻿St. Gall's School,English,,﻿P.O. St. Francis,,﻿,﻿Milwaukee County,﻿Milwaukee,﻿Milwaukee,﻿WI,,43.066124,-87.913974,,,,﻿j_h_mctighe_mil.wi_001,﻿Mr.,﻿J. H. McTighe,,﻿Teacher,,,,,,1869,﻿,﻿,﻿Milwaukee,Milwaukee
﻿mil.wi.0319,﻿school,﻿St. Gall's School,English,,﻿P.O. St. Francis,,﻿,﻿Milwaukee County,﻿Milwaukee,﻿Milwaukee,﻿WI,,43.066124,-87.913974,,,,﻿george_blackwell_mil.wi_001,﻿Mr.,﻿George Blackwell,,﻿Teacher,,,,,,1869,﻿,﻿,﻿Milwaukee,Milwaukee
﻿mil.wi.0320,﻿hospital,﻿St. Mary's Hospital,English,,﻿On North Point avenue,,﻿,﻿Milwaukee County,﻿Milwaukee,﻿Milwaukee,﻿WI,,43.061037,-87.880421,,,,﻿m-vincent_mil.wi_001,﻿Sister,﻿Mary Vincent,,﻿Sister-Servant,,,,﻿Under the charge of the Daughters of Charity,,1869,﻿,﻿,﻿Milwaukee,Milwaukee
﻿mil.wi.0321,﻿asylum,﻿St. Emilian's Male Orphan Asylum,English,,﻿Near Milwaukee,,﻿,,﻿St. Francis' Station,,﻿WI,,42.979754,-87.870546,,,,﻿mary_mil.wi_001,﻿Sister,﻿Mary,,﻿Superior,,﻿child,﻿57 orphans,﻿Under the care of the Sisters of the Third Order of St. Francis Seraph,,1869,﻿,﻿,﻿Milwaukee,Milwaukee
﻿mil.wi.0322_01,﻿asylum,﻿St. Rosa's Female Orphan Asylum,English,,"﻿On Jackson, near Biddle street",,﻿Waukesha,﻿Milwaukee County,﻿Milwaukee,﻿Milwaukee,﻿WI,,43.043037,-87.904857,,,,﻿camilla_mil.wi_001,﻿Sister,﻿Camilla,,﻿Sister-Servant,,﻿child,﻿84 orphans,﻿Conducted by eight Daughters of Charity,,1869,﻿,﻿,﻿Milwaukee,Milwaukee
﻿mil.wi.0322_02,﻿asylum,﻿St. Joseph's Orphan Asylum,English,﻿For small female children,﻿On North Point avenue,,,﻿Milwaukee County,﻿Milwaukee,﻿Milwaukee,﻿WI,,43.043037,-87.904857,,,,,,,,,,﻿child,﻿52 orphans,﻿In charge of the Daughters of Charity,,1869,﻿,﻿,﻿Milwaukee,Milwaukee
﻿mil.wi.0066_03,﻿asylum,﻿St. Mary's Orphan Asylum,English,,"﻿On Jackson, near Biddle street",,﻿Waukesha County,﻿Waukesha County,﻿Elm Grove,﻿Elm Grove,﻿WI,,43.044445,-88.074792,,,,﻿m-romualda_mil.wi_001,﻿Sister,﻿Mary Romualda,,﻿Directress,,﻿child,﻿40 orphans,﻿Under the direction of the School Sisters of Notre Dame,,1869,﻿,﻿,﻿Milwaukee,Milwaukee
